[
  {
    "title": "整租·西总布胡同 2室1厅 南/北",
    "community": "西总布胡同",
    "area": "58.47",
    "rooms": "2室1厅",
    "direction": "南/北",
    "floor": "",
    "price": "7200",
    "tags": "",
    "source": "",
    "url": "https://bj.lianjia.com/zufang/BJ2145085313477771264.html",
    "rent_type": "整租",
    "location": "东城区-建国门内-西总布胡同",
    "scraped_at": "2026-05-02 20:07:19",
    "region": "jianguomennei",
    "unit_price": 123.1,
    "lat": 39.910526,
    "lng": 116.415998
  },
  {
    "title": "整租·西总布胡同55号院 2室1厅 南/北",
    "community": "西总布胡同55号院",
    "area": "55.00",
    "rooms": "2室1厅",
    "direction": "南/北",
    "floor": "",
    "price": "7400",
    "tags": "",
    "source": "",
    "url": "https://bj.lianjia.com/zufang/BJ1862462716921249792.html",
    "rent_type": "整租",
    "location": "东城区-建国门内-西总布胡同",
    "scraped_at": "2026-05-02 20:07:19",
    "region": "jianguomennei",
    "unit_price": 134.5,
    "lat": 39.91091,
    "lng": 116.412855
  },
  {
    "title": "整租·大羊宜宾胡同35号院 2室1厅 南/北",
    "community": "大羊宜宾胡同35号院",
    "area": "59.10",
    "rooms": "2室1厅",
    "direction": "南/北",
    "floor": "",
    "price": "4900",
    "tags": "",
    "source": "",
    "url": "https://bj.lianjia.com/zufang/BJ2150820485523308544.html",
    "rent_type": "整租",
    "location": "东城区-建国门内-大羊宜宾胡同",
    "scraped_at": "2026-05-02 20:07:19",
    "region": "jianguomennei",
    "unit_price": 82.9,
    "lat": 39.911766,
    "lng": 116.421368
  },
  {
    "title": "整租·贡院九号 2室2厅 南/北",
    "community": "贡院九号",
    "area": "159.89",
    "rooms": "2室2厅",
    "direction": "南/北",
    "floor": "",
    "price": "20000",
    "tags": "",
    "source": "",
    "url": "https://bj.lianjia.com/zufang/BJ2142161086156111872.html",
    "rent_type": "整租",
    "location": "东城区-建国门内-贡院九号",
    "scraped_at": "2026-05-02 20:07:19",
    "region": "jianguomennei",
    "unit_price": 125.1,
    "lat": 39.909246,
    "lng": 116.423681
  },
  {
    "title": "整租·恒基中心 3室1厅 东南",
    "community": "恒基中心",
    "area": "168.14",
    "rooms": "3室1厅",
    "direction": "东南",
    "floor": "",
    "price": "17000",
    "tags": "",
    "source": "",
    "url": "https://bj.lianjia.com/zufang/BJ2144463082447962112.html",
    "rent_type": "整租",
    "location": "东城区-建国门内-恒基中心",
    "scraped_at": "2026-05-02 20:07:19",
    "region": "jianguomennei",
    "unit_price": 101.1,
    "lat": 39.901476,
    "lng": 116.412831
  },
  {
    "title": "独栋·芷岸 建融家园建国门店 开间68平 1室1厅",
    "community": "芷岸 建融家园建国门店 开间68平",
    "area": "68.00",
    "rooms": "1室1厅",
    "direction": "",
    "floor": "",
    "price": "10000",
    "tags": "",
    "source": "",
    "url": "https://bj.lianjia.com/apartment/87274.html",
    "rent_type": "独栋",
    "location": "",
    "scraped_at": "2026-05-02 20:07:19",
    "region": "jianguomennei",
    "unit_price": 147.1,
    "lat": 39.874882,
    "lng": 116.630125
  },
  {
    "title": "整租·恒基中心 3室1厅 西北",
    "community": "恒基中心",
    "area": "160.56",
    "rooms": "3室1厅",
    "direction": "西北",
    "floor": "",
    "price": "17000",
    "tags": "",
    "source": "",
    "url": "https://bj.lianjia.com/zufang/BJ2079513012573569024.html",
    "rent_type": "整租",
    "location": "东城区-建国门内-恒基中心",
    "scraped_at": "2026-05-02 20:07:19",
    "region": "jianguomennei",
    "unit_price": 105.9,
    "lat": 39.901476,
    "lng": 116.412831
  },
  {
    "title": "整租·恒基中心 3室2厅 东",
    "community": "恒基中心",
    "area": "188.30",
    "rooms": "3室2厅",
    "direction": "东",
    "floor": "",
    "price": "22600",
    "tags": "",
    "source": "",
    "url": "https://bj.lianjia.com/zufang/BJ2105979495981776896.html",
    "rent_type": "整租",
    "location": "东城区-建国门内-恒基中心",
    "scraped_at": "2026-05-02 20:07:19",
    "region": "jianguomennei",
    "unit_price": 120.0,
    "lat": 39.901476,
    "lng": 116.412831
  },
  {
    "title": "整租·赵堂子胡同 1室1厅 南",
    "community": "赵堂子胡同",
    "area": "51.17",
    "rooms": "1室1厅",
    "direction": "南",
    "floor": "",
    "price": "6300",
    "tags": "",
    "source": "",
    "url": "https://bj.lianjia.com/zufang/BJ2159625000473067520.html",
    "rent_type": "整租",
    "location": "东城区-建国门内-赵堂子胡同",
    "scraped_at": "2026-05-02 20:07:19",
    "region": "jianguomennei",
    "unit_price": 123.1,
    "lat": 39.912476,
    "lng": 116.423474
  },
  {
    "title": "整租·贡院九号 2室2厅 南",
    "community": "贡院九号",
    "area": "156.83",
    "rooms": "2室2厅",
    "direction": "南",
    "floor": "",
    "price": "21000",
    "tags": "",
    "source": "",
    "url": "https://bj.lianjia.com/zufang/BJ2139272347155169280.html",
    "rent_type": "整租",
    "location": "东城区-建国门内-贡院九号",
    "scraped_at": "2026-05-02 20:07:19",
    "region": "jianguomennei",
    "unit_price": 133.9,
    "lat": 39.909246,
    "lng": 116.423681
  },
  {
    "title": "整租·恒基中心 3室2厅 东",
    "community": "恒基中心",
    "area": "170.00",
    "rooms": "3室2厅",
    "direction": "东",
    "floor": "",
    "price": "20000",
    "tags": "",
    "source": "",
    "url": "https://bj.lianjia.com/zufang/BJ2123674633839312896.html",
    "rent_type": "整租",
    "location": "东城区-建国门内-恒基中心",
    "scraped_at": "2026-05-02 20:07:19",
    "region": "jianguomennei",
    "unit_price": 117.6,
    "lat": 39.901476,
    "lng": 116.412831
  },
  {
    "title": "整租·雅安国际公寓 2室1厅 东南/东北",
    "community": "雅安国际公寓",
    "area": "149.27",
    "rooms": "2室1厅",
    "direction": "东南/东北",
    "floor": "",
    "price": "15225",
    "tags": "",
    "source": "",
    "url": "https://bj.lianjia.com/zufang/BJ2161123326888509440.html",
    "rent_type": "整租",
    "location": "东城区-建国门内-雅安国际公寓",
    "scraped_at": "2026-05-02 20:07:19",
    "region": "jianguomennei",
    "unit_price": 102.0,
    "lat": 39.901476,
    "lng": 116.412831
  },
  {
    "title": "整租·建国门北大街5号 1室1厅 南",
    "community": "建国门北大街5号",
    "area": "67.44",
    "rooms": "1室1厅",
    "direction": "南",
    "floor": "",
    "price": "7500",
    "tags": "",
    "source": "",
    "url": "https://bj.lianjia.com/zufang/BJ2125237551395504128.html",
    "rent_type": "整租",
    "location": "东城区-建国门内-建国门北大街",
    "scraped_at": "2026-05-02 20:07:19",
    "region": "jianguomennei",
    "unit_price": 111.2,
    "lat": 39.912597,
    "lng": 116.427374
  },
  {
    "title": "整租·贡院九号 2室1厅 南",
    "community": "贡院九号",
    "area": "156.00",
    "rooms": "2室1厅",
    "direction": "南",
    "floor": "",
    "price": "20000",
    "tags": "",
    "source": "",
    "url": "https://bj.lianjia.com/zufang/BJ2159948925547577344.html",
    "rent_type": "整租",
    "location": "东城区-建国门内-贡院九号",
    "scraped_at": "2026-05-02 20:07:19",
    "region": "jianguomennei",
    "unit_price": 128.2,
    "lat": 39.909246,
    "lng": 116.423681
  },
  {
    "title": "整租·外交部街33号院 3室1厅 南/北",
    "community": "外交部街33号院",
    "area": "134.50",
    "rooms": "3室1厅",
    "direction": "南/北",
    "floor": "",
    "price": "15750",
    "tags": "",
    "source": "",
    "url": "https://bj.lianjia.com/zufang/BJ1984947531917819904.html",
    "rent_type": "整租",
    "location": "东城区-建国门内-外交部街",
    "scraped_at": "2026-05-02 20:07:19",
    "region": "jianguomennei",
    "unit_price": 117.1,
    "lat": 39.911485,
    "lng": 116.414517
  },
  {
    "title": "整租·贡院九号 5室1厅 东/南/北",
    "community": "贡院九号",
    "area": "438.26",
    "rooms": "5室1厅",
    "direction": "东/南/北",
    "floor": "",
    "price": "100000",
    "tags": "",
    "source": "",
    "url": "https://bj.lianjia.com/zufang/BJ2127354750759337984.html",
    "rent_type": "整租",
    "location": "东城区-建国门内-贡院九号",
    "scraped_at": "2026-05-02 20:07:19",
    "region": "jianguomennei",
    "unit_price": 228.2,
    "lat": 39.909246,
    "lng": 116.423681
  },
  {
    "title": "整租·恒基中心 3室2厅 东",
    "community": "恒基中心",
    "area": "160.56",
    "rooms": "3室2厅",
    "direction": "东",
    "floor": "",
    "price": "17000",
    "tags": "",
    "source": "",
    "url": "https://bj.lianjia.com/zufang/BJ2117226647982702592.html",
    "rent_type": "整租",
    "location": "东城区-建国门内-恒基中心",
    "scraped_at": "2026-05-02 20:07:19",
    "region": "jianguomennei",
    "unit_price": 105.9,
    "lat": 39.901476,
    "lng": 116.412831
  },
  {
    "title": "整租·外交部街 2室1厅 南/西/北",
    "community": "外交部街",
    "area": "67.42",
    "rooms": "2室1厅",
    "direction": "南/西/北",
    "floor": "",
    "price": "7350",
    "tags": "",
    "source": "",
    "url": "https://bj.lianjia.com/zufang/BJ2159294137503842304.html",
    "rent_type": "整租",
    "location": "东城区-建国门内-外交部街",
    "scraped_at": "2026-05-02 20:07:19",
    "region": "jianguomennei",
    "unit_price": 109.0,
    "lat": 39.911485,
    "lng": 116.414517
  },
  {
    "title": "整租·贡院九号 1室1厅 南",
    "community": "贡院九号",
    "area": "120.00",
    "rooms": "1室1厅",
    "direction": "南",
    "floor": "",
    "price": "15000",
    "tags": "",
    "source": "",
    "url": "https://bj.lianjia.com/zufang/BJ2138559064047616000.html",
    "rent_type": "整租",
    "location": "东城区-建国门内-贡院九号",
    "scraped_at": "2026-05-02 20:07:19",
    "region": "jianguomennei",
    "unit_price": 125.0,
    "lat": 39.909246,
    "lng": 116.423681
  },
  {
    "title": "整租·贡院九号 2室1厅 南",
    "community": "贡院九号",
    "area": "144.96",
    "rooms": "2室1厅",
    "direction": "南",
    "floor": "",
    "price": "22000",
    "tags": "",
    "source": "",
    "url": "https://bj.lianjia.com/zufang/BJ2154059949833977856.html",
    "rent_type": "整租",
    "location": "东城区-建国门内-贡院九号",
    "scraped_at": "2026-05-02 20:07:19",
    "region": "jianguomennei",
    "unit_price": 151.8,
    "lat": 39.909246,
    "lng": 116.423681
  },
  {
    "title": "整租·东总布胡同 2室1厅 南/北",
    "community": "东总布胡同",
    "area": "57.27",
    "rooms": "2室1厅",
    "direction": "南/北",
    "floor": "",
    "price": "6800",
    "tags": "",
    "source": "",
    "url": "https://bj.lianjia.com/zufang/BJ1647903794681348096.html",
    "rent_type": "整租",
    "location": "东城区-建国门内-东总布胡同",
    "scraped_at": "2026-05-02 20:07:19",
    "region": "jianguomennei",
    "unit_price": 118.7,
    "lat": 39.910656,
    "lng": 116.425854
  },
  {
    "title": "整租·外交部街33号院 2室1厅 南/北",
    "community": "外交部街33号院",
    "area": "64.00",
    "rooms": "2室1厅",
    "direction": "南/北",
    "floor": "",
    "price": "11000",
    "tags": "",
    "source": "",
    "url": "https://bj.lianjia.com/zufang/BJ2149354747675541504.html",
    "rent_type": "整租",
    "location": "东城区-建国门内-外交部街",
    "scraped_at": "2026-05-02 20:07:19",
    "region": "jianguomennei",
    "unit_price": 171.9,
    "lat": 39.911485,
    "lng": 116.414517
  },
  {
    "title": "整租·西总布胡同55号院 2室1厅 南/北",
    "community": "西总布胡同55号院",
    "area": "54.88",
    "rooms": "2室1厅",
    "direction": "南/北",
    "floor": "",
    "price": "7000",
    "tags": "",
    "source": "",
    "url": "https://bj.lianjia.com/zufang/BJ2137864783846703104.html",
    "rent_type": "整租",
    "location": "东城区-建国门内-西总布胡同",
    "scraped_at": "2026-05-02 20:07:19",
    "region": "jianguomennei",
    "unit_price": 127.6,
    "lat": 39.91091,
    "lng": 116.412855
  },
  {
    "title": "整租·大羊宜宾胡同35号院 1室1厅 南",
    "community": "大羊宜宾胡同35号院",
    "area": "41.30",
    "rooms": "1室1厅",
    "direction": "南",
    "floor": "",
    "price": "5775",
    "tags": "",
    "source": "",
    "url": "https://bj.lianjia.com/zufang/BJ2011797528336400384.html",
    "rent_type": "整租",
    "location": "东城区-建国门内-大羊宜宾胡同",
    "scraped_at": "2026-05-02 20:07:19",
    "region": "jianguomennei",
    "unit_price": 139.8,
    "lat": 39.911766,
    "lng": 116.421368
  },
  {
    "title": "整租·雅安国际公寓 3室1厅 东南/东北",
    "community": "雅安国际公寓",
    "area": "173.21",
    "rooms": "3室1厅",
    "direction": "东南/东北",
    "floor": "",
    "price": "20000",
    "tags": "",
    "source": "",
    "url": "https://bj.lianjia.com/zufang/BJ2146813517896876032.html",
    "rent_type": "整租",
    "location": "东城区-建国门内-雅安国际公寓",
    "scraped_at": "2026-05-02 20:07:19",
    "region": "jianguomennei",
    "unit_price": 115.5,
    "lat": 39.901476,
    "lng": 116.412831
  },
  {
    "title": "整租·外交部街33号院 2室1厅 南",
    "community": "外交部街33号院",
    "area": "63.38",
    "rooms": "2室1厅",
    "direction": "南",
    "floor": "",
    "price": "9975",
    "tags": "",
    "source": "",
    "url": "https://bj.lianjia.com/zufang/BJ2021818476112379904.html",
    "rent_type": "整租",
    "location": "东城区-建国门内-外交部街",
    "scraped_at": "2026-05-02 20:07:19",
    "region": "jianguomennei",
    "unit_price": 157.4,
    "lat": 39.911485,
    "lng": 116.414517
  },
  {
    "title": "整租·恒基中心 3室1厅 西北",
    "community": "恒基中心",
    "area": "160.55",
    "rooms": "3室1厅",
    "direction": "西北",
    "floor": "",
    "price": "17500",
    "tags": "",
    "source": "",
    "url": "https://bj.lianjia.com/zufang/BJ2151172346830913536.html",
    "rent_type": "整租",
    "location": "东城区-建国门内-恒基中心",
    "scraped_at": "2026-05-02 20:07:19",
    "region": "jianguomennei",
    "unit_price": 109.0,
    "lat": 39.901476,
    "lng": 116.412831
  }
]