[
  {
    "title": "整租·鸿泽园 3室1厅 南/北",
    "community": "鸿泽园",
    "area": "127.49",
    "rooms": "3室1厅",
    "direction": "南/北",
    "floor": "",
    "price": "1800",
    "tags": "",
    "source": "",
    "url": "https://bj.lianjia.com/zufang/BJ2158553518011580416.html",
    "rent_type": "整租",
    "location": "密云区-鼓楼街道-鸿泽园",
    "scraped_at": "2026-05-02 23:21:23",
    "region": "鼓楼街道",
    "unit_price": 14.1,
    "lat": 40.388316,
    "lng": 116.844938
  },
  {
    "title": "整租·宾阳西里北区 2室1厅 南/北",
    "community": "宾阳西里北区",
    "area": "83.46",
    "rooms": "2室1厅",
    "direction": "南/北",
    "floor": "",
    "price": "1600",
    "tags": "",
    "source": "",
    "url": "https://bj.lianjia.com/zufang/BJ2144293907670761472.html",
    "rent_type": "整租",
    "location": "密云区-鼓楼街道-宾阳西里北区",
    "scraped_at": "2026-05-02 23:21:01",
    "region": "鼓楼街道",
    "unit_price": 19.2,
    "lat": 40.380232,
    "lng": 116.84944
  },
  {
    "title": "整租·西源里 1室1厅 西北",
    "community": "西源里",
    "area": "52.32",
    "rooms": "1室1厅",
    "direction": "西北",
    "floor": "",
    "price": "1800",
    "tags": "",
    "source": "",
    "url": "https://bj.lianjia.com/zufang/BJ2157113367716691968.html",
    "rent_type": "整租",
    "location": "密云区-鼓楼街道-西源里",
    "scraped_at": "2026-05-02 23:21:01",
    "region": "鼓楼街道",
    "unit_price": 34.4,
    "lat": 40.381396,
    "lng": 116.845222
  },
  {
    "title": "整租·保利花园C区 2室1厅 南/北",
    "community": "保利花园C区",
    "area": "90.00",
    "rooms": "2室1厅",
    "direction": "南/北",
    "floor": "",
    "price": "1700",
    "tags": "",
    "source": "",
    "url": "https://bj.lianjia.com/zufang/BJ2138340250047479808.html",
    "rent_type": "整租",
    "location": "密云区-鼓楼街道-保利花园",
    "scraped_at": "2026-05-02 23:21:01",
    "region": "鼓楼街道",
    "unit_price": 18.9,
    "lat": 40.369016,
    "lng": 116.857828
  },
  {
    "title": "整租·蓝河湾 5室3厅 南/北",
    "community": "蓝河湾",
    "area": "232.12",
    "rooms": "5室3厅",
    "direction": "南/北",
    "floor": "",
    "price": "4500",
    "tags": "",
    "source": "",
    "url": "https://bj.lianjia.com/zufang/BJ2129213579319050240.html",
    "rent_type": "整租",
    "location": "密云区-鼓楼街道-蓝河湾",
    "scraped_at": "2026-05-02 23:21:01",
    "region": "鼓楼街道",
    "unit_price": 19.4,
    "lat": 40.35783,
    "lng": 116.830099
  },
  {
    "title": "整租·保利花园C区 2室1厅 南/北",
    "community": "保利花园C区",
    "area": "89.99",
    "rooms": "2室1厅",
    "direction": "南/北",
    "floor": "",
    "price": "2000",
    "tags": "",
    "source": "",
    "url": "https://bj.lianjia.com/zufang/BJ2154449021249257472.html",
    "rent_type": "整租",
    "location": "密云区-鼓楼街道-保利花园",
    "scraped_at": "2026-05-02 23:21:01",
    "region": "鼓楼街道",
    "unit_price": 22.2,
    "lat": 40.369016,
    "lng": 116.857828
  },
  {
    "title": "整租·钻石公寓 1室1厅 南/北",
    "community": "钻石公寓",
    "area": "47.18",
    "rooms": "1室1厅",
    "direction": "南/北",
    "floor": "",
    "price": "1600",
    "tags": "",
    "source": "",
    "url": "https://bj.lianjia.com/zufang/BJ2143909657545015296.html",
    "rent_type": "整租",
    "location": "密云区-鼓楼街道-钻石公寓",
    "scraped_at": "2026-05-02 23:21:01",
    "region": "鼓楼街道",
    "unit_price": 33.9,
    "lat": 31.219,
    "lng": 121.39436
  },
  {
    "title": "整租·东菜园社区 3室2厅 南/北",
    "community": "东菜园社区",
    "area": "124.17",
    "rooms": "3室2厅",
    "direction": "南/北",
    "floor": "",
    "price": "1800",
    "tags": "",
    "source": "",
    "url": "https://bj.lianjia.com/zufang/BJ2098307828857962496.html",
    "rent_type": "整租",
    "location": "密云区-鼓楼街道-东菜园社区",
    "scraped_at": "2026-05-02 23:21:01",
    "region": "鼓楼街道",
    "unit_price": 14.5,
    "lat": 40.374316,
    "lng": 116.857408
  },
  {
    "title": "整租·阳光街 2房间 南",
    "community": "阳光街 2房间 南",
    "area": "821.05",
    "rooms": "",
    "direction": "",
    "floor": "",
    "price": "1300",
    "tags": "",
    "source": "",
    "url": "https://bj.lianjia.com/zufang/BJ1999701898986258432.html",
    "rent_type": "整租",
    "location": "密云区-鼓楼街道-阳光街",
    "scraped_at": "2026-05-02 23:21:01",
    "region": "鼓楼街道",
    "unit_price": 1.6,
    "lat": 40.37236,
    "lng": 116.86167
  },
  {
    "title": "整租·行宫小区 2室1厅 南/北",
    "community": "行宫小区",
    "area": "93.16",
    "rooms": "2室1厅",
    "direction": "南/北",
    "floor": "",
    "price": "1900",
    "tags": "",
    "source": "",
    "url": "https://bj.lianjia.com/zufang/BJ2076987051399446528.html",
    "rent_type": "整租",
    "location": "密云区-鼓楼街道-行宫小区",
    "scraped_at": "2026-05-02 23:21:01",
    "region": "鼓楼街道",
    "unit_price": 20.4,
    "lat": 40.37874,
    "lng": 116.85962
  },
  {
    "title": "整租·宾阳北里 3室2厅 南/北",
    "community": "宾阳北里",
    "area": "106.80",
    "rooms": "3室2厅",
    "direction": "南/北",
    "floor": "",
    "price": "1700",
    "tags": "",
    "source": "",
    "url": "https://bj.lianjia.com/zufang/BJ2130139104141115392.html",
    "rent_type": "整租",
    "location": "密云区-鼓楼街道-宾阳北里",
    "scraped_at": "2026-05-02 23:21:19",
    "region": "鼓楼街道",
    "unit_price": 15.9,
    "lat": 40.387192,
    "lng": 116.854812
  },
  {
    "title": "整租·首创禧悦府 2室1厅 西/东北",
    "community": "首创禧悦府",
    "area": "61.45",
    "rooms": "2室1厅",
    "direction": "西/东北",
    "floor": "",
    "price": "2000",
    "tags": "",
    "source": "",
    "url": "https://bj.lianjia.com/zufang/BJ2159872278446211072.html",
    "rent_type": "整租",
    "location": "密云区-鼓楼街道-首创禧悦府",
    "scraped_at": "2026-05-02 23:21:01",
    "region": "鼓楼街道",
    "unit_price": 32.5,
    "lat": 40.382906,
    "lng": 116.852408
  },
  {
    "title": "整租·久润花园西区 3室2厅 南/北",
    "community": "久润花园西区",
    "area": "104.92",
    "rooms": "3室2厅",
    "direction": "南/北",
    "floor": "",
    "price": "2300",
    "tags": "",
    "source": "",
    "url": "https://bj.lianjia.com/zufang/BJ2157687435453005824.html",
    "rent_type": "整租",
    "location": "密云区-鼓楼街道-久润花园西区",
    "scraped_at": "2026-05-02 23:21:19",
    "region": "鼓楼街道",
    "unit_price": 21.9,
    "lat": 40.391771,
    "lng": 116.855978
  },
  {
    "title": "整租·银河湾 2室1厅 南/北",
    "community": "银河湾",
    "area": "106.39",
    "rooms": "2室1厅",
    "direction": "南/北",
    "floor": "",
    "price": "2800",
    "tags": "",
    "source": "",
    "url": "https://bj.lianjia.com/zufang/BJ2154532197351030784.html",
    "rent_type": "整租",
    "location": "密云区-鼓楼街道-银河湾",
    "scraped_at": "2026-05-02 23:21:01",
    "region": "鼓楼街道",
    "unit_price": 26.3,
    "lat": 40.370326,
    "lng": 116.856158
  },
  {
    "title": "整租·宾阳北里 3室1厅 南/北",
    "community": "宾阳北里",
    "area": "126.47",
    "rooms": "3室1厅",
    "direction": "南/北",
    "floor": "",
    "price": "2000",
    "tags": "",
    "source": "",
    "url": "https://bj.lianjia.com/zufang/BJ2155950223027863552.html",
    "rent_type": "整租",
    "location": "密云区-鼓楼街道-宾阳北里",
    "scraped_at": "2026-05-02 23:21:19",
    "region": "鼓楼街道",
    "unit_price": 15.8,
    "lat": 40.387192,
    "lng": 116.854812
  },
  {
    "title": "整租·绿地朗山公馆南区 1室1厅 南",
    "community": "绿地朗山公馆南区",
    "area": "58.70",
    "rooms": "1室1厅",
    "direction": "南",
    "floor": "",
    "price": "2200",
    "tags": "",
    "source": "",
    "url": "https://bj.lianjia.com/zufang/BJ2160599284565671936.html",
    "rent_type": "整租",
    "location": "密云区-鼓楼街道-绿地朗山公馆南区",
    "scraped_at": "2026-05-02 23:21:01",
    "region": "鼓楼街道",
    "unit_price": 37.5,
    "lat": 40.35316,
    "lng": 116.83514
  },
  {
    "title": "整租·行宫南区 1室1厅 南/北",
    "community": "行宫南区",
    "area": "77.94",
    "rooms": "1室1厅",
    "direction": "南/北",
    "floor": "",
    "price": "1700",
    "tags": "",
    "source": "",
    "url": "https://bj.lianjia.com/zufang/BJ2148067860923023360.html",
    "rent_type": "整租",
    "location": "密云区-鼓楼街道-行宫南区",
    "scraped_at": "2026-05-02 23:21:19",
    "region": "鼓楼街道",
    "unit_price": 21.8,
    "lat": 40.378418,
    "lng": 116.860753
  },
  {
    "title": "整租·檀城家园北区 2室2厅 南/北",
    "community": "檀城家园北区",
    "area": "92.00",
    "rooms": "2室2厅",
    "direction": "南/北",
    "floor": "",
    "price": "2000",
    "tags": "",
    "source": "",
    "url": "https://bj.lianjia.com/zufang/BJ2149443032708022272.html",
    "rent_type": "整租",
    "location": "密云区-鼓楼街道-檀城家园北区",
    "scraped_at": "2026-05-02 23:21:01",
    "region": "鼓楼街道",
    "unit_price": 21.7,
    "lat": 40.372152,
    "lng": 116.842905
  },
  {
    "title": "整租·阳光街391号院 2室2厅 南/北",
    "community": "阳光街391号院",
    "area": "97.58",
    "rooms": "2室2厅",
    "direction": "南/北",
    "floor": "",
    "price": "2300",
    "tags": "",
    "source": "",
    "url": "https://bj.lianjia.com/zufang/BJ2150205727535267840.html",
    "rent_type": "整租",
    "location": "密云区-鼓楼街道-阳光街",
    "scraped_at": "2026-05-02 23:21:23",
    "region": "鼓楼街道",
    "unit_price": 23.6,
    "lat": 40.368346,
    "lng": 116.853558
  },
  {
    "title": "整租·国祥府 3室2厅 南/北",
    "community": "国祥府",
    "area": "89.28",
    "rooms": "3室2厅",
    "direction": "南/北",
    "floor": "",
    "price": "2600",
    "tags": "",
    "source": "",
    "url": "https://bj.lianjia.com/zufang/BJ2154808014404583424.html",
    "rent_type": "整租",
    "location": "密云区-鼓楼街道-国祥府",
    "scraped_at": "2026-05-02 23:21:01",
    "region": "鼓楼街道",
    "unit_price": 29.1,
    "lat": 40.370494,
    "lng": 116.859474
  },
  {
    "title": "整租·恋日水岸 4室1厅 跃层 南/北",
    "community": "恋日水岸",
    "area": "191.49",
    "rooms": "4室1厅",
    "direction": "",
    "floor": "",
    "price": "2500",
    "tags": "",
    "source": "",
    "url": "https://bj.lianjia.com/zufang/BJ2139273167108046848.html",
    "rent_type": "整租",
    "location": "密云区-鼓楼街道-恋日水岸",
    "scraped_at": "2026-05-02 23:21:01",
    "region": "鼓楼街道",
    "unit_price": 13.1,
    "lat": 40.389314,
    "lng": 116.850138
  },
  {
    "title": "整租·鼓楼东区 2室1厅 南/北",
    "community": "鼓楼东区",
    "area": "103.53",
    "rooms": "2室1厅",
    "direction": "南/北",
    "floor": "",
    "price": "2200",
    "tags": "",
    "source": "",
    "url": "https://bj.lianjia.com/zufang/BJ2141888602240450560.html",
    "rent_type": "整租",
    "location": "密云区-鼓楼街道-鼓楼东区",
    "scraped_at": "2026-05-02 23:21:01",
    "region": "鼓楼街道",
    "unit_price": 21.2,
    "lat": 40.376731,
    "lng": 116.843139
  },
  {
    "title": "整租·北源里 3室2厅 南/北",
    "community": "北源里",
    "area": "131.12",
    "rooms": "3室2厅",
    "direction": "南/北",
    "floor": "",
    "price": "3200",
    "tags": "",
    "source": "",
    "url": "https://bj.lianjia.com/zufang/BJ2154877620662042624.html",
    "rent_type": "整租",
    "location": "密云区-鼓楼街道-北源里",
    "scraped_at": "2026-05-02 23:21:23",
    "region": "鼓楼街道",
    "unit_price": 24.4,
    "lat": 40.383251,
    "lng": 116.847573
  },
  {
    "title": "整租·行宫小区 3室1厅 南",
    "community": "行宫小区",
    "area": "105.58",
    "rooms": "3室1厅",
    "direction": "南",
    "floor": "",
    "price": "2000",
    "tags": "",
    "source": "",
    "url": "https://bj.lianjia.com/zufang/BJ2156016813865959424.html",
    "rent_type": "整租",
    "location": "密云区-鼓楼街道-行宫小区",
    "scraped_at": "2026-05-02 23:21:19",
    "region": "鼓楼街道",
    "unit_price": 18.9,
    "lat": 40.37874,
    "lng": 116.85962
  },
  {
    "title": "整租·宾阳里小区 3室2厅 南",
    "community": "宾阳里小区",
    "area": "116.25",
    "rooms": "3室2厅",
    "direction": "南",
    "floor": "",
    "price": "2000",
    "tags": "",
    "source": "",
    "url": "https://bj.lianjia.com/zufang/BJ2151549130256678912.html",
    "rent_type": "整租",
    "location": "密云区-鼓楼街道-宾阳里小区",
    "scraped_at": "2026-05-02 23:21:23",
    "region": "鼓楼街道",
    "unit_price": 17.2,
    "lat": 40.377461,
    "lng": 116.856303
  },
  {
    "title": "整租·世豪公寓 1室1厅 南",
    "community": "世豪公寓",
    "area": "86.38",
    "rooms": "1室1厅",
    "direction": "南",
    "floor": "",
    "price": "2500",
    "tags": "",
    "source": "",
    "url": "https://bj.lianjia.com/zufang/BJ2140297276365471744.html",
    "rent_type": "整租",
    "location": "密云区-鼓楼街道-世豪公寓",
    "scraped_at": "2026-05-02 23:21:01",
    "region": "鼓楼街道",
    "unit_price": 28.9,
    "lat": 40.382799,
    "lng": 116.843002
  },
  {
    "title": "整租·西源里 2室1厅 南/北",
    "community": "西源里",
    "area": "113.71",
    "rooms": "2室1厅",
    "direction": "南/北",
    "floor": "",
    "price": "2000",
    "tags": "",
    "source": "",
    "url": "https://bj.lianjia.com/zufang/BJ2119063972677156864.html",
    "rent_type": "整租",
    "location": "密云区-鼓楼街道-西源里",
    "scraped_at": "2026-05-02 23:21:01",
    "region": "鼓楼街道",
    "unit_price": 17.6,
    "lat": 40.381396,
    "lng": 116.845222
  },
  {
    "title": "整租·东菜园社区 3室2厅 南/北",
    "community": "东菜园社区",
    "area": "103.00",
    "rooms": "3室2厅",
    "direction": "南/北",
    "floor": "",
    "price": "1600",
    "tags": "",
    "source": "",
    "url": "https://bj.lianjia.com/zufang/BJ2051879788016041984.html",
    "rent_type": "整租",
    "location": "密云区-鼓楼街道-东菜园社区",
    "scraped_at": "2026-05-02 23:21:25",
    "region": "鼓楼街道",
    "unit_price": 15.5,
    "lat": 40.374316,
    "lng": 116.857408
  },
  {
    "title": "整租·云秀花园 1室1厅 南/北",
    "community": "云秀花园",
    "area": "70.55",
    "rooms": "1室1厅",
    "direction": "南/北",
    "floor": "",
    "price": "2000",
    "tags": "",
    "source": "",
    "url": "https://bj.lianjia.com/zufang/BJ2141902029801390080.html",
    "rent_type": "整租",
    "location": "密云区-鼓楼街道-云秀花园",
    "scraped_at": "2026-05-02 23:21:01",
    "region": "鼓楼街道",
    "unit_price": 28.3,
    "lat": 40.394161,
    "lng": 116.845734
  },
  {
    "title": "整租·宾阳北里 3室2厅 南/北",
    "community": "宾阳北里",
    "area": "87.16",
    "rooms": "3室2厅",
    "direction": "南/北",
    "floor": "",
    "price": "1600",
    "tags": "",
    "source": "",
    "url": "https://bj.lianjia.com/zufang/BJ2147886963833700352.html",
    "rent_type": "整租",
    "location": "密云区-鼓楼街道-宾阳北里",
    "scraped_at": "2026-05-02 23:21:01",
    "region": "鼓楼街道",
    "unit_price": 18.4,
    "lat": 40.387192,
    "lng": 116.854812
  },
  {
    "title": "整租·绿地朗山公馆北区 2室1厅 南/北",
    "community": "绿地朗山公馆北区",
    "area": "98.32",
    "rooms": "2室1厅",
    "direction": "南/北",
    "floor": "",
    "price": "2300",
    "tags": "",
    "source": "",
    "url": "https://bj.lianjia.com/zufang/BJ2154801915622326272.html",
    "rent_type": "整租",
    "location": "密云区-鼓楼街道-绿地朗山公馆北区",
    "scraped_at": "2026-05-02 23:21:19",
    "region": "鼓楼街道",
    "unit_price": 23.4,
    "lat": 40.35316,
    "lng": 116.83514
  },
  {
    "title": "整租·国祥府 2室1厅 南/北",
    "community": "国祥府",
    "area": "75.00",
    "rooms": "2室1厅",
    "direction": "南/北",
    "floor": "",
    "price": "2600",
    "tags": "",
    "source": "",
    "url": "https://bj.lianjia.com/zufang/BJ2159643385898467328.html",
    "rent_type": "整租",
    "location": "密云区-鼓楼街道-国祥府",
    "scraped_at": "2026-05-02 23:21:53",
    "region": "鼓楼街道",
    "unit_price": 34.7,
    "lat": 40.370494,
    "lng": 116.859474
  },
  {
    "title": "整租·宾阳西里南区 2室2厅 南/北",
    "community": "宾阳西里南区",
    "area": "84.78",
    "rooms": "2室2厅",
    "direction": "南/北",
    "floor": "",
    "price": "2300",
    "tags": "",
    "source": "",
    "url": "https://bj.lianjia.com/zufang/BJ2087760965285183488.html",
    "rent_type": "整租",
    "location": "密云区-鼓楼街道-宾阳西里南区",
    "scraped_at": "2026-05-02 23:21:25",
    "region": "鼓楼街道",
    "unit_price": 27.1,
    "lat": 40.379052,
    "lng": 116.851475
  },
  {
    "title": "整租·檀城西区 3室2厅 南/北",
    "community": "檀城西区",
    "area": "134.29",
    "rooms": "3室2厅",
    "direction": "南/北",
    "floor": "",
    "price": "3500",
    "tags": "",
    "source": "",
    "url": "https://bj.lianjia.com/zufang/BJ2071877569753382912.html",
    "rent_type": "整租",
    "location": "密云区-鼓楼街道-檀城西区",
    "scraped_at": "2026-05-02 23:21:25",
    "region": "鼓楼街道",
    "unit_price": 26.1,
    "lat": 40.364456,
    "lng": 116.844248
  },
  {
    "title": "整租·宾阳里小区 2室1厅 南/北",
    "community": "宾阳里小区",
    "area": "65.27",
    "rooms": "2室1厅",
    "direction": "南/北",
    "floor": "",
    "price": "1479",
    "tags": "",
    "source": "",
    "url": "https://bj.lianjia.com/zufang/BJ2027251531618713600.html",
    "rent_type": "整租",
    "location": "密云区-鼓楼街道-宾阳里小区",
    "scraped_at": "2026-05-02 23:21:03",
    "region": "鼓楼街道",
    "unit_price": 22.7,
    "lat": 40.377461,
    "lng": 116.856303
  },
  {
    "title": "整租·久润花园西区 1室1厅 南",
    "community": "久润花园西区",
    "area": "48.13",
    "rooms": "1室1厅",
    "direction": "南",
    "floor": "",
    "price": "1500",
    "tags": "",
    "source": "",
    "url": "https://bj.lianjia.com/zufang/BJ2154051388487761920.html",
    "rent_type": "整租",
    "location": "密云区-鼓楼街道-久润花园西区",
    "scraped_at": "2026-05-02 23:21:25",
    "region": "鼓楼街道",
    "unit_price": 31.2,
    "lat": 40.391771,
    "lng": 116.855978
  },
  {
    "title": "整租·财智国际中心 2房间 北",
    "community": "财智国际中心 2房间 北",
    "area": "32.26",
    "rooms": "",
    "direction": "",
    "floor": "",
    "price": "1200",
    "tags": "",
    "source": "",
    "url": "https://bj.lianjia.com/zufang/BJ2155986358965895168.html",
    "rent_type": "整租",
    "location": "密云区-鼓楼街道-财智国际中心",
    "scraped_at": "2026-05-02 23:21:53",
    "region": "鼓楼街道",
    "unit_price": 37.2,
    "lat": 40.374585,
    "lng": 116.836783
  },
  {
    "title": "整租·保利花园C区 3室1厅 南/北",
    "community": "保利花园C区",
    "area": "106.00",
    "rooms": "3室1厅",
    "direction": "南/北",
    "floor": "",
    "price": "2400",
    "tags": "",
    "source": "",
    "url": "https://bj.lianjia.com/zufang/BJ2092930285808123904.html",
    "rent_type": "整租",
    "location": "密云区-鼓楼街道-保利花园",
    "scraped_at": "2026-05-02 23:21:03",
    "region": "鼓楼街道",
    "unit_price": 22.6,
    "lat": 40.369016,
    "lng": 116.857828
  },
  {
    "title": "整租·檀城东区 3室2厅 南/北",
    "community": "檀城东区",
    "area": "128.91",
    "rooms": "3室2厅",
    "direction": "南/北",
    "floor": "",
    "price": "1800",
    "tags": "",
    "source": "",
    "url": "https://bj.lianjia.com/zufang/BJ2049374395981365248.html",
    "rent_type": "整租",
    "location": "密云区-鼓楼街道-檀城东区",
    "scraped_at": "2026-05-02 23:21:03",
    "region": "鼓楼街道",
    "unit_price": 14.0,
    "lat": 40.36648,
    "lng": 116.849746
  },
  {
    "title": "整租·宾阳里小区 2室1厅 南/北",
    "community": "宾阳里小区",
    "area": "63.04",
    "rooms": "2室1厅",
    "direction": "南/北",
    "floor": "",
    "price": "1700",
    "tags": "",
    "source": "",
    "url": "https://bj.lianjia.com/zufang/BJ2151660773217140736.html",
    "rent_type": "整租",
    "location": "密云区-鼓楼街道-宾阳里小区",
    "scraped_at": "2026-05-02 23:21:23",
    "region": "鼓楼街道",
    "unit_price": 27.0,
    "lat": 40.377461,
    "lng": 116.856303
  },
  {
    "title": "整租·绿地朗山公馆南区 3室2厅 南/北",
    "community": "绿地朗山公馆南区",
    "area": "101.90",
    "rooms": "3室2厅",
    "direction": "南/北",
    "floor": "",
    "price": "2700",
    "tags": "",
    "source": "",
    "url": "https://bj.lianjia.com/zufang/BJ2150219221877915648.html",
    "rent_type": "整租",
    "location": "密云区-鼓楼街道-绿地朗山公馆南区",
    "scraped_at": "2026-05-02 23:21:23",
    "region": "鼓楼街道",
    "unit_price": 26.5,
    "lat": 40.35316,
    "lng": 116.83514
  },
  {
    "title": "整租·宾阳西里北区 3室1厅 南/北",
    "community": "宾阳西里北区",
    "area": "95.25",
    "rooms": "3室1厅",
    "direction": "南/北",
    "floor": "",
    "price": "1300",
    "tags": "",
    "source": "",
    "url": "https://bj.lianjia.com/zufang/BJ2143993534397546496.html",
    "rent_type": "整租",
    "location": "密云区-鼓楼街道-宾阳西里北区",
    "scraped_at": "2026-05-02 23:21:03",
    "region": "鼓楼街道",
    "unit_price": 13.6,
    "lat": 40.380232,
    "lng": 116.84944
  },
  {
    "title": "整租·宾阳里小区 2室1厅 东南",
    "community": "宾阳里小区",
    "area": "67.00",
    "rooms": "2室1厅",
    "direction": "东南",
    "floor": "",
    "price": "1500",
    "tags": "",
    "source": "",
    "url": "https://bj.lianjia.com/zufang/BJ1872196673325760512.html",
    "rent_type": "整租",
    "location": "密云区-鼓楼街道-宾阳里小区",
    "scraped_at": "2026-05-02 23:21:03",
    "region": "鼓楼街道",
    "unit_price": 22.4,
    "lat": 40.377461,
    "lng": 116.856303
  },
  {
    "title": "整租·柏林山水 2室1厅 南/北",
    "community": "柏林山水",
    "area": "94.45",
    "rooms": "2室1厅",
    "direction": "南/北",
    "floor": "",
    "price": "2100",
    "tags": "",
    "source": "",
    "url": "https://bj.lianjia.com/zufang/BJ2129851859593068544.html",
    "rent_type": "整租",
    "location": "密云区-鼓楼街道-柏林山水",
    "scraped_at": "2026-05-02 23:21:03",
    "region": "鼓楼街道",
    "unit_price": 22.2,
    "lat": 40.370156,
    "lng": 116.860334
  },
  {
    "title": "整租·行宫小区 2室1厅 南/北",
    "community": "行宫小区",
    "area": "72.31",
    "rooms": "2室1厅",
    "direction": "南/北",
    "floor": "",
    "price": "1300",
    "tags": "",
    "source": "",
    "url": "https://bj.lianjia.com/zufang/BJ2152716932686544896.html",
    "rent_type": "整租",
    "location": "密云区-鼓楼街道-行宫小区",
    "scraped_at": "2026-05-02 23:21:03",
    "region": "鼓楼街道",
    "unit_price": 18.0,
    "lat": 40.37874,
    "lng": 116.85962
  },
  {
    "title": "整租·恋日水岸 3室2厅 复式 南/北",
    "community": "恋日水岸",
    "area": "112.08",
    "rooms": "3室2厅",
    "direction": "",
    "floor": "",
    "price": "1700",
    "tags": "",
    "source": "",
    "url": "https://bj.lianjia.com/zufang/BJ2152321818545881088.html",
    "rent_type": "整租",
    "location": "密云区-鼓楼街道-恋日水岸",
    "scraped_at": "2026-05-02 23:21:23",
    "region": "鼓楼街道",
    "unit_price": 15.2,
    "lat": 40.389314,
    "lng": 116.850138
  },
  {
    "title": "整租·檀州家园西区 5室3厅 复式 南/北",
    "community": "檀州家园西区",
    "area": "177.20",
    "rooms": "5室3厅",
    "direction": "",
    "floor": "",
    "price": "3200",
    "tags": "",
    "source": "",
    "url": "https://bj.lianjia.com/zufang/BJ2143202720356499456.html",
    "rent_type": "整租",
    "location": "密云区-鼓楼街道-檀州家园西区",
    "scraped_at": "2026-05-02 23:21:03",
    "region": "鼓楼街道",
    "unit_price": 18.1,
    "lat": 40.366666,
    "lng": 116.835138
  },
  {
    "title": "整租·宾阳北里 3室2厅 南/北",
    "community": "宾阳北里",
    "area": "118.10",
    "rooms": "3室2厅",
    "direction": "南/北",
    "floor": "",
    "price": "1700",
    "tags": "",
    "source": "",
    "url": "https://bj.lianjia.com/zufang/BJ2144315698438995968.html",
    "rent_type": "整租",
    "location": "密云区-鼓楼街道-宾阳北里",
    "scraped_at": "2026-05-02 23:21:03",
    "region": "鼓楼街道",
    "unit_price": 14.4,
    "lat": 40.387192,
    "lng": 116.854812
  },
  {
    "title": "整租·绿地朗山公馆南区 2室1厅 南",
    "community": "绿地朗山公馆南区",
    "area": "87.28",
    "rooms": "2室1厅",
    "direction": "南",
    "floor": "",
    "price": "2300",
    "tags": "",
    "source": "",
    "url": "https://bj.lianjia.com/zufang/BJ2144075303352270848.html",
    "rent_type": "整租",
    "location": "密云区-鼓楼街道-绿地朗山公馆南区",
    "scraped_at": "2026-05-02 23:21:23",
    "region": "鼓楼街道",
    "unit_price": 26.4,
    "lat": 40.35316,
    "lng": 116.83514
  },
  {
    "title": "整租·宾阳里小区 1室1厅 南/北",
    "community": "宾阳里小区",
    "area": "39.59",
    "rooms": "1室1厅",
    "direction": "南/北",
    "floor": "",
    "price": "900",
    "tags": "",
    "source": "",
    "url": "https://bj.lianjia.com/zufang/BJ2148319814660128768.html",
    "rent_type": "整租",
    "location": "密云区-鼓楼街道-宾阳里小区",
    "scraped_at": "2026-05-02 23:21:19",
    "region": "鼓楼街道",
    "unit_price": 22.7,
    "lat": 40.377461,
    "lng": 116.856303
  },
  {
    "title": "整租·檀州家园西区 4室2厅 复式 南",
    "community": "檀州家园西区",
    "area": "141.09",
    "rooms": "4室2厅",
    "direction": "",
    "floor": "",
    "price": "1800",
    "tags": "",
    "source": "",
    "url": "https://bj.lianjia.com/zufang/BJ2159491444228751360.html",
    "rent_type": "整租",
    "location": "密云区-鼓楼街道-檀州家园西区",
    "scraped_at": "2026-05-02 23:21:03",
    "region": "鼓楼街道",
    "unit_price": 12.8,
    "lat": 40.366666,
    "lng": 116.835138
  },
  {
    "title": "整租·行宫东区 3室2厅 南/北",
    "community": "行宫东区",
    "area": "94.61",
    "rooms": "3室2厅",
    "direction": "南/北",
    "floor": "",
    "price": "1800",
    "tags": "",
    "source": "",
    "url": "https://bj.lianjia.com/zufang/BJ2148081173283209216.html",
    "rent_type": "整租",
    "location": "密云区-鼓楼街道-行宫东区",
    "scraped_at": "2026-05-02 23:21:19",
    "region": "鼓楼街道",
    "unit_price": 19.0,
    "lat": 40.377523,
    "lng": 116.859462
  },
  {
    "title": "整租·行宫南区 3室2厅 南/北",
    "community": "行宫南区",
    "area": "105.89",
    "rooms": "3室2厅",
    "direction": "南/北",
    "floor": "",
    "price": "2000",
    "tags": "",
    "source": "",
    "url": "https://bj.lianjia.com/zufang/BJ2143703972198744064.html",
    "rent_type": "整租",
    "location": "密云区-鼓楼街道-行宫南区",
    "scraped_at": "2026-05-02 23:21:03",
    "region": "鼓楼街道",
    "unit_price": 18.9,
    "lat": 40.378418,
    "lng": 116.860753
  },
  {
    "title": "整租·保利花园B区 2室1厅 南",
    "community": "保利花园B区",
    "area": "85.50",
    "rooms": "2室1厅",
    "direction": "南",
    "floor": "",
    "price": "2300",
    "tags": "",
    "source": "",
    "url": "https://bj.lianjia.com/zufang/BJ2145007189062844416.html",
    "rent_type": "整租",
    "location": "密云区-鼓楼街道-保利花园",
    "scraped_at": "2026-05-02 23:21:25",
    "region": "鼓楼街道",
    "unit_price": 26.9,
    "lat": 40.369016,
    "lng": 116.857828
  },
  {
    "title": "整租·行宫南区 3室2厅 南/北",
    "community": "行宫南区",
    "area": "102.77",
    "rooms": "3室2厅",
    "direction": "南/北",
    "floor": "",
    "price": "1800",
    "tags": "",
    "source": "",
    "url": "https://bj.lianjia.com/zufang/BJ2089989604374478848.html",
    "rent_type": "整租",
    "location": "密云区-鼓楼街道-行宫南区",
    "scraped_at": "2026-05-02 23:21:03",
    "region": "鼓楼街道",
    "unit_price": 17.5,
    "lat": 40.378418,
    "lng": 116.860753
  },
  {
    "title": "整租·沿湖小区 3室1厅 南/北",
    "community": "沿湖小区",
    "area": "120.90",
    "rooms": "3室1厅",
    "direction": "南/北",
    "floor": "",
    "price": "1600",
    "tags": "",
    "source": "",
    "url": "https://bj.lianjia.com/zufang/BJ2046935240202518528.html",
    "rent_type": "整租",
    "location": "密云区-鼓楼街道-沿湖小区",
    "scraped_at": "2026-05-02 23:21:03",
    "region": "鼓楼街道",
    "unit_price": 13.2,
    "lat": 40.382332,
    "lng": 116.841551
  },
  {
    "title": "整租·保利花园A区 2室1厅 南",
    "community": "保利花园A区",
    "area": "81.73",
    "rooms": "2室1厅",
    "direction": "南",
    "floor": "",
    "price": "2500",
    "tags": "",
    "source": "",
    "url": "https://bj.lianjia.com/zufang/BJ2137164312332992512.html",
    "rent_type": "整租",
    "location": "密云区-鼓楼街道-保利花园",
    "scraped_at": "2026-05-02 23:21:03",
    "region": "鼓楼街道",
    "unit_price": 30.6,
    "lat": 40.370126,
    "lng": 116.857578
  },
  {
    "title": "整租·长安小区 2室1厅 南/北",
    "community": "长安小区",
    "area": "90.16",
    "rooms": "2室1厅",
    "direction": "南/北",
    "floor": "",
    "price": "1800",
    "tags": "",
    "source": "",
    "url": "https://bj.lianjia.com/zufang/BJ2099368973626769408.html",
    "rent_type": "整租",
    "location": "密云区-鼓楼街道-长安小区",
    "scraped_at": "2026-05-02 23:21:03",
    "region": "鼓楼街道",
    "unit_price": 20.0,
    "lat": 40.37194,
    "lng": 116.836889
  },
  {
    "title": "整租·绿地朗山公馆北区 3室1厅 南/北",
    "community": "绿地朗山公馆北区",
    "area": "100.06",
    "rooms": "3室1厅",
    "direction": "南/北",
    "floor": "",
    "price": "3000",
    "tags": "",
    "source": "",
    "url": "https://bj.lianjia.com/zufang/BJ2160719705994690560.html",
    "rent_type": "整租",
    "location": "密云区-鼓楼街道-绿地朗山公馆北区",
    "scraped_at": "2026-05-02 23:21:53",
    "region": "鼓楼街道",
    "unit_price": 30.0,
    "lat": 40.35316,
    "lng": 116.83514
  },
  {
    "title": "整租·保利花园C区 3室1厅 南/北",
    "community": "保利花园C区",
    "area": "102.57",
    "rooms": "3室1厅",
    "direction": "南/北",
    "floor": "",
    "price": "2150",
    "tags": "",
    "source": "",
    "url": "https://bj.lianjia.com/zufang/BJ2070842459528626176.html",
    "rent_type": "整租",
    "location": "密云区-鼓楼街道-保利花园",
    "scraped_at": "2026-05-02 23:21:53",
    "region": "鼓楼街道",
    "unit_price": 21.0,
    "lat": 40.369016,
    "lng": 116.857828
  },
  {
    "title": "整租·沿湖小区南区 2室1厅 南/北",
    "community": "沿湖小区南区",
    "area": "78.28",
    "rooms": "2室1厅",
    "direction": "南/北",
    "floor": "",
    "price": "1300",
    "tags": "",
    "source": "",
    "url": "https://bj.lianjia.com/zufang/BJ2118965244955983872.html",
    "rent_type": "整租",
    "location": "密云区-鼓楼街道-沿湖小区南区",
    "scraped_at": "2026-05-02 23:21:53",
    "region": "鼓楼街道",
    "unit_price": 16.6,
    "lat": 40.380684,
    "lng": 116.842329
  },
  {
    "title": "整租·车站路小区 车库",
    "community": "车站路小区 车库",
    "area": "28.22",
    "rooms": "",
    "direction": "",
    "floor": "",
    "price": "1200",
    "tags": "",
    "source": "",
    "url": "https://bj.lianjia.com/zufang/BJ2105910594249949184.html",
    "rent_type": "整租",
    "location": "密云区-鼓楼街道-车站路小区",
    "scraped_at": "2026-05-02 23:21:06",
    "region": "鼓楼街道",
    "unit_price": 42.5,
    "lat": 40.386446,
    "lng": 116.849578
  },
  {
    "title": "整租·行宫小区 1室1厅 南/北",
    "community": "行宫小区",
    "area": "59.48",
    "rooms": "1室1厅",
    "direction": "南/北",
    "floor": "",
    "price": "1200",
    "tags": "",
    "source": "",
    "url": "https://bj.lianjia.com/zufang/BJ2158071451364622336.html",
    "rent_type": "整租",
    "location": "密云区-鼓楼街道-行宫小区",
    "scraped_at": "2026-05-02 23:21:53",
    "region": "鼓楼街道",
    "unit_price": 20.2,
    "lat": 40.37874,
    "lng": 116.85962
  },
  {
    "title": "整租·城后小区 2室2厅 南/北",
    "community": "城后小区",
    "area": "89.16",
    "rooms": "2室2厅",
    "direction": "南/北",
    "floor": "",
    "price": "1600",
    "tags": "",
    "source": "",
    "url": "https://bj.lianjia.com/zufang/BJ2155174114816425984.html",
    "rent_type": "整租",
    "location": "密云区-鼓楼街道-城后小区",
    "scraped_at": "2026-05-02 23:21:53",
    "region": "鼓楼街道",
    "unit_price": 17.9,
    "lat": 40.384032,
    "lng": 116.848356
  },
  {
    "title": "整租·鸿泽园 4室1厅 跃层 南/北",
    "community": "鸿泽园",
    "area": "123.80",
    "rooms": "4室1厅",
    "direction": "",
    "floor": "",
    "price": "2500",
    "tags": "",
    "source": "",
    "url": "https://bj.lianjia.com/zufang/BJ2091081748371734528.html",
    "rent_type": "整租",
    "location": "密云区-鼓楼街道-鸿泽园",
    "scraped_at": "2026-05-02 23:21:06",
    "region": "鼓楼街道",
    "unit_price": 20.2,
    "lat": 40.388316,
    "lng": 116.844938
  },
  {
    "title": "整租·檀营小区 4室2厅 跃层 南/北",
    "community": "檀营小区",
    "area": "183.35",
    "rooms": "4室2厅",
    "direction": "",
    "floor": "",
    "price": "3000",
    "tags": "",
    "source": "",
    "url": "https://bj.lianjia.com/zufang/BJ1943159129333825536.html",
    "rent_type": "整租",
    "location": "密云区-鼓楼街道-檀营小区",
    "scraped_at": "2026-05-02 23:21:06",
    "region": "鼓楼街道",
    "unit_price": 16.4,
    "lat": 40.387127,
    "lng": 116.854465
  },
  {
    "title": "整租·密云橡树湾西区 2室2厅 南",
    "community": "密云橡树湾西区",
    "area": "88.48",
    "rooms": "2室2厅",
    "direction": "南",
    "floor": "",
    "price": "3100",
    "tags": "",
    "source": "",
    "url": "https://bj.lianjia.com/zufang/BJ2152335232097845248.html",
    "rent_type": "整租",
    "location": "密云区-鼓楼街道-密云橡树湾西区",
    "scraped_at": "2026-05-02 23:21:06",
    "region": "鼓楼街道",
    "unit_price": 35.0,
    "lat": 40.380189,
    "lng": 116.846939
  },
  {
    "title": "整租·长安小区 3室2厅 南/北",
    "community": "长安小区",
    "area": "121.80",
    "rooms": "3室2厅",
    "direction": "南/北",
    "floor": "",
    "price": "2500",
    "tags": "",
    "source": "",
    "url": "https://bj.lianjia.com/zufang/BJ2063129199207514112.html",
    "rent_type": "整租",
    "location": "密云区-鼓楼街道-长安小区",
    "scraped_at": "2026-05-02 23:21:06",
    "region": "鼓楼街道",
    "unit_price": 20.5,
    "lat": 40.37194,
    "lng": 116.836889
  },
  {
    "title": "整租·绿地朗山公馆北区 2室1厅 南/北",
    "community": "绿地朗山公馆北区",
    "area": "98.32",
    "rooms": "2室1厅",
    "direction": "南/北",
    "floor": "",
    "price": "2400",
    "tags": "",
    "source": "",
    "url": "https://bj.lianjia.com/zufang/BJ2137893564707766272.html",
    "rent_type": "整租",
    "location": "密云区-鼓楼街道-绿地朗山公馆北区",
    "scraped_at": "2026-05-02 23:21:06",
    "region": "鼓楼街道",
    "unit_price": 24.4,
    "lat": 40.35316,
    "lng": 116.83514
  },
  {
    "title": "整租·密云橡树湾西区 3室2厅 南/北",
    "community": "密云橡树湾西区",
    "area": "125.62",
    "rooms": "3室2厅",
    "direction": "南/北",
    "floor": "",
    "price": "3800",
    "tags": "",
    "source": "",
    "url": "https://bj.lianjia.com/zufang/BJ2129521354993565696.html",
    "rent_type": "整租",
    "location": "密云区-鼓楼街道-密云橡树湾西区",
    "scraped_at": "2026-05-02 23:21:06",
    "region": "鼓楼街道",
    "unit_price": 30.2,
    "lat": 40.380189,
    "lng": 116.846939
  },
  {
    "title": "整租·久润花园东区 3室2厅 南/北",
    "community": "久润花园东区",
    "area": "119.02",
    "rooms": "3室2厅",
    "direction": "南/北",
    "floor": "",
    "price": "1900",
    "tags": "",
    "source": "",
    "url": "https://bj.lianjia.com/zufang/BJ2119311751471169536.html",
    "rent_type": "整租",
    "location": "密云区-鼓楼街道-久润花园东区",
    "scraped_at": "2026-05-02 23:21:06",
    "region": "鼓楼街道",
    "unit_price": 16.0,
    "lat": 40.389816,
    "lng": 116.856878
  },
  {
    "title": "整租·蓝河湾 4室2厅 复式 南/北",
    "community": "蓝河湾",
    "area": "206.15",
    "rooms": "4室2厅",
    "direction": "",
    "floor": "",
    "price": "2000",
    "tags": "",
    "source": "",
    "url": "https://bj.lianjia.com/zufang/BJ2044710040362811392.html",
    "rent_type": "整租",
    "location": "密云区-鼓楼街道-蓝河湾",
    "scraped_at": "2026-05-02 23:21:06",
    "region": "鼓楼街道",
    "unit_price": 9.7,
    "lat": 40.35783,
    "lng": 116.830099
  },
  {
    "title": "整租·东菜园社区 4室2厅 错层 南/北",
    "community": "东菜园社区",
    "area": "164.13",
    "rooms": "4室2厅",
    "direction": "",
    "floor": "",
    "price": "2400",
    "tags": "",
    "source": "",
    "url": "https://bj.lianjia.com/zufang/BJ2088460331939528704.html",
    "rent_type": "整租",
    "location": "密云区-鼓楼街道-东菜园社区",
    "scraped_at": "2026-05-02 23:21:06",
    "region": "鼓楼街道",
    "unit_price": 14.6,
    "lat": 40.374316,
    "lng": 116.857408
  },
  {
    "title": "整租·清鑫家园 3室2厅 南/北",
    "community": "清鑫家园",
    "area": "104.00",
    "rooms": "3室2厅",
    "direction": "南/北",
    "floor": "",
    "price": "2400",
    "tags": "",
    "source": "",
    "url": "https://bj.lianjia.com/zufang/BJ2082407214970044416.html",
    "rent_type": "整租",
    "location": "密云区-鼓楼街道-清鑫家园",
    "scraped_at": "2026-05-02 23:21:06",
    "region": "鼓楼街道",
    "unit_price": 23.1,
    "lat": 40.382696,
    "lng": 116.858828
  },
  {
    "title": "整租·百合园 3室2厅 南/北",
    "community": "百合园",
    "area": "118.50",
    "rooms": "3室2厅",
    "direction": "南/北",
    "floor": "",
    "price": "2000",
    "tags": "",
    "source": "",
    "url": "https://bj.lianjia.com/zufang/BJ2115407314667175936.html",
    "rent_type": "整租",
    "location": "密云区-鼓楼街道-百合园",
    "scraped_at": "2026-05-02 23:21:06",
    "region": "鼓楼街道",
    "unit_price": 16.9,
    "lat": 40.387836,
    "lng": 116.853158
  },
  {
    "title": "整租·柏林山水 2室2厅 南/北",
    "community": "柏林山水",
    "area": "92.66",
    "rooms": "2室2厅",
    "direction": "南/北",
    "floor": "",
    "price": "2300",
    "tags": "",
    "source": "",
    "url": "https://bj.lianjia.com/zufang/BJ2141797522186698752.html",
    "rent_type": "整租",
    "location": "密云区-鼓楼街道-柏林山水",
    "scraped_at": "2026-05-02 23:21:06",
    "region": "鼓楼街道",
    "unit_price": 24.8,
    "lat": 40.370156,
    "lng": 116.860334
  },
  {
    "title": "整租·太扬家园 2室1厅 南/北",
    "community": "太扬家园",
    "area": "103.63",
    "rooms": "2室1厅",
    "direction": "南/北",
    "floor": "",
    "price": "2300",
    "tags": "",
    "source": "",
    "url": "https://bj.lianjia.com/zufang/BJ2155147134096113664.html",
    "rent_type": "整租",
    "location": "密云区-鼓楼街道-太扬家园",
    "scraped_at": "2026-05-02 23:21:19",
    "region": "鼓楼街道",
    "unit_price": 22.2,
    "lat": 40.358939,
    "lng": 116.831613
  },
  {
    "title": "整租·京投发展·锦悦府 3室1厅 南/北",
    "community": "京投发展·锦悦府",
    "area": "89.07",
    "rooms": "3室1厅",
    "direction": "南/北",
    "floor": "",
    "price": "2300",
    "tags": "",
    "source": "",
    "url": "https://bj.lianjia.com/zufang/BJ2151961659734753280.html",
    "rent_type": "整租",
    "location": "密云区-鼓楼街道-京投发展",
    "scraped_at": "2026-05-02 23:21:23",
    "region": "鼓楼街道",
    "unit_price": 25.8,
    "lat": 40.36213,
    "lng": 116.8376
  },
  {
    "title": "整租·柏林山水 2室1厅 南/北",
    "community": "柏林山水",
    "area": "99.43",
    "rooms": "2室1厅",
    "direction": "南/北",
    "floor": "",
    "price": "2100",
    "tags": "",
    "source": "",
    "url": "https://bj.lianjia.com/zufang/BJ2144382526649532416.html",
    "rent_type": "整租",
    "location": "密云区-鼓楼街道-柏林山水",
    "scraped_at": "2026-05-02 23:21:06",
    "region": "鼓楼街道",
    "unit_price": 21.1,
    "lat": 40.370156,
    "lng": 116.860334
  },
  {
    "title": "整租·世豪公寓 3室2厅 南/北",
    "community": "世豪公寓",
    "area": "157.24",
    "rooms": "3室2厅",
    "direction": "南/北",
    "floor": "",
    "price": "2800",
    "tags": "",
    "source": "",
    "url": "https://bj.lianjia.com/zufang/BJ2158083304954265600.html",
    "rent_type": "整租",
    "location": "密云区-鼓楼街道-世豪公寓",
    "scraped_at": "2026-05-02 23:21:06",
    "region": "鼓楼街道",
    "unit_price": 17.8,
    "lat": 40.382799,
    "lng": 116.843002
  },
  {
    "title": "整租·鸿泽园 3室2厅 南/北",
    "community": "鸿泽园",
    "area": "164.58",
    "rooms": "3室2厅",
    "direction": "南/北",
    "floor": "",
    "price": "2600",
    "tags": "",
    "source": "",
    "url": "https://bj.lianjia.com/zufang/BJ2100510969129074688.html",
    "rent_type": "整租",
    "location": "密云区-鼓楼街道-鸿泽园",
    "scraped_at": "2026-05-02 23:21:06",
    "region": "鼓楼街道",
    "unit_price": 15.8,
    "lat": 40.388316,
    "lng": 116.844938
  },
  {
    "title": "整租·密云橡树湾西区 2室1厅 南",
    "community": "密云橡树湾西区",
    "area": "89.64",
    "rooms": "2室1厅",
    "direction": "南",
    "floor": "",
    "price": "2400",
    "tags": "",
    "source": "",
    "url": "https://bj.lianjia.com/zufang/BJ2104073311280431104.html",
    "rent_type": "整租",
    "location": "密云区-鼓楼街道-密云橡树湾西区",
    "scraped_at": "2026-05-02 23:21:06",
    "region": "鼓楼街道",
    "unit_price": 26.8,
    "lat": 40.380189,
    "lng": 116.846939
  },
  {
    "title": "整租·宾阳里小区 1室1厅 南",
    "community": "宾阳里小区",
    "area": "39.59",
    "rooms": "1室1厅",
    "direction": "南",
    "floor": "",
    "price": "1000",
    "tags": "",
    "source": "",
    "url": "https://bj.lianjia.com/zufang/BJ2062371704411258880.html",
    "rent_type": "整租",
    "location": "密云区-鼓楼街道-宾阳里小区",
    "scraped_at": "2026-05-02 23:21:06",
    "region": "鼓楼街道",
    "unit_price": 25.3,
    "lat": 40.377461,
    "lng": 116.856303
  },
  {
    "title": "整租·白檀小区 1室1厅 南",
    "community": "白檀小区",
    "area": "72.91",
    "rooms": "1室1厅",
    "direction": "南",
    "floor": "",
    "price": "1800",
    "tags": "",
    "source": "",
    "url": "https://bj.lianjia.com/zufang/BJ2156707765777596416.html",
    "rent_type": "整租",
    "location": "密云区-鼓楼街道-白檀小区",
    "scraped_at": "2026-05-02 23:21:19",
    "region": "鼓楼街道",
    "unit_price": 24.7,
    "lat": 40.373686,
    "lng": 116.841458
  },
  {
    "title": "整租·石桥小区 3室1厅 南/北",
    "community": "石桥小区",
    "area": "74.97",
    "rooms": "3室1厅",
    "direction": "南/北",
    "floor": "",
    "price": "1100",
    "tags": "",
    "source": "",
    "url": "https://bj.lianjia.com/zufang/BJ2151229720249761792.html",
    "rent_type": "整租",
    "location": "密云区-鼓楼街道-石桥小区",
    "scraped_at": "2026-05-02 23:21:23",
    "region": "鼓楼街道",
    "unit_price": 14.7,
    "lat": 40.38402,
    "lng": 116.865475
  },
  {
    "title": "整租·开园小区 4室2厅 南/北",
    "community": "开园小区",
    "area": "141.57",
    "rooms": "4室2厅",
    "direction": "南/北",
    "floor": "",
    "price": "3600",
    "tags": "",
    "source": "",
    "url": "https://bj.lianjia.com/zufang/BJ2137975276745785344.html",
    "rent_type": "整租",
    "location": "密云区-鼓楼街道-开园小区",
    "scraped_at": "2026-05-02 23:21:19",
    "region": "鼓楼街道",
    "unit_price": 25.4,
    "lat": 40.360743,
    "lng": 116.833866
  },
  {
    "title": "整租·久润花园西区 3室2厅 跃层 东南/北",
    "community": "久润花园西区",
    "area": "143.23",
    "rooms": "3室2厅",
    "direction": "",
    "floor": "",
    "price": "2300",
    "tags": "",
    "source": "",
    "url": "https://bj.lianjia.com/zufang/BJ2145496822439739392.html",
    "rent_type": "整租",
    "location": "密云区-鼓楼街道-久润花园西区",
    "scraped_at": "2026-05-02 23:21:06",
    "region": "鼓楼街道",
    "unit_price": 16.1,
    "lat": 40.391771,
    "lng": 116.855978
  },
  {
    "title": "整租·恋日水岸 4室2厅 跃层 南/北",
    "community": "恋日水岸",
    "area": "122.56",
    "rooms": "4室2厅",
    "direction": "",
    "floor": "",
    "price": "2100",
    "tags": "",
    "source": "",
    "url": "https://bj.lianjia.com/zufang/BJ1915734212372070400.html",
    "rent_type": "整租",
    "location": "密云区-鼓楼街道-恋日水岸",
    "scraped_at": "2026-05-02 23:21:06",
    "region": "鼓楼街道",
    "unit_price": 17.1,
    "lat": 40.389314,
    "lng": 116.850138
  },
  {
    "title": "整租·沿湖小区南区 2室1厅 南/北",
    "community": "沿湖小区南区",
    "area": "70.00",
    "rooms": "2室1厅",
    "direction": "南/北",
    "floor": "",
    "price": "1200",
    "tags": "",
    "source": "",
    "url": "https://bj.lianjia.com/zufang/BJ1950543560189149184.html",
    "rent_type": "整租",
    "location": "密云区-鼓楼街道-沿湖小区南区",
    "scraped_at": "2026-05-02 23:21:06",
    "region": "鼓楼街道",
    "unit_price": 17.1,
    "lat": 40.380684,
    "lng": 116.842329
  },
  {
    "title": "整租·行宫小区 1室1厅 南/北",
    "community": "行宫小区",
    "area": "57.30",
    "rooms": "1室1厅",
    "direction": "南/北",
    "floor": "",
    "price": "1700",
    "tags": "",
    "source": "",
    "url": "https://bj.lianjia.com/zufang/BJ2153875570813829120.html",
    "rent_type": "整租",
    "location": "密云区-鼓楼街道-行宫小区",
    "scraped_at": "2026-05-02 23:21:06",
    "region": "鼓楼街道",
    "unit_price": 29.7,
    "lat": 40.37874,
    "lng": 116.85962
  },
  {
    "title": "整租·久润花园西区 1室1厅 南",
    "community": "久润花园西区",
    "area": "37.97",
    "rooms": "1室1厅",
    "direction": "南",
    "floor": "",
    "price": "1500",
    "tags": "",
    "source": "",
    "url": "https://bj.lianjia.com/zufang/BJ2075495421689462784.html",
    "rent_type": "整租",
    "location": "密云区-鼓楼街道-久润花园西区",
    "scraped_at": "2026-05-02 23:21:09",
    "region": "鼓楼街道",
    "unit_price": 39.5,
    "lat": 40.391771,
    "lng": 116.855978
  },
  {
    "title": "整租·保利花园A区 2室1厅 西/北",
    "community": "保利花园A区",
    "area": "80.01",
    "rooms": "2室1厅",
    "direction": "西/北",
    "floor": "",
    "price": "2400",
    "tags": "",
    "source": "",
    "url": "https://bj.lianjia.com/zufang/BJ2144694722445180928.html",
    "rent_type": "整租",
    "location": "密云区-鼓楼街道-保利花园",
    "scraped_at": "2026-05-02 23:21:53",
    "region": "鼓楼街道",
    "unit_price": 30.0,
    "lat": 40.370126,
    "lng": 116.857578
  },
  {
    "title": "整租·东源路 2室1厅 南/北",
    "community": "东源路",
    "area": "59.66",
    "rooms": "2室1厅",
    "direction": "南/北",
    "floor": "",
    "price": "1600",
    "tags": "",
    "source": "",
    "url": "https://bj.lianjia.com/zufang/BJ2146525155344515072.html",
    "rent_type": "整租",
    "location": "密云区-鼓楼街道-东源路",
    "scraped_at": "2026-05-02 23:21:25",
    "region": "鼓楼街道",
    "unit_price": 26.8,
    "lat": 40.380026,
    "lng": 116.850854
  },
  {
    "title": "整租·宾阳西里南区 3室2厅 南/北",
    "community": "宾阳西里南区",
    "area": "113.70",
    "rooms": "3室2厅",
    "direction": "南/北",
    "floor": "",
    "price": "1500",
    "tags": "",
    "source": "",
    "url": "https://bj.lianjia.com/zufang/BJ2005261575019036672.html",
    "rent_type": "整租",
    "location": "密云区-鼓楼街道-宾阳西里南区",
    "scraped_at": "2026-05-02 23:21:09",
    "region": "鼓楼街道",
    "unit_price": 13.2,
    "lat": 40.379052,
    "lng": 116.851475
  },
  {
    "title": "整租·花园小区 2室2厅 南/北",
    "community": "花园小区",
    "area": "80.73",
    "rooms": "2室2厅",
    "direction": "南/北",
    "floor": "",
    "price": "1500",
    "tags": "",
    "source": "",
    "url": "https://bj.lianjia.com/zufang/BJ2110337082743324672.html",
    "rent_type": "整租",
    "location": "密云区-鼓楼街道-花园小区",
    "scraped_at": "2026-05-02 23:21:09",
    "region": "鼓楼街道",
    "unit_price": 18.6,
    "lat": 40.373317,
    "lng": 116.85012
  },
  {
    "title": "整租·亚澜湾 1室1厅 东南",
    "community": "亚澜湾",
    "area": "55.78",
    "rooms": "1室1厅",
    "direction": "东南",
    "floor": "",
    "price": "1400",
    "tags": "",
    "source": "",
    "url": "https://bj.lianjia.com/zufang/BJ2104428671665176576.html",
    "rent_type": "整租",
    "location": "密云区-鼓楼街道-亚澜湾",
    "scraped_at": "2026-05-02 23:21:25",
    "region": "鼓楼街道",
    "unit_price": 25.1,
    "lat": 40.350886,
    "lng": 116.824708
  },
  {
    "title": "整租·世纪家园 3室1厅 南/北",
    "community": "世纪家园",
    "area": "109.17",
    "rooms": "3室1厅",
    "direction": "南/北",
    "floor": "",
    "price": "2000",
    "tags": "",
    "source": "",
    "url": "https://bj.lianjia.com/zufang/BJ2156240183811375104.html",
    "rent_type": "整租",
    "location": "密云区-鼓楼街道-世纪家园",
    "scraped_at": "2026-05-02 23:21:09",
    "region": "鼓楼街道",
    "unit_price": 18.3,
    "lat": 40.37978,
    "lng": 116.84669
  },
  {
    "title": "整租·沿湖小区 2室1厅 南/北",
    "community": "沿湖小区",
    "area": "91.58",
    "rooms": "2室1厅",
    "direction": "南/北",
    "floor": "",
    "price": "2200",
    "tags": "",
    "source": "",
    "url": "https://bj.lianjia.com/zufang/BJ2160689948942925824.html",
    "rent_type": "整租",
    "location": "密云区-鼓楼街道-沿湖小区",
    "scraped_at": "2026-05-02 23:21:23",
    "region": "鼓楼街道",
    "unit_price": 24.0,
    "lat": 40.382332,
    "lng": 116.841551
  },
  {
    "title": "整租·车站路小区 1室1厅 东",
    "community": "车站路小区",
    "area": "35.58",
    "rooms": "1室1厅",
    "direction": "东",
    "floor": "",
    "price": "1190",
    "tags": "",
    "source": "",
    "url": "https://bj.lianjia.com/zufang/BJ2151553987197796352.html",
    "rent_type": "整租",
    "location": "密云区-鼓楼街道-车站路小区",
    "scraped_at": "2026-05-02 23:21:23",
    "region": "鼓楼街道",
    "unit_price": 33.4,
    "lat": 40.386446,
    "lng": 116.849578
  },
  {
    "title": "整租·檀营国际生态城南区 2室1厅 南/北",
    "community": "檀营国际生态城南区",
    "area": "95.09",
    "rooms": "2室1厅",
    "direction": "南/北",
    "floor": "",
    "price": "1500",
    "tags": "",
    "source": "",
    "url": "https://bj.lianjia.com/zufang/BJ2158901099350720512.html",
    "rent_type": "整租",
    "location": "密云区-鼓楼街道-檀营国际生态城南区",
    "scraped_at": "2026-05-02 23:21:09",
    "region": "鼓楼街道",
    "unit_price": 15.8,
    "lat": 40.389635,
    "lng": 116.868648
  },
  {
    "title": "整租·行宫小区 3室2厅 南/北",
    "community": "行宫小区",
    "area": "95.72",
    "rooms": "3室2厅",
    "direction": "南/北",
    "floor": "",
    "price": "1800",
    "tags": "",
    "source": "",
    "url": "https://bj.lianjia.com/zufang/BJ2145547176489517056.html",
    "rent_type": "整租",
    "location": "密云区-鼓楼街道-行宫小区",
    "scraped_at": "2026-05-02 23:21:09",
    "region": "鼓楼街道",
    "unit_price": 18.8,
    "lat": 40.37874,
    "lng": 116.85962
  },
  {
    "title": "整租·保利花园A区 2室1厅 西",
    "community": "保利花园A区",
    "area": "80.01",
    "rooms": "2室1厅",
    "direction": "西",
    "floor": "",
    "price": "2100",
    "tags": "",
    "source": "",
    "url": "https://bj.lianjia.com/zufang/BJ2121226552816435200.html",
    "rent_type": "整租",
    "location": "密云区-鼓楼街道-保利花园",
    "scraped_at": "2026-05-02 23:21:09",
    "region": "鼓楼街道",
    "unit_price": 26.2,
    "lat": 40.370126,
    "lng": 116.857578
  },
  {
    "title": "整租·久润花园西区 1室1厅 南/北",
    "community": "久润花园西区",
    "area": "37.97",
    "rooms": "1室1厅",
    "direction": "南/北",
    "floor": "",
    "price": "1400",
    "tags": "",
    "source": "",
    "url": "https://bj.lianjia.com/zufang/BJ2097905181772480512.html",
    "rent_type": "整租",
    "location": "密云区-鼓楼街道-久润花园西区",
    "scraped_at": "2026-05-02 23:21:09",
    "region": "鼓楼街道",
    "unit_price": 36.9,
    "lat": 40.391771,
    "lng": 116.855978
  },
  {
    "title": "整租·鼓楼东区 3室1厅 南/北",
    "community": "鼓楼东区",
    "area": "97.72",
    "rooms": "3室1厅",
    "direction": "南/北",
    "floor": "",
    "price": "2000",
    "tags": "",
    "source": "",
    "url": "https://bj.lianjia.com/zufang/BJ2080948796266643456.html",
    "rent_type": "整租",
    "location": "密云区-鼓楼街道-鼓楼东区",
    "scraped_at": "2026-05-02 23:21:09",
    "region": "鼓楼街道",
    "unit_price": 20.5,
    "lat": 40.376731,
    "lng": 116.843139
  },
  {
    "title": "整租·溪水雅地尚著 2室1厅 南",
    "community": "溪水雅地尚著",
    "area": "106.89",
    "rooms": "2室1厅",
    "direction": "南",
    "floor": "",
    "price": "2200",
    "tags": "",
    "source": "",
    "url": "https://bj.lianjia.com/zufang/BJ2125883707096039424.html",
    "rent_type": "整租",
    "location": "密云区-鼓楼街道-溪水雅地尚著",
    "scraped_at": "2026-05-02 23:21:09",
    "region": "鼓楼街道",
    "unit_price": 20.6,
    "lat": 40.385554,
    "lng": 116.845875
  },
  {
    "title": "整租·保利花园A区 3室1厅 南/北",
    "community": "保利花园A区",
    "area": "90.06",
    "rooms": "3室1厅",
    "direction": "南/北",
    "floor": "",
    "price": "2500",
    "tags": "",
    "source": "",
    "url": "https://bj.lianjia.com/zufang/BJ2149370284589711360.html",
    "rent_type": "整租",
    "location": "密云区-鼓楼街道-保利花园",
    "scraped_at": "2026-05-02 23:21:09",
    "region": "鼓楼街道",
    "unit_price": 27.8,
    "lat": 40.370126,
    "lng": 116.857578
  },
  {
    "title": "整租·西源里 2室2厅 南/北",
    "community": "西源里",
    "area": "110.95",
    "rooms": "2室2厅",
    "direction": "南/北",
    "floor": "",
    "price": "2100",
    "tags": "",
    "source": "",
    "url": "https://bj.lianjia.com/zufang/BJ2083431557795676160.html",
    "rent_type": "整租",
    "location": "密云区-鼓楼街道-西源里",
    "scraped_at": "2026-05-02 23:21:09",
    "region": "鼓楼街道",
    "unit_price": 18.9,
    "lat": 40.381396,
    "lng": 116.845222
  },
  {
    "title": "整租·檀城东区 3室2厅 南/北",
    "community": "檀城东区",
    "area": "103.68",
    "rooms": "3室2厅",
    "direction": "南/北",
    "floor": "",
    "price": "1900",
    "tags": "",
    "source": "",
    "url": "https://bj.lianjia.com/zufang/BJ2154420569989185536.html",
    "rent_type": "整租",
    "location": "密云区-鼓楼街道-檀城东区",
    "scraped_at": "2026-05-02 23:21:09",
    "region": "鼓楼街道",
    "unit_price": 18.3,
    "lat": 40.36648,
    "lng": 116.849746
  },
  {
    "title": "整租·沿湖小区南区 3室1厅 南/北",
    "community": "沿湖小区南区",
    "area": "90.57",
    "rooms": "3室1厅",
    "direction": "南/北",
    "floor": "",
    "price": "1800",
    "tags": "",
    "source": "",
    "url": "https://bj.lianjia.com/zufang/BJ2125161757226827776.html",
    "rent_type": "整租",
    "location": "密云区-鼓楼街道-沿湖小区南区",
    "scraped_at": "2026-05-02 23:21:09",
    "region": "鼓楼街道",
    "unit_price": 19.9,
    "lat": 40.380684,
    "lng": 116.842329
  },
  {
    "title": "整租·101家属区 2室1厅 南/北",
    "community": "101家属区",
    "area": "63.36",
    "rooms": "2室1厅",
    "direction": "南/北",
    "floor": "",
    "price": "1400",
    "tags": "",
    "source": "",
    "url": "https://bj.lianjia.com/zufang/BJ1913099638387245056.html",
    "rent_type": "整租",
    "location": "密云区-鼓楼街道",
    "scraped_at": "2026-05-02 23:21:09",
    "region": "鼓楼街道",
    "unit_price": 22.1,
    "lat": 40.373486,
    "lng": 116.834887
  },
  {
    "title": "整租·东菜园社区 3室2厅 南/北",
    "community": "东菜园社区",
    "area": "121.64",
    "rooms": "3室2厅",
    "direction": "南/北",
    "floor": "",
    "price": "1800",
    "tags": "",
    "source": "",
    "url": "https://bj.lianjia.com/zufang/BJ1945449126053281792.html",
    "rent_type": "整租",
    "location": "密云区-鼓楼街道-东菜园社区",
    "scraped_at": "2026-05-02 23:21:09",
    "region": "鼓楼街道",
    "unit_price": 14.8,
    "lat": 40.374316,
    "lng": 116.857408
  },
  {
    "title": "整租·宾阳北里 3室2厅 复式 南/北",
    "community": "宾阳北里",
    "area": "106.08",
    "rooms": "3室2厅",
    "direction": "",
    "floor": "",
    "price": "1900",
    "tags": "",
    "source": "",
    "url": "https://bj.lianjia.com/zufang/BJ2123378280605155328.html",
    "rent_type": "整租",
    "location": "密云区-鼓楼街道-宾阳北里",
    "scraped_at": "2026-05-02 23:21:09",
    "region": "鼓楼街道",
    "unit_price": 17.9,
    "lat": 40.387192,
    "lng": 116.854812
  },
  {
    "title": "整租·嘉玺园 3室1厅 南/北",
    "community": "嘉玺园",
    "area": "90.00",
    "rooms": "3室1厅",
    "direction": "南/北",
    "floor": "",
    "price": "2200",
    "tags": "",
    "source": "",
    "url": "https://bj.lianjia.com/zufang/BJ2157674521086132224.html",
    "rent_type": "整租",
    "location": "密云区-鼓楼街道-嘉玺园",
    "scraped_at": "2026-05-02 23:21:53",
    "region": "鼓楼街道",
    "unit_price": 24.4,
    "lat": 40.373024,
    "lng": 116.840082
  },
  {
    "title": "整租·沿湖小区南区 2室2厅 南",
    "community": "沿湖小区南区",
    "area": "65.43",
    "rooms": "2室2厅",
    "direction": "南",
    "floor": "",
    "price": "1900",
    "tags": "",
    "source": "",
    "url": "https://bj.lianjia.com/zufang/BJ2143948724211023872.html",
    "rent_type": "整租",
    "location": "密云区-鼓楼街道-沿湖小区南区",
    "scraped_at": "2026-05-02 23:21:09",
    "region": "鼓楼街道",
    "unit_price": 29.0,
    "lat": 40.380684,
    "lng": 116.842329
  },
  {
    "title": "整租·行宫御东园 2室2厅 南/北",
    "community": "行宫御东园",
    "area": "115.05",
    "rooms": "2室2厅",
    "direction": "南/北",
    "floor": "",
    "price": "2500",
    "tags": "",
    "source": "",
    "url": "https://bj.lianjia.com/zufang/BJ2158135119854960640.html",
    "rent_type": "整租",
    "location": "密云区-鼓楼街道-行宫御东园",
    "scraped_at": "2026-05-02 23:21:19",
    "region": "鼓楼街道",
    "unit_price": 21.7,
    "lat": 40.38633,
    "lng": 116.85819
  },
  {
    "title": "整租·沿湖小区南区 2室1厅 南/北",
    "community": "沿湖小区南区",
    "area": "72.65",
    "rooms": "2室1厅",
    "direction": "南/北",
    "floor": "",
    "price": "1500",
    "tags": "",
    "source": "",
    "url": "https://bj.lianjia.com/zufang/BJ2147665064365129728.html",
    "rent_type": "整租",
    "location": "密云区-鼓楼街道-沿湖小区南区",
    "scraped_at": "2026-05-02 23:21:09",
    "region": "鼓楼街道",
    "unit_price": 20.6,
    "lat": 40.380684,
    "lng": 116.842329
  },
  {
    "title": "整租·宾阳西里南区 2室2厅 南/北",
    "community": "宾阳西里南区",
    "area": "83.88",
    "rooms": "2室2厅",
    "direction": "南/北",
    "floor": "",
    "price": "2300",
    "tags": "",
    "source": "",
    "url": "https://bj.lianjia.com/zufang/BJ2144046500064264192.html",
    "rent_type": "整租",
    "location": "密云区-鼓楼街道-宾阳西里南区",
    "scraped_at": "2026-05-02 23:21:25",
    "region": "鼓楼街道",
    "unit_price": 27.4,
    "lat": 40.379052,
    "lng": 116.851475
  },
  {
    "title": "整租·云秀花园 2室2厅 南/北",
    "community": "云秀花园",
    "area": "93.85",
    "rooms": "2室2厅",
    "direction": "南/北",
    "floor": "",
    "price": "2015",
    "tags": "",
    "source": "",
    "url": "https://bj.lianjia.com/zufang/BJ2067239297215365120.html",
    "rent_type": "整租",
    "location": "密云区-鼓楼街道-云秀花园",
    "scraped_at": "2026-05-02 23:21:53",
    "region": "鼓楼街道",
    "unit_price": 21.5,
    "lat": 40.394161,
    "lng": 116.845734
  },
  {
    "title": "整租·东菜园社区 4室1厅 南/北",
    "community": "东菜园社区",
    "area": "144.00",
    "rooms": "4室1厅",
    "direction": "南/北",
    "floor": "",
    "price": "3000",
    "tags": "",
    "source": "",
    "url": "https://bj.lianjia.com/zufang/BJ2150929024308740096.html",
    "rent_type": "整租",
    "location": "密云区-鼓楼街道-东菜园社区",
    "scraped_at": "2026-05-02 23:21:25",
    "region": "鼓楼街道",
    "unit_price": 20.8,
    "lat": 40.374316,
    "lng": 116.857408
  },
  {
    "title": "整租·长安小区 2室2厅 南/北",
    "community": "长安小区",
    "area": "102.61",
    "rooms": "2室2厅",
    "direction": "南/北",
    "floor": "",
    "price": "1900",
    "tags": "",
    "source": "",
    "url": "https://bj.lianjia.com/zufang/BJ2076131120407117824.html",
    "rent_type": "整租",
    "location": "密云区-鼓楼街道-长安小区",
    "scraped_at": "2026-05-02 23:21:53",
    "region": "鼓楼街道",
    "unit_price": 18.5,
    "lat": 40.37194,
    "lng": 116.836889
  },
  {
    "title": "整租·金寓大厦 2房间 南",
    "community": "金寓大厦 2房间 南",
    "area": "81.84",
    "rooms": "",
    "direction": "",
    "floor": "",
    "price": "1800",
    "tags": "",
    "source": "",
    "url": "https://bj.lianjia.com/zufang/BJ2144685486323531776.html",
    "rent_type": "整租",
    "location": "密云区-鼓楼街道-金寓大厦",
    "scraped_at": "2026-05-02 23:21:12",
    "region": "鼓楼街道",
    "unit_price": 22.0,
    "lat": 40.367851,
    "lng": 116.840176
  },
  {
    "title": "整租·京投发展·锦悦府 3室1厅 南",
    "community": "京投发展·锦悦府",
    "area": "89.56",
    "rooms": "3室1厅",
    "direction": "南",
    "floor": "",
    "price": "1900",
    "tags": "",
    "source": "",
    "url": "https://bj.lianjia.com/zufang/BJ2148311090591694848.html",
    "rent_type": "整租",
    "location": "密云区-鼓楼街道-京投发展",
    "scraped_at": "2026-05-02 23:21:19",
    "region": "鼓楼街道",
    "unit_price": 21.2,
    "lat": 40.36213,
    "lng": 116.8376
  },
  {
    "title": "整租·密云橡树湾西区 2室1厅 南",
    "community": "密云橡树湾西区",
    "area": "88.48",
    "rooms": "2室1厅",
    "direction": "南",
    "floor": "",
    "price": "2600",
    "tags": "",
    "source": "",
    "url": "https://bj.lianjia.com/zufang/BJ2143274702951415808.html",
    "rent_type": "整租",
    "location": "密云区-鼓楼街道-密云橡树湾西区",
    "scraped_at": "2026-05-02 23:21:25",
    "region": "鼓楼街道",
    "unit_price": 29.4,
    "lat": 40.380189,
    "lng": 116.846939
  },
  {
    "title": "整租·石桥西区 2室1厅 南/北",
    "community": "石桥西区",
    "area": "92.00",
    "rooms": "2室1厅",
    "direction": "南/北",
    "floor": "",
    "price": "1600",
    "tags": "",
    "source": "",
    "url": "https://bj.lianjia.com/zufang/BJ2115292589346258944.html",
    "rent_type": "整租",
    "location": "密云区-鼓楼街道-石桥西区",
    "scraped_at": "2026-05-02 23:21:12",
    "region": "鼓楼街道",
    "unit_price": 17.4,
    "lat": 40.38272,
    "lng": 116.86051
  },
  {
    "title": "整租·首创禧悦府 1室1厅 南/北",
    "community": "首创禧悦府",
    "area": "56.58",
    "rooms": "1室1厅",
    "direction": "南/北",
    "floor": "",
    "price": "800",
    "tags": "",
    "source": "",
    "url": "https://bj.lianjia.com/zufang/BJ2067955487399215104.html",
    "rent_type": "整租",
    "location": "密云区-鼓楼街道-首创禧悦府",
    "scraped_at": "2026-05-02 23:21:12",
    "region": "鼓楼街道",
    "unit_price": 14.1,
    "lat": 40.382906,
    "lng": 116.852408
  },
  {
    "title": "整租·花园小区 2室2厅 南/北",
    "community": "花园小区",
    "area": "92.09",
    "rooms": "2室2厅",
    "direction": "南/北",
    "floor": "",
    "price": "1400",
    "tags": "",
    "source": "",
    "url": "https://bj.lianjia.com/zufang/BJ2078094362532642816.html",
    "rent_type": "整租",
    "location": "密云区-鼓楼街道-花园小区",
    "scraped_at": "2026-05-02 23:21:12",
    "region": "鼓楼街道",
    "unit_price": 15.2,
    "lat": 40.373317,
    "lng": 116.85012
  },
  {
    "title": "整租·沿湖小区 2室1厅 南/北",
    "community": "沿湖小区",
    "area": "72.89",
    "rooms": "2室1厅",
    "direction": "南/北",
    "floor": "",
    "price": "1600",
    "tags": "",
    "source": "",
    "url": "https://bj.lianjia.com/zufang/BJ2155623338406313984.html",
    "rent_type": "整租",
    "location": "密云区-鼓楼街道-沿湖小区",
    "scraped_at": "2026-05-02 23:21:19",
    "region": "鼓楼街道",
    "unit_price": 22.0,
    "lat": 40.382332,
    "lng": 116.841551
  },
  {
    "title": "整租·财智国际中心 1室1厅 南",
    "community": "财智国际中心",
    "area": "42.85",
    "rooms": "1室1厅",
    "direction": "南",
    "floor": "",
    "price": "1400",
    "tags": "",
    "source": "",
    "url": "https://bj.lianjia.com/zufang/BJ2151307341721501696.html",
    "rent_type": "整租",
    "location": "密云区-鼓楼街道-财智国际中心",
    "scraped_at": "2026-05-02 23:21:23",
    "region": "鼓楼街道",
    "unit_price": 32.7,
    "lat": 40.374585,
    "lng": 116.836783
  },
  {
    "title": "整租·上营东区 1室1厅 南",
    "community": "上营东区",
    "area": "77.59",
    "rooms": "1室1厅",
    "direction": "南",
    "floor": "",
    "price": "1500",
    "tags": "",
    "source": "",
    "url": "https://bj.lianjia.com/zufang/BJ2153103893511274496.html",
    "rent_type": "整租",
    "location": "密云区-鼓楼街道-上营东区",
    "scraped_at": "2026-05-02 23:21:12",
    "region": "鼓楼街道",
    "unit_price": 19.3,
    "lat": 40.377684,
    "lng": 116.849277
  },
  {
    "title": "整租·沿湖小区 2室2厅 南",
    "community": "沿湖小区",
    "area": "83.23",
    "rooms": "2室2厅",
    "direction": "南",
    "floor": "",
    "price": "1500",
    "tags": "",
    "source": "",
    "url": "https://bj.lianjia.com/zufang/BJ2098317749372583936.html",
    "rent_type": "整租",
    "location": "密云区-鼓楼街道-沿湖小区",
    "scraped_at": "2026-05-02 23:21:25",
    "region": "鼓楼街道",
    "unit_price": 18.0,
    "lat": 40.382332,
    "lng": 116.841551
  },
  {
    "title": "整租·檀州家园西区 2室1厅 南/北",
    "community": "檀州家园西区",
    "area": "90.98",
    "rooms": "2室1厅",
    "direction": "南/北",
    "floor": "",
    "price": "1800",
    "tags": "",
    "source": "",
    "url": "https://bj.lianjia.com/zufang/BJ2144806080922779648.html",
    "rent_type": "整租",
    "location": "密云区-鼓楼街道-檀州家园西区",
    "scraped_at": "2026-05-02 23:21:12",
    "region": "鼓楼街道",
    "unit_price": 19.8,
    "lat": 40.366666,
    "lng": 116.835138
  },
  {
    "title": "整租·宾阳西里北区 2室1厅 南/北",
    "community": "宾阳西里北区",
    "area": "99.80",
    "rooms": "2室1厅",
    "direction": "南/北",
    "floor": "",
    "price": "1600",
    "tags": "",
    "source": "",
    "url": "https://bj.lianjia.com/zufang/BJ2128018465724825600.html",
    "rent_type": "整租",
    "location": "密云区-鼓楼街道-宾阳西里北区",
    "scraped_at": "2026-05-02 23:21:12",
    "region": "鼓楼街道",
    "unit_price": 16.0,
    "lat": 40.380232,
    "lng": 116.84944
  },
  {
    "title": "整租·花园小区 3室1厅 南/北",
    "community": "花园小区",
    "area": "103.41",
    "rooms": "3室1厅",
    "direction": "南/北",
    "floor": "",
    "price": "1800",
    "tags": "",
    "source": "",
    "url": "https://bj.lianjia.com/zufang/BJ2147677158753959936.html",
    "rent_type": "整租",
    "location": "密云区-鼓楼街道-花园小区",
    "scraped_at": "2026-05-02 23:21:12",
    "region": "鼓楼街道",
    "unit_price": 17.4,
    "lat": 40.373317,
    "lng": 116.85012
  },
  {
    "title": "整租·宾阳北里 2室2厅 南",
    "community": "宾阳北里",
    "area": "83.48",
    "rooms": "2室2厅",
    "direction": "南",
    "floor": "",
    "price": "1900",
    "tags": "",
    "source": "",
    "url": "https://bj.lianjia.com/zufang/BJ2155517023151456256.html",
    "rent_type": "整租",
    "location": "密云区-鼓楼街道-宾阳北里",
    "scraped_at": "2026-05-02 23:21:12",
    "region": "鼓楼街道",
    "unit_price": 22.8,
    "lat": 40.387192,
    "lng": 116.854812
  },
  {
    "title": "整租·沿湖小区南区 2室1厅 南/北",
    "community": "沿湖小区南区",
    "area": "83.44",
    "rooms": "2室1厅",
    "direction": "南/北",
    "floor": "",
    "price": "1400",
    "tags": "",
    "source": "",
    "url": "https://bj.lianjia.com/zufang/BJ2147354130878824448.html",
    "rent_type": "整租",
    "location": "密云区-鼓楼街道-沿湖小区南区",
    "scraped_at": "2026-05-02 23:21:12",
    "region": "鼓楼街道",
    "unit_price": 16.8,
    "lat": 40.380684,
    "lng": 116.842329
  },
  {
    "title": "整租·首创禧悦嘉园 2室1厅 南/北",
    "community": "首创禧悦嘉园",
    "area": "81.08",
    "rooms": "2室1厅",
    "direction": "南/北",
    "floor": "",
    "price": "2400",
    "tags": "",
    "source": "",
    "url": "https://bj.lianjia.com/zufang/BJ2158057390665105408.html",
    "rent_type": "整租",
    "location": "密云区-鼓楼街道-首创禧悦嘉园",
    "scraped_at": "2026-05-02 23:21:19",
    "region": "鼓楼街道",
    "unit_price": 29.6,
    "lat": 40.382906,
    "lng": 116.852408
  },
  {
    "title": "整租·矿山家属院 5室3厅 南/北",
    "community": "矿山家属院",
    "area": "158.00",
    "rooms": "5室3厅",
    "direction": "南/北",
    "floor": "",
    "price": "3200",
    "tags": "",
    "source": "",
    "url": "https://bj.lianjia.com/zufang/BJ2153856896199557120.html",
    "rent_type": "整租",
    "location": "密云区-鼓楼街道-矿山家属院",
    "scraped_at": "2026-05-02 23:21:12",
    "region": "鼓楼街道",
    "unit_price": 20.3,
    "lat": 40.376898,
    "lng": 116.857997
  },
  {
    "title": "整租·柏林山水 3室2厅 南/北",
    "community": "柏林山水",
    "area": "120.86",
    "rooms": "3室2厅",
    "direction": "南/北",
    "floor": "",
    "price": "2800",
    "tags": "",
    "source": "",
    "url": "https://bj.lianjia.com/zufang/BJ2139010487331848192.html",
    "rent_type": "整租",
    "location": "密云区-鼓楼街道-柏林山水",
    "scraped_at": "2026-05-02 23:21:25",
    "region": "鼓楼街道",
    "unit_price": 23.2,
    "lat": 40.370156,
    "lng": 116.860334
  },
  {
    "title": "整租·宾阳里小区 2室1厅 南/北",
    "community": "宾阳里小区",
    "area": "67.27",
    "rooms": "2室1厅",
    "direction": "南/北",
    "floor": "",
    "price": "1000",
    "tags": "",
    "source": "",
    "url": "https://bj.lianjia.com/zufang/BJ2144368665535971328.html",
    "rent_type": "整租",
    "location": "密云区-鼓楼街道-宾阳里小区",
    "scraped_at": "2026-05-02 23:21:12",
    "region": "鼓楼街道",
    "unit_price": 14.9,
    "lat": 40.377461,
    "lng": 116.856303
  },
  {
    "title": "整租·宾阳里小区 2室1厅 南/北",
    "community": "宾阳里小区",
    "area": "58.46",
    "rooms": "2室1厅",
    "direction": "南/北",
    "floor": "",
    "price": "1400",
    "tags": "",
    "source": "",
    "url": "https://bj.lianjia.com/zufang/BJ2153801632448512000.html",
    "rent_type": "整租",
    "location": "密云区-鼓楼街道-宾阳里小区",
    "scraped_at": "2026-05-02 23:21:23",
    "region": "鼓楼街道",
    "unit_price": 23.9,
    "lat": 40.377461,
    "lng": 116.856303
  },
  {
    "title": "整租·宾阳里小区 3室2厅 南/北",
    "community": "宾阳里小区",
    "area": "118.62",
    "rooms": "3室2厅",
    "direction": "南/北",
    "floor": "",
    "price": "1700",
    "tags": "",
    "source": "",
    "url": "https://bj.lianjia.com/zufang/BJ2098754909930258432.html",
    "rent_type": "整租",
    "location": "密云区-鼓楼街道-宾阳里小区",
    "scraped_at": "2026-05-02 23:21:12",
    "region": "鼓楼街道",
    "unit_price": 14.3,
    "lat": 40.377461,
    "lng": 116.856303
  },
  {
    "title": "整租·石桥西区 4室2厅 南/北",
    "community": "石桥西区",
    "area": "144.88",
    "rooms": "4室2厅",
    "direction": "南/北",
    "floor": "",
    "price": "2100",
    "tags": "",
    "source": "",
    "url": "https://bj.lianjia.com/zufang/BJ2144280582417285120.html",
    "rent_type": "整租",
    "location": "密云区-鼓楼街道-石桥西区",
    "scraped_at": "2026-05-02 23:21:12",
    "region": "鼓楼街道",
    "unit_price": 14.5,
    "lat": 40.38272,
    "lng": 116.86051
  },
  {
    "title": "整租·亚澜湾 1室1厅 南",
    "community": "亚澜湾",
    "area": "48.08",
    "rooms": "1室1厅",
    "direction": "南",
    "floor": "",
    "price": "1500",
    "tags": "",
    "source": "",
    "url": "https://bj.lianjia.com/zufang/BJ2138860183864999936.html",
    "rent_type": "整租",
    "location": "密云区-鼓楼街道-亚澜湾",
    "scraped_at": "2026-05-02 23:21:12",
    "region": "鼓楼街道",
    "unit_price": 31.2,
    "lat": 40.350886,
    "lng": 116.824708
  },
  {
    "title": "整租·宾阳里小区 2室1厅 南/北",
    "community": "宾阳里小区",
    "area": "57.07",
    "rooms": "2室1厅",
    "direction": "南/北",
    "floor": "",
    "price": "1100",
    "tags": "",
    "source": "",
    "url": "https://bj.lianjia.com/zufang/BJ2075149270519906304.html",
    "rent_type": "整租",
    "location": "密云区-鼓楼街道-宾阳里小区",
    "scraped_at": "2026-05-02 23:21:12",
    "region": "鼓楼街道",
    "unit_price": 19.3,
    "lat": 40.377461,
    "lng": 116.856303
  },
  {
    "title": "整租·北源里 1室1厅 南",
    "community": "北源里",
    "area": "54.00",
    "rooms": "1室1厅",
    "direction": "南",
    "floor": "",
    "price": "1500",
    "tags": "",
    "source": "",
    "url": "https://bj.lianjia.com/zufang/BJ2147276045273792512.html",
    "rent_type": "整租",
    "location": "密云区-鼓楼街道-北源里",
    "scraped_at": "2026-05-02 23:21:12",
    "region": "鼓楼街道",
    "unit_price": 27.8,
    "lat": 40.383251,
    "lng": 116.847573
  },
  {
    "title": "整租·绿地朗山公馆南区 3室1厅 南/北",
    "community": "绿地朗山公馆南区",
    "area": "114.89",
    "rooms": "3室1厅",
    "direction": "南/北",
    "floor": "",
    "price": "3300",
    "tags": "",
    "source": "",
    "url": "https://bj.lianjia.com/zufang/BJ2151642328702386176.html",
    "rent_type": "整租",
    "location": "密云区-鼓楼街道-绿地朗山公馆南区",
    "scraped_at": "2026-05-02 23:21:23",
    "region": "鼓楼街道",
    "unit_price": 28.7,
    "lat": 40.35316,
    "lng": 116.83514
  },
  {
    "title": "整租·长安小区 2室1厅 南/北",
    "community": "长安小区",
    "area": "85.25",
    "rooms": "2室1厅",
    "direction": "南/北",
    "floor": "",
    "price": "1500",
    "tags": "",
    "source": "",
    "url": "https://bj.lianjia.com/zufang/BJ2113578986842882048.html",
    "rent_type": "整租",
    "location": "密云区-鼓楼街道-长安小区",
    "scraped_at": "2026-05-02 23:21:12",
    "region": "鼓楼街道",
    "unit_price": 17.6,
    "lat": 40.37194,
    "lng": 116.836889
  },
  {
    "title": "整租·保利花园C区 2室1厅 南/北",
    "community": "保利花园C区",
    "area": "90.00",
    "rooms": "2室1厅",
    "direction": "南/北",
    "floor": "",
    "price": "2700",
    "tags": "",
    "source": "",
    "url": "https://bj.lianjia.com/zufang/BJ2140849503735906304.html",
    "rent_type": "整租",
    "location": "密云区-鼓楼街道-保利花园",
    "scraped_at": "2026-05-02 23:21:25",
    "region": "鼓楼街道",
    "unit_price": 30.0,
    "lat": 40.369016,
    "lng": 116.857828
  },
  {
    "title": "整租·钻石公寓 1室1厅 南/北",
    "community": "钻石公寓",
    "area": "42.89",
    "rooms": "1室1厅",
    "direction": "南/北",
    "floor": "",
    "price": "1500",
    "tags": "",
    "source": "",
    "url": "https://bj.lianjia.com/zufang/BJ1983411722983047168.html",
    "rent_type": "整租",
    "location": "密云区-鼓楼街道-钻石公寓",
    "scraped_at": "2026-05-02 23:21:53",
    "region": "鼓楼街道",
    "unit_price": 35.0,
    "lat": 31.219,
    "lng": 121.39436
  },
  {
    "title": "整租·通城胡同 2室1厅 南/北",
    "community": "通城胡同",
    "area": "60.87",
    "rooms": "2室1厅",
    "direction": "南/北",
    "floor": "",
    "price": "1500",
    "tags": "",
    "source": "",
    "url": "https://bj.lianjia.com/zufang/BJ2142928419195715584.html",
    "rent_type": "整租",
    "location": "密云区-鼓楼街道-通城胡同",
    "scraped_at": "2026-05-02 23:21:15",
    "region": "鼓楼街道",
    "unit_price": 24.6,
    "lat": 40.373093,
    "lng": 116.841474
  },
  {
    "title": "整租·东菜园社区 2室1厅 南/北",
    "community": "东菜园社区",
    "area": "92.26",
    "rooms": "2室1厅",
    "direction": "南/北",
    "floor": "",
    "price": "2000",
    "tags": "",
    "source": "",
    "url": "https://bj.lianjia.com/zufang/BJ2154854148913233920.html",
    "rent_type": "整租",
    "location": "密云区-鼓楼街道-东菜园社区",
    "scraped_at": "2026-05-02 23:21:19",
    "region": "鼓楼街道",
    "unit_price": 21.7,
    "lat": 40.374316,
    "lng": 116.857408
  },
  {
    "title": "整租·沿湖小区南区 2室2厅 南/北",
    "community": "沿湖小区南区",
    "area": "84.25",
    "rooms": "2室2厅",
    "direction": "南/北",
    "floor": "",
    "price": "1500",
    "tags": "",
    "source": "",
    "url": "https://bj.lianjia.com/zufang/BJ2103705795072884736.html",
    "rent_type": "整租",
    "location": "密云区-鼓楼街道-沿湖小区南区",
    "scraped_at": "2026-05-02 23:21:23",
    "region": "鼓楼街道",
    "unit_price": 17.8,
    "lat": 40.380684,
    "lng": 116.842329
  },
  {
    "title": "整租·花园小区 3室2厅 南/北",
    "community": "花园小区",
    "area": "112.56",
    "rooms": "3室2厅",
    "direction": "南/北",
    "floor": "",
    "price": "2200",
    "tags": "",
    "source": "",
    "url": "https://bj.lianjia.com/zufang/BJ2101975829541027840.html",
    "rent_type": "整租",
    "location": "密云区-鼓楼街道-花园小区",
    "scraped_at": "2026-05-02 23:21:25",
    "region": "鼓楼街道",
    "unit_price": 19.5,
    "lat": 40.373317,
    "lng": 116.85012
  },
  {
    "title": "整租·亚澜湾 1室1厅 南",
    "community": "亚澜湾",
    "area": "48.08",
    "rooms": "1室1厅",
    "direction": "南",
    "floor": "",
    "price": "1500",
    "tags": "",
    "source": "",
    "url": "https://bj.lianjia.com/zufang/BJ1910598085021532160.html",
    "rent_type": "整租",
    "location": "密云区-鼓楼街道-亚澜湾",
    "scraped_at": "2026-05-02 23:21:53",
    "region": "鼓楼街道",
    "unit_price": 31.2,
    "lat": 40.350886,
    "lng": 116.824708
  },
  {
    "title": "整租·东菜园社区 2室1厅 南/北",
    "community": "东菜园社区",
    "area": "72.29",
    "rooms": "2室1厅",
    "direction": "南/北",
    "floor": "",
    "price": "1100",
    "tags": "",
    "source": "",
    "url": "https://bj.lianjia.com/zufang/BJ2026201857398931456.html",
    "rent_type": "整租",
    "location": "密云区-鼓楼街道-东菜园社区",
    "scraped_at": "2026-05-02 23:21:15",
    "region": "鼓楼街道",
    "unit_price": 15.2,
    "lat": 40.374316,
    "lng": 116.857408
  },
  {
    "title": "整租·密云滨河路小区 2室1厅 南",
    "community": "密云滨河路小区",
    "area": "53.70",
    "rooms": "2室1厅",
    "direction": "南",
    "floor": "",
    "price": "1300",
    "tags": "",
    "source": "",
    "url": "https://bj.lianjia.com/zufang/BJ2139270155455168512.html",
    "rent_type": "整租",
    "location": "密云区-鼓楼街道-密云滨河路小区",
    "scraped_at": "2026-05-02 23:21:15",
    "region": "鼓楼街道",
    "unit_price": 24.2,
    "lat": 40.355287,
    "lng": 116.82918
  },
  {
    "title": "整租·花园小区 3室2厅 南/北",
    "community": "花园小区",
    "area": "135.80",
    "rooms": "3室2厅",
    "direction": "南/北",
    "floor": "",
    "price": "1600",
    "tags": "",
    "source": "",
    "url": "https://bj.lianjia.com/zufang/BJ1911984882800656384.html",
    "rent_type": "整租",
    "location": "密云区-鼓楼街道-花园小区",
    "scraped_at": "2026-05-02 23:21:23",
    "region": "鼓楼街道",
    "unit_price": 11.8,
    "lat": 40.373317,
    "lng": 116.85012
  },
  {
    "title": "整租·花园小区 2室1厅 南/北",
    "community": "花园小区",
    "area": "87.64",
    "rooms": "2室1厅",
    "direction": "南/北",
    "floor": "",
    "price": "1500",
    "tags": "",
    "source": "",
    "url": "https://bj.lianjia.com/zufang/BJ2044013059206283264.html",
    "rent_type": "整租",
    "location": "密云区-鼓楼街道-花园小区",
    "scraped_at": "2026-05-02 23:21:15",
    "region": "鼓楼街道",
    "unit_price": 17.1,
    "lat": 40.373317,
    "lng": 116.85012
  },
  {
    "title": "整租·宾阳西里南区 3室2厅 南/北",
    "community": "宾阳西里南区",
    "area": "116.00",
    "rooms": "3室2厅",
    "direction": "南/北",
    "floor": "",
    "price": "2300",
    "tags": "",
    "source": "",
    "url": "https://bj.lianjia.com/zufang/BJ2126986234931707904.html",
    "rent_type": "整租",
    "location": "密云区-鼓楼街道-宾阳西里南区",
    "scraped_at": "2026-05-02 23:21:15",
    "region": "鼓楼街道",
    "unit_price": 19.8,
    "lat": 40.379052,
    "lng": 116.851475
  },
  {
    "title": "整租·宾阳北里 3室1厅 南/北",
    "community": "宾阳北里",
    "area": "85.27",
    "rooms": "3室1厅",
    "direction": "南/北",
    "floor": "",
    "price": "1500",
    "tags": "",
    "source": "",
    "url": "https://bj.lianjia.com/zufang/BJ2103751160316821504.html",
    "rent_type": "整租",
    "location": "密云区-鼓楼街道-宾阳北里",
    "scraped_at": "2026-05-02 23:21:15",
    "region": "鼓楼街道",
    "unit_price": 17.6,
    "lat": 40.387192,
    "lng": 116.854812
  },
  {
    "title": "整租·密云橡树湾西区 3室1厅 南/北",
    "community": "密云橡树湾西区",
    "area": "108.80",
    "rooms": "3室1厅",
    "direction": "南/北",
    "floor": "",
    "price": "3500",
    "tags": "",
    "source": "",
    "url": "https://bj.lianjia.com/zufang/BJ2159963290216693760.html",
    "rent_type": "整租",
    "location": "密云区-鼓楼街道-密云橡树湾西区",
    "scraped_at": "2026-05-02 23:21:15",
    "region": "鼓楼街道",
    "unit_price": 32.2,
    "lat": 40.380189,
    "lng": 116.846939
  },
  {
    "title": "整租·白檀小区 2室1厅 南/北",
    "community": "白檀小区",
    "area": "80.68",
    "rooms": "2室1厅",
    "direction": "南/北",
    "floor": "",
    "price": "1500",
    "tags": "",
    "source": "",
    "url": "https://bj.lianjia.com/zufang/BJ2148039461663932416.html",
    "rent_type": "整租",
    "location": "密云区-鼓楼街道-白檀小区",
    "scraped_at": "2026-05-02 23:21:25",
    "region": "鼓楼街道",
    "unit_price": 18.6,
    "lat": 40.373686,
    "lng": 116.841458
  },
  {
    "title": "整租·沿湖小区 2室1厅 南/北",
    "community": "沿湖小区",
    "area": "88.05",
    "rooms": "2室1厅",
    "direction": "南/北",
    "floor": "",
    "price": "1800",
    "tags": "",
    "source": "",
    "url": "https://bj.lianjia.com/zufang/BJ1927317941544550400.html",
    "rent_type": "整租",
    "location": "密云区-鼓楼街道-沿湖小区",
    "scraped_at": "2026-05-02 23:21:15",
    "region": "鼓楼街道",
    "unit_price": 20.4,
    "lat": 40.382332,
    "lng": 116.841551
  },
  {
    "title": "整租·宾阳西里北区 2室1厅 南/北",
    "community": "宾阳西里北区",
    "area": "75.34",
    "rooms": "2室1厅",
    "direction": "南/北",
    "floor": "",
    "price": "1200",
    "tags": "",
    "source": "",
    "url": "https://bj.lianjia.com/zufang/BJ2079580498790711296.html",
    "rent_type": "整租",
    "location": "密云区-鼓楼街道-宾阳西里北区",
    "scraped_at": "2026-05-02 23:21:15",
    "region": "鼓楼街道",
    "unit_price": 15.9,
    "lat": 40.380232,
    "lng": 116.84944
  },
  {
    "title": "整租·矿山家属院 3室2厅 南/北",
    "community": "矿山家属院",
    "area": "105.78",
    "rooms": "3室2厅",
    "direction": "南/北",
    "floor": "",
    "price": "2000",
    "tags": "",
    "source": "",
    "url": "https://bj.lianjia.com/zufang/BJ2141918094413529088.html",
    "rent_type": "整租",
    "location": "密云区-鼓楼街道-矿山家属院",
    "scraped_at": "2026-05-02 23:21:15",
    "region": "鼓楼街道",
    "unit_price": 18.9,
    "lat": 40.376898,
    "lng": 116.857997
  },
  {
    "title": "整租·沿湖小区南区 2室1厅 南/北",
    "community": "沿湖小区南区",
    "area": "78.28",
    "rooms": "2室1厅",
    "direction": "南/北",
    "floor": "",
    "price": "1500",
    "tags": "",
    "source": "",
    "url": "https://bj.lianjia.com/zufang/BJ2116372046224031744.html",
    "rent_type": "整租",
    "location": "密云区-鼓楼街道-沿湖小区南区",
    "scraped_at": "2026-05-02 23:21:15",
    "region": "鼓楼街道",
    "unit_price": 19.2,
    "lat": 40.380684,
    "lng": 116.842329
  },
  {
    "title": "整租·沿湖小区 3室1厅 复式 南/北",
    "community": "沿湖小区",
    "area": "129.28",
    "rooms": "3室1厅",
    "direction": "",
    "floor": "",
    "price": "1400",
    "tags": "",
    "source": "",
    "url": "https://bj.lianjia.com/zufang/BJ2002964998426460160.html",
    "rent_type": "整租",
    "location": "密云区-鼓楼街道-沿湖小区",
    "scraped_at": "2026-05-02 23:21:53",
    "region": "鼓楼街道",
    "unit_price": 10.8,
    "lat": 40.382332,
    "lng": 116.841551
  },
  {
    "title": "整租·檀城东区 3室1厅 南/北",
    "community": "檀城东区",
    "area": "132.56",
    "rooms": "3室1厅",
    "direction": "南/北",
    "floor": "",
    "price": "2000",
    "tags": "",
    "source": "",
    "url": "https://bj.lianjia.com/zufang/BJ2141399046290407424.html",
    "rent_type": "整租",
    "location": "密云区-鼓楼街道-檀城东区",
    "scraped_at": "2026-05-02 23:21:53",
    "region": "鼓楼街道",
    "unit_price": 15.1,
    "lat": 40.36648,
    "lng": 116.849746
  },
  {
    "title": "整租·东菜园社区 3室2厅 南/北",
    "community": "东菜园社区",
    "area": "121.64",
    "rooms": "3室2厅",
    "direction": "南/北",
    "floor": "",
    "price": "1900",
    "tags": "",
    "source": "",
    "url": "https://bj.lianjia.com/zufang/BJ2087116747487313920.html",
    "rent_type": "整租",
    "location": "密云区-鼓楼街道-东菜园社区",
    "scraped_at": "2026-05-02 23:21:15",
    "region": "鼓楼街道",
    "unit_price": 15.6,
    "lat": 40.374316,
    "lng": 116.857408
  },
  {
    "title": "整租·车站路小区 2室1厅 南",
    "community": "车站路小区",
    "area": "59.18",
    "rooms": "2室1厅",
    "direction": "南",
    "floor": "",
    "price": "1200",
    "tags": "",
    "source": "",
    "url": "https://bj.lianjia.com/zufang/BJ2095383884215615488.html",
    "rent_type": "整租",
    "location": "密云区-鼓楼街道-车站路小区",
    "scraped_at": "2026-05-02 23:21:15",
    "region": "鼓楼街道",
    "unit_price": 20.3,
    "lat": 40.386446,
    "lng": 116.849578
  },
  {
    "title": "整租·保利花园C区 2室1厅 南/北",
    "community": "保利花园C区",
    "area": "91.90",
    "rooms": "2室1厅",
    "direction": "南/北",
    "floor": "",
    "price": "2300",
    "tags": "",
    "source": "",
    "url": "https://bj.lianjia.com/zufang/BJ2158149575330758656.html",
    "rent_type": "整租",
    "location": "密云区-鼓楼街道-保利花园",
    "scraped_at": "2026-05-02 23:21:15",
    "region": "鼓楼街道",
    "unit_price": 25.0,
    "lat": 40.369016,
    "lng": 116.857828
  },
  {
    "title": "整租·鼓楼东区 2室1厅 东/北",
    "community": "鼓楼东区",
    "area": "65.46",
    "rooms": "2室1厅",
    "direction": "东/北",
    "floor": "",
    "price": "1400",
    "tags": "",
    "source": "",
    "url": "https://bj.lianjia.com/zufang/BJ2097608325599330304.html",
    "rent_type": "整租",
    "location": "密云区-鼓楼街道-鼓楼东区",
    "scraped_at": "2026-05-02 23:21:25",
    "region": "鼓楼街道",
    "unit_price": 21.4,
    "lat": 40.376731,
    "lng": 116.843139
  },
  {
    "title": "整租·檀城家园 3室1厅 南/北",
    "community": "檀城家园",
    "area": "108.30",
    "rooms": "3室1厅",
    "direction": "南/北",
    "floor": "",
    "price": "1600",
    "tags": "",
    "source": "",
    "url": "https://bj.lianjia.com/zufang/BJ2033479169408499712.html",
    "rent_type": "整租",
    "location": "密云区-鼓楼街道-檀城家园",
    "scraped_at": "2026-05-02 23:21:15",
    "region": "鼓楼街道",
    "unit_price": 14.8,
    "lat": 40.372193,
    "lng": 116.842344
  },
  {
    "title": "整租·沿湖小区 2室1厅 南/北",
    "community": "沿湖小区",
    "area": "90.96",
    "rooms": "2室1厅",
    "direction": "南/北",
    "floor": "",
    "price": "1700",
    "tags": "",
    "source": "",
    "url": "https://bj.lianjia.com/zufang/BJ2045767762822823936.html",
    "rent_type": "整租",
    "location": "密云区-鼓楼街道-沿湖小区",
    "scraped_at": "2026-05-02 23:21:15",
    "region": "鼓楼街道",
    "unit_price": 18.7,
    "lat": 40.382332,
    "lng": 116.841551
  },
  {
    "title": "整租·白檀小区 2室2厅 南",
    "community": "白檀小区",
    "area": "80.68",
    "rooms": "2室2厅",
    "direction": "南",
    "floor": "",
    "price": "1500",
    "tags": "",
    "source": "",
    "url": "https://bj.lianjia.com/zufang/BJ2128115446782623744.html",
    "rent_type": "整租",
    "location": "密云区-鼓楼街道-白檀小区",
    "scraped_at": "2026-05-02 23:21:15",
    "region": "鼓楼街道",
    "unit_price": 18.6,
    "lat": 40.373686,
    "lng": 116.841458
  },
  {
    "title": "整租·宾阳北里 2室1厅 南/北",
    "community": "宾阳北里",
    "area": "72.28",
    "rooms": "2室1厅",
    "direction": "南/北",
    "floor": "",
    "price": "1300",
    "tags": "",
    "source": "",
    "url": "https://bj.lianjia.com/zufang/BJ2161680245663465472.html",
    "rent_type": "整租",
    "location": "密云区-鼓楼街道-宾阳北里",
    "scraped_at": "2026-05-02 23:21:53",
    "region": "鼓楼街道",
    "unit_price": 18.0,
    "lat": 40.387192,
    "lng": 116.854812
  },
  {
    "title": "整租·通城胡同 2室1厅 南/北",
    "community": "通城胡同",
    "area": "60.40",
    "rooms": "2室1厅",
    "direction": "南/北",
    "floor": "",
    "price": "1600",
    "tags": "",
    "source": "",
    "url": "https://bj.lianjia.com/zufang/BJ2161386015887982592.html",
    "rent_type": "整租",
    "location": "密云区-鼓楼街道-通城胡同",
    "scraped_at": "2026-05-02 23:21:53",
    "region": "鼓楼街道",
    "unit_price": 26.5,
    "lat": 40.373093,
    "lng": 116.841474
  },
  {
    "title": "整租·保利花园C区 2室1厅 南/北",
    "community": "保利花园C区",
    "area": "90.00",
    "rooms": "2室1厅",
    "direction": "南/北",
    "floor": "",
    "price": "2400",
    "tags": "",
    "source": "",
    "url": "https://bj.lianjia.com/zufang/BJ2144795496621801472.html",
    "rent_type": "整租",
    "location": "密云区-鼓楼街道-保利花园",
    "scraped_at": "2026-05-02 23:21:15",
    "region": "鼓楼街道",
    "unit_price": 26.7,
    "lat": 40.369016,
    "lng": 116.857828
  },
  {
    "title": "整租·开园小区 3室2厅 南/北",
    "community": "开园小区",
    "area": "127.48",
    "rooms": "3室2厅",
    "direction": "南/北",
    "floor": "",
    "price": "3200",
    "tags": "",
    "source": "",
    "url": "https://bj.lianjia.com/zufang/BJ2148824698178240512.html",
    "rent_type": "整租",
    "location": "密云区-鼓楼街道-开园小区",
    "scraped_at": "2026-05-02 23:21:23",
    "region": "鼓楼街道",
    "unit_price": 25.1,
    "lat": 40.360743,
    "lng": 116.833866
  },
  {
    "title": "整租·保利花园C区 2室1厅 南/北",
    "community": "保利花园C区",
    "area": "90.59",
    "rooms": "2室1厅",
    "direction": "南/北",
    "floor": "",
    "price": "1800",
    "tags": "",
    "source": "",
    "url": "https://bj.lianjia.com/zufang/BJ2138205035643797504.html",
    "rent_type": "整租",
    "location": "密云区-鼓楼街道-保利花园",
    "scraped_at": "2026-05-02 23:21:19",
    "region": "鼓楼街道",
    "unit_price": 19.9,
    "lat": 40.369016,
    "lng": 116.857828
  },
  {
    "title": "整租·沿湖小区 2室1厅 南/北",
    "community": "沿湖小区",
    "area": "73.79",
    "rooms": "2室1厅",
    "direction": "南/北",
    "floor": "",
    "price": "1600",
    "tags": "",
    "source": "",
    "url": "https://bj.lianjia.com/zufang/BJ2155988273552424960.html",
    "rent_type": "整租",
    "location": "密云区-鼓楼街道-沿湖小区",
    "scraped_at": "2026-05-02 23:21:19",
    "region": "鼓楼街道",
    "unit_price": 21.7,
    "lat": 40.382332,
    "lng": 116.841551
  },
  {
    "title": "整租·亚澜湾 1室1厅 东",
    "community": "亚澜湾",
    "area": "48.08",
    "rooms": "1室1厅",
    "direction": "东",
    "floor": "",
    "price": "1500",
    "tags": "",
    "source": "",
    "url": "https://bj.lianjia.com/zufang/BJ2156685778472665088.html",
    "rent_type": "整租",
    "location": "密云区-鼓楼街道-亚澜湾",
    "scraped_at": "2026-05-02 23:21:19",
    "region": "鼓楼街道",
    "unit_price": 31.2,
    "lat": 40.350886,
    "lng": 116.824708
  },
  {
    "title": "整租·鼓楼东区 2室1厅 南/北",
    "community": "鼓楼东区",
    "area": "83.22",
    "rooms": "2室1厅",
    "direction": "南/北",
    "floor": "",
    "price": "1800",
    "tags": "",
    "source": "",
    "url": "https://bj.lianjia.com/zufang/BJ2156672717015744512.html",
    "rent_type": "整租",
    "location": "密云区-鼓楼街道-鼓楼东区",
    "scraped_at": "2026-05-02 23:21:19",
    "region": "鼓楼街道",
    "unit_price": 21.6,
    "lat": 40.376731,
    "lng": 116.843139
  },
  {
    "title": "整租·沿湖小区南区 2室1厅 南/北",
    "community": "沿湖小区南区",
    "area": "88.45",
    "rooms": "2室1厅",
    "direction": "南/北",
    "floor": "",
    "price": "1500",
    "tags": "",
    "source": "",
    "url": "https://bj.lianjia.com/zufang/BJ2156957920716128256.html",
    "rent_type": "整租",
    "location": "密云区-鼓楼街道-沿湖小区南区",
    "scraped_at": "2026-05-02 23:21:19",
    "region": "鼓楼街道",
    "unit_price": 17.0,
    "lat": 40.380684,
    "lng": 116.842329
  },
  {
    "title": "整租·西源里 2室1厅 北",
    "community": "西源里",
    "area": "52.32",
    "rooms": "2室1厅",
    "direction": "北",
    "floor": "",
    "price": "1800",
    "tags": "",
    "source": "",
    "url": "https://bj.lianjia.com/zufang/BJ2156963702576775168.html",
    "rent_type": "整租",
    "location": "密云区-鼓楼街道-西源里",
    "scraped_at": "2026-05-02 23:21:19",
    "region": "鼓楼街道",
    "unit_price": 34.4,
    "lat": 40.381396,
    "lng": 116.845222
  },
  {
    "title": "整租·柏林山水 2室1厅 南/北",
    "community": "柏林山水",
    "area": "91.47",
    "rooms": "2室1厅",
    "direction": "南/北",
    "floor": "",
    "price": "2000",
    "tags": "",
    "source": "",
    "url": "https://bj.lianjia.com/zufang/BJ2156998472828452864.html",
    "rent_type": "整租",
    "location": "密云区-鼓楼街道-柏林山水",
    "scraped_at": "2026-05-02 23:21:19",
    "region": "鼓楼街道",
    "unit_price": 21.9,
    "lat": 40.370156,
    "lng": 116.860334
  },
  {
    "title": "整租·车站路小区 2室1厅 南",
    "community": "车站路小区",
    "area": "58.33",
    "rooms": "2室1厅",
    "direction": "南",
    "floor": "",
    "price": "1700",
    "tags": "",
    "source": "",
    "url": "https://bj.lianjia.com/zufang/BJ2158495351487594496.html",
    "rent_type": "整租",
    "location": "密云区-鼓楼街道-车站路小区",
    "scraped_at": "2026-05-02 23:21:23",
    "region": "鼓楼街道",
    "unit_price": 29.1,
    "lat": 40.386446,
    "lng": 116.849578
  },
  {
    "title": "整租·白檀小区 1室1厅 南/北",
    "community": "白檀小区",
    "area": "58.80",
    "rooms": "1室1厅",
    "direction": "南/北",
    "floor": "",
    "price": "1300",
    "tags": "",
    "source": "",
    "url": "https://bj.lianjia.com/zufang/BJ2158551648685785088.html",
    "rent_type": "整租",
    "location": "密云区-鼓楼街道-白檀小区",
    "scraped_at": "2026-05-02 23:21:23",
    "region": "鼓楼街道",
    "unit_price": 22.1,
    "lat": 40.373686,
    "lng": 116.841458
  },
  {
    "title": "整租·保利花园C区 2室1厅 西/北",
    "community": "保利花园C区",
    "area": "72.00",
    "rooms": "2室1厅",
    "direction": "西/北",
    "floor": "",
    "price": "2300",
    "tags": "",
    "source": "",
    "url": "https://bj.lianjia.com/zufang/BJ2159218302361010176.html",
    "rent_type": "整租",
    "location": "密云区-鼓楼街道-保利花园",
    "scraped_at": "2026-05-02 23:21:23",
    "region": "鼓楼街道",
    "unit_price": 31.9,
    "lat": 40.369016,
    "lng": 116.857828
  },
  {
    "title": "整租·花园小区 3室2厅 南/北",
    "community": "花园小区",
    "area": "99.76",
    "rooms": "3室2厅",
    "direction": "南/北",
    "floor": "",
    "price": "2300",
    "tags": "",
    "source": "",
    "url": "https://bj.lianjia.com/zufang/BJ2159235860686438400.html",
    "rent_type": "整租",
    "location": "密云区-鼓楼街道-花园小区",
    "scraped_at": "2026-05-02 23:21:23",
    "region": "鼓楼街道",
    "unit_price": 23.1,
    "lat": 40.373317,
    "lng": 116.85012
  },
  {
    "title": "整租·檀城家园 2室1厅 南/北",
    "community": "檀城家园",
    "area": "73.02",
    "rooms": "2室1厅",
    "direction": "南/北",
    "floor": "",
    "price": "3500",
    "tags": "",
    "source": "",
    "url": "https://bj.lianjia.com/zufang/BJ2143352383994855424.html",
    "rent_type": "整租",
    "location": "密云区-鼓楼街道-檀城家园",
    "scraped_at": "2026-05-02 23:21:19",
    "region": "鼓楼街道",
    "unit_price": 47.9,
    "lat": 40.372193,
    "lng": 116.842344
  },
  {
    "title": "整租·花园小区 2室1厅 南/北",
    "community": "花园小区",
    "area": "60.91",
    "rooms": "2室1厅",
    "direction": "南/北",
    "floor": "",
    "price": "1800",
    "tags": "",
    "source": "",
    "url": "https://bj.lianjia.com/zufang/BJ2150078917396922368.html",
    "rent_type": "整租",
    "location": "密云区-鼓楼街道-花园小区",
    "scraped_at": "2026-05-02 23:21:23",
    "region": "鼓楼街道",
    "unit_price": 29.6,
    "lat": 40.373317,
    "lng": 116.85012
  },
  {
    "title": "整租·车站路小区 1室1厅 东南",
    "community": "车站路小区",
    "area": "25.72",
    "rooms": "1室1厅",
    "direction": "东南",
    "floor": "",
    "price": "1200",
    "tags": "",
    "source": "",
    "url": "https://bj.lianjia.com/zufang/BJ2150615930453884928.html",
    "rent_type": "整租",
    "location": "密云区-鼓楼街道-车站路小区",
    "scraped_at": "2026-05-02 23:21:23",
    "region": "鼓楼街道",
    "unit_price": 46.7,
    "lat": 40.386446,
    "lng": 116.849578
  },
  {
    "title": "整租·沿湖小区南区 1室1厅 北",
    "community": "沿湖小区南区",
    "area": "51.40",
    "rooms": "1室1厅",
    "direction": "北",
    "floor": "",
    "price": "3000",
    "tags": "",
    "source": "",
    "url": "https://bj.lianjia.com/zufang/BJ2151167783650459648.html",
    "rent_type": "整租",
    "location": "密云区-鼓楼街道-沿湖小区南区",
    "scraped_at": "2026-05-02 23:21:23",
    "region": "鼓楼街道",
    "unit_price": 58.4,
    "lat": 40.380684,
    "lng": 116.842329
  },
  {
    "title": "整租·宾阳西里北区 2室1厅 南/北",
    "community": "宾阳西里北区",
    "area": "67.00",
    "rooms": "2室1厅",
    "direction": "南/北",
    "floor": "",
    "price": "1900",
    "tags": "",
    "source": "",
    "url": "https://bj.lianjia.com/zufang/BJ2151649207553884160.html",
    "rent_type": "整租",
    "location": "密云区-鼓楼街道-宾阳西里北区",
    "scraped_at": "2026-05-02 23:21:23",
    "region": "鼓楼街道",
    "unit_price": 28.4,
    "lat": 40.380232,
    "lng": 116.84944
  },
  {
    "title": "整租·云湖家属院 3室2厅 南/北",
    "community": "云湖家属院",
    "area": "94.97",
    "rooms": "3室2厅",
    "direction": "南/北",
    "floor": "",
    "price": "1800",
    "tags": "",
    "source": "",
    "url": "https://bj.lianjia.com/zufang/BJ2143718173952704512.html",
    "rent_type": "整租",
    "location": "密云区-鼓楼街道-云湖家属院",
    "scraped_at": "2026-05-02 23:21:23",
    "region": "鼓楼街道",
    "unit_price": 19.0,
    "lat": 40.37891,
    "lng": 116.860764
  },
  {
    "title": "整租·白檀小区 3室2厅 南/北",
    "community": "白檀小区",
    "area": "94.97",
    "rooms": "3室2厅",
    "direction": "南/北",
    "floor": "",
    "price": "1500",
    "tags": "",
    "source": "",
    "url": "https://bj.lianjia.com/zufang/BJ1831618443955142656.html",
    "rent_type": "整租",
    "location": "密云区-鼓楼街道-白檀小区",
    "scraped_at": "2026-05-02 23:21:23",
    "region": "鼓楼街道",
    "unit_price": 15.8,
    "lat": 40.373686,
    "lng": 116.841458
  },
  {
    "title": "整租·花园小区 3室2厅 南/北",
    "community": "花园小区",
    "area": "99.63",
    "rooms": "3室2厅",
    "direction": "南/北",
    "floor": "",
    "price": "1600",
    "tags": "",
    "source": "",
    "url": "https://bj.lianjia.com/zufang/BJ1925071593130688512.html",
    "rent_type": "整租",
    "location": "密云区-鼓楼街道-花园小区",
    "scraped_at": "2026-05-02 23:21:23",
    "region": "鼓楼街道",
    "unit_price": 16.1,
    "lat": 40.373317,
    "lng": 116.85012
  },
  {
    "title": "整租·长安小区 2室1厅 南/北",
    "community": "长安小区",
    "area": "102.81",
    "rooms": "2室1厅",
    "direction": "南/北",
    "floor": "",
    "price": "2500",
    "tags": "",
    "source": "",
    "url": "https://bj.lianjia.com/zufang/BJ2158467523505291264.html",
    "rent_type": "整租",
    "location": "密云区-鼓楼街道-长安小区",
    "scraped_at": "2026-05-02 23:21:23",
    "region": "鼓楼街道",
    "unit_price": 24.3,
    "lat": 40.37194,
    "lng": 116.836889
  },
  {
    "title": "整租·花园小区 3室2厅 南/北",
    "community": "花园小区",
    "area": "113.00",
    "rooms": "3室2厅",
    "direction": "南/北",
    "floor": "",
    "price": "2500",
    "tags": "",
    "source": "",
    "url": "https://bj.lianjia.com/zufang/BJ2028049942357999616.html",
    "rent_type": "整租",
    "location": "密云区-鼓楼街道-花园小区",
    "scraped_at": "2026-05-02 23:21:25",
    "region": "鼓楼街道",
    "unit_price": 22.1,
    "lat": 40.373317,
    "lng": 116.85012
  },
  {
    "title": "整租·保利花园A区 3室1厅 南/北",
    "community": "保利花园A区",
    "area": "100.10",
    "rooms": "3室1厅",
    "direction": "南/北",
    "floor": "",
    "price": "2200",
    "tags": "",
    "source": "",
    "url": "https://bj.lianjia.com/zufang/BJ2137911846487719936.html",
    "rent_type": "整租",
    "location": "密云区-鼓楼街道-保利花园",
    "scraped_at": "2026-05-02 23:21:25",
    "region": "鼓楼街道",
    "unit_price": 22.0,
    "lat": 40.370126,
    "lng": 116.857578
  },
  {
    "title": "整租·花园小区 3室2厅 南/北",
    "community": "花园小区",
    "area": "132.00",
    "rooms": "3室2厅",
    "direction": "南/北",
    "floor": "",
    "price": "2000",
    "tags": "",
    "source": "",
    "url": "https://bj.lianjia.com/zufang/BJ2040044607374360576.html",
    "rent_type": "整租",
    "location": "密云区-鼓楼街道-花园小区",
    "scraped_at": "2026-05-02 23:21:25",
    "region": "鼓楼街道",
    "unit_price": 15.2,
    "lat": 40.373317,
    "lng": 116.85012
  },
  {
    "title": "整租·世纪家园 2室2厅 南/北",
    "community": "世纪家园",
    "area": "109.17",
    "rooms": "2室2厅",
    "direction": "南/北",
    "floor": "",
    "price": "2100",
    "tags": "",
    "source": "",
    "url": "https://bj.lianjia.com/zufang/BJ2151559027023151104.html",
    "rent_type": "整租",
    "location": "密云区-鼓楼街道-世纪家园",
    "scraped_at": "2026-05-02 23:21:25",
    "region": "鼓楼街道",
    "unit_price": 19.2,
    "lat": 40.37978,
    "lng": 116.84669
  },
  {
    "title": "整租·沿湖小区 2室2厅 南/北",
    "community": "沿湖小区",
    "area": "83.80",
    "rooms": "2室2厅",
    "direction": "南/北",
    "floor": "",
    "price": "1700",
    "tags": "",
    "source": "",
    "url": "https://bj.lianjia.com/zufang/BJ2101651990340698112.html",
    "rent_type": "整租",
    "location": "密云区-鼓楼街道-沿湖小区",
    "scraped_at": "2026-05-02 23:21:25",
    "region": "鼓楼街道",
    "unit_price": 20.3,
    "lat": 40.382332,
    "lng": 116.841551
  },
  {
    "title": "整租·花园小区 3室2厅 南/北",
    "community": "花园小区",
    "area": "136.00",
    "rooms": "3室2厅",
    "direction": "南/北",
    "floor": "",
    "price": "2500",
    "tags": "",
    "source": "",
    "url": "https://bj.lianjia.com/zufang/BJ2096207534648983552.html",
    "rent_type": "整租",
    "location": "密云区-鼓楼街道-花园小区",
    "scraped_at": "2026-05-02 23:21:25",
    "region": "鼓楼街道",
    "unit_price": 18.4,
    "lat": 40.373317,
    "lng": 116.85012
  },
  {
    "title": "整租·沿湖小区 3室2厅 南/北",
    "community": "沿湖小区",
    "area": "104.96",
    "rooms": "3室2厅",
    "direction": "南/北",
    "floor": "",
    "price": "1900",
    "tags": "",
    "source": "",
    "url": "https://bj.lianjia.com/zufang/BJ2077629973933326336.html",
    "rent_type": "整租",
    "location": "密云区-鼓楼街道-沿湖小区",
    "scraped_at": "2026-05-02 23:21:25",
    "region": "鼓楼街道",
    "unit_price": 18.1,
    "lat": 40.382332,
    "lng": 116.841551
  },
  {
    "title": "整租·长安小区 2室1厅 北",
    "community": "长安小区",
    "area": "64.00",
    "rooms": "2室1厅",
    "direction": "北",
    "floor": "",
    "price": "1700",
    "tags": "",
    "source": "",
    "url": "https://bj.lianjia.com/zufang/BJ2047599394672345088.html",
    "rent_type": "整租",
    "location": "密云区-鼓楼街道-长安小区",
    "scraped_at": "2026-05-02 23:21:25",
    "region": "鼓楼街道",
    "unit_price": 26.6,
    "lat": 40.37194,
    "lng": 116.836889
  },
  {
    "title": "整租·车站路小区 2室1厅 复式 东南",
    "community": "车站路小区",
    "area": "33.77",
    "rooms": "2室1厅",
    "direction": "",
    "floor": "",
    "price": "1100",
    "tags": "",
    "source": "",
    "url": "https://bj.lianjia.com/zufang/BJ2161074568897232896.html",
    "rent_type": "整租",
    "location": "密云区-鼓楼街道-车站路小区",
    "scraped_at": "2026-05-02 23:21:25",
    "region": "鼓楼街道",
    "unit_price": 32.6,
    "lat": 40.386446,
    "lng": 116.849578
  },
  {
    "title": "整租·檀城西区 3室1厅 南/北",
    "community": "檀城西区",
    "area": "122.28",
    "rooms": "3室1厅",
    "direction": "南/北",
    "floor": "",
    "price": "5000",
    "tags": "",
    "source": "",
    "url": "https://bj.lianjia.com/zufang/BJ1980956613623676928.html",
    "rent_type": "整租",
    "location": "密云区-鼓楼街道-檀城西区",
    "scraped_at": "2026-05-02 23:21:53",
    "region": "鼓楼街道",
    "unit_price": 40.9,
    "lat": 40.364456,
    "lng": 116.844248
  }
]