[
  {
    "title": "整租·芳源里 2室1厅 南/北",
    "community": "芳源里",
    "area": "100.69",
    "rooms": "2室1厅",
    "direction": "南/北",
    "floor": "",
    "price": "4200",
    "tags": "",
    "source": "",
    "url": "https://bj.lianjia.com/zufang/BJ2145908601565216768.html",
    "rent_type": "整租",
    "location": "大兴区-旧宫-芳源里",
    "scraped_at": "2026-05-02 22:06:21",
    "region": "jiugong1",
    "unit_price": 41.7,
    "lat": 39.785126,
    "lng": 116.411068
  },
  {
    "title": "整租·宣颐家园 3室1厅 南/北",
    "community": "宣颐家园",
    "area": "125.47",
    "rooms": "3室1厅",
    "direction": "南/北",
    "floor": "",
    "price": "6400",
    "tags": "",
    "source": "",
    "url": "https://bj.lianjia.com/zufang/BJ2147639145541926912.html",
    "rent_type": "整租",
    "location": "大兴区-旧宫-宣颐家园",
    "scraped_at": "2026-05-02 22:07:25",
    "region": "jiugong1",
    "unit_price": 51.0,
    "lat": 39.809038,
    "lng": 116.449302
  },
  {
    "title": "整租·紫郡府 3室2厅 南/北",
    "community": "紫郡府",
    "area": "128.53",
    "rooms": "3室2厅",
    "direction": "南/北",
    "floor": "",
    "price": "8000",
    "tags": "",
    "source": "",
    "url": "https://bj.lianjia.com/zufang/BJ2113148620294324224.html",
    "rent_type": "整租",
    "location": "大兴区-旧宫-紫郡府",
    "scraped_at": "2026-05-02 22:06:39",
    "region": "jiugong1",
    "unit_price": 62.2,
    "lat": 39.801835,
    "lng": 116.450863
  },
  {
    "title": "整租·京能丨电建·洺悦湾 3室1厅 南/北",
    "community": "京能丨电建·洺悦湾",
    "area": "89.00",
    "rooms": "3室1厅",
    "direction": "南/北",
    "floor": "",
    "price": "6600",
    "tags": "",
    "source": "",
    "url": "https://bj.lianjia.com/zufang/BJ2160945627901460480.html",
    "rent_type": "整租",
    "location": "大兴区-旧宫-京能丨电建",
    "scraped_at": "2026-05-02 22:06:43",
    "region": "jiugong1",
    "unit_price": 74.2,
    "lat": 39.779416,
    "lng": 116.423988
  },
  {
    "title": "整租·芳源里 3室1厅 南/北",
    "community": "芳源里",
    "area": "115.52",
    "rooms": "3室1厅",
    "direction": "南/北",
    "floor": "",
    "price": "5300",
    "tags": "",
    "source": "",
    "url": "https://bj.lianjia.com/zufang/BJ2147628860441624576.html",
    "rent_type": "整租",
    "location": "大兴区-旧宫-芳源里",
    "scraped_at": "2026-05-02 22:07:25",
    "region": "jiugong1",
    "unit_price": 45.9,
    "lat": 39.785126,
    "lng": 116.411068
  },
  {
    "title": "独栋·安客城市青年家 五福堂南小街店 舒适开间 开间",
    "community": "安客城市青年家 五福堂南小街店 舒适开间 开间",
    "area": "25.00",
    "rooms": "",
    "direction": "",
    "floor": "",
    "price": "2200",
    "tags": "",
    "source": "",
    "url": "https://bj.lianjia.com/apartment/107584.html",
    "rent_type": "独栋",
    "location": "",
    "scraped_at": "2026-05-02 22:06:21",
    "region": "jiugong1",
    "unit_price": 88.0,
    "lat": 39.994587,
    "lng": 116.462266
  },
  {
    "title": "整租·中冶德贤公馆 4室2厅 南/北",
    "community": "中冶德贤公馆",
    "area": "178.00",
    "rooms": "4室2厅",
    "direction": "南/北",
    "floor": "",
    "price": "14000",
    "tags": "",
    "source": "",
    "url": "https://bj.lianjia.com/zufang/BJ2150585390455586816.html",
    "rent_type": "整租",
    "location": "大兴区-旧宫-中冶德贤公馆",
    "scraped_at": "2026-05-02 22:06:21",
    "region": "jiugong1",
    "unit_price": 78.7,
    "lat": 39.811134,
    "lng": 116.430799
  },
  {
    "title": "整租·菊源南里 2室1厅 南/北",
    "community": "菊源南里",
    "area": "95.40",
    "rooms": "2室1厅",
    "direction": "南/北",
    "floor": "",
    "price": "3800",
    "tags": "",
    "source": "",
    "url": "https://bj.lianjia.com/zufang/BJ2129495995950563328.html",
    "rent_type": "整租",
    "location": "大兴区-旧宫-菊源南里",
    "scraped_at": "2026-05-02 22:06:21",
    "region": "jiugong1",
    "unit_price": 39.8,
    "lat": 39.786018,
    "lng": 116.420056
  },
  {
    "title": "整租·芳源里 3室2厅 南/北",
    "community": "芳源里",
    "area": "119.00",
    "rooms": "3室2厅",
    "direction": "南/北",
    "floor": "",
    "price": "5800",
    "tags": "",
    "source": "",
    "url": "https://bj.lianjia.com/zufang/BJ2020026545912938496.html",
    "rent_type": "整租",
    "location": "大兴区-旧宫-芳源里",
    "scraped_at": "2026-05-02 22:06:39",
    "region": "jiugong1",
    "unit_price": 48.7,
    "lat": 39.785126,
    "lng": 116.411068
  },
  {
    "title": "整租·朗润园一期 6室2厅 南/北",
    "community": "朗润园一期",
    "area": "153.08",
    "rooms": "6室2厅",
    "direction": "南/北",
    "floor": "",
    "price": "20000",
    "tags": "",
    "source": "",
    "url": "https://bj.lianjia.com/zufang/BJ2126897332812251136.html",
    "rent_type": "整租",
    "location": "大兴区-旧宫-朗润园一期",
    "scraped_at": "2026-05-02 22:06:21",
    "region": "jiugong1",
    "unit_price": 130.7,
    "lat": 39.803122,
    "lng": 116.453961
  },
  {
    "title": "整租·成和园 2室1厅 南/北",
    "community": "成和园",
    "area": "93.81",
    "rooms": "2室1厅",
    "direction": "南/北",
    "floor": "",
    "price": "3820",
    "tags": "",
    "source": "",
    "url": "https://bj.lianjia.com/zufang/BJ2147533404206268416.html",
    "rent_type": "整租",
    "location": "大兴区-旧宫-成和园",
    "scraped_at": "2026-05-02 22:06:21",
    "region": "jiugong1",
    "unit_price": 40.7,
    "lat": 39.81436,
    "lng": 116.42832
  },
  {
    "title": "整租·清和园 2室1厅 南/北",
    "community": "清和园",
    "area": "71.57",
    "rooms": "2室1厅",
    "direction": "南/北",
    "floor": "",
    "price": "3400",
    "tags": "",
    "source": "",
    "url": "https://bj.lianjia.com/zufang/BJ2150271345487773696.html",
    "rent_type": "整租",
    "location": "大兴区-旧宫-清和园",
    "scraped_at": "2026-05-02 22:06:21",
    "region": "jiugong1",
    "unit_price": 47.5,
    "lat": 39.804946,
    "lng": 116.426163
  },
  {
    "title": "整租·紫郡府 3室1厅 南/北",
    "community": "紫郡府",
    "area": "106.50",
    "rooms": "3室1厅",
    "direction": "南/北",
    "floor": "",
    "price": "7800",
    "tags": "",
    "source": "",
    "url": "https://bj.lianjia.com/zufang/BJ2080128637255811072.html",
    "rent_type": "整租",
    "location": "大兴区-旧宫-紫郡府",
    "scraped_at": "2026-05-02 22:06:21",
    "region": "jiugong1",
    "unit_price": 73.2,
    "lat": 39.801835,
    "lng": 116.450863
  },
  {
    "title": "整租·京能丨电建·洺悦湾 3室2厅 南/北",
    "community": "京能丨电建·洺悦湾",
    "area": "89.00",
    "rooms": "3室2厅",
    "direction": "南/北",
    "floor": "",
    "price": "6600",
    "tags": "",
    "source": "",
    "url": "https://bj.lianjia.com/zufang/BJ2146219063477534720.html",
    "rent_type": "整租",
    "location": "大兴区-旧宫-京能丨电建",
    "scraped_at": "2026-05-02 22:06:21",
    "region": "jiugong1",
    "unit_price": 74.2,
    "lat": 39.779416,
    "lng": 116.423988
  },
  {
    "title": "整租·京能丨电建·洺悦湾 3室1厅 南/北",
    "community": "京能丨电建·洺悦湾",
    "area": "89.10",
    "rooms": "3室1厅",
    "direction": "南/北",
    "floor": "",
    "price": "6200",
    "tags": "",
    "source": "",
    "url": "https://bj.lianjia.com/zufang/BJ2146603593086533632.html",
    "rent_type": "整租",
    "location": "大兴区-旧宫-京能丨电建",
    "scraped_at": "2026-05-02 22:07:25",
    "region": "jiugong1",
    "unit_price": 69.6,
    "lat": 39.779416,
    "lng": 116.423988
  },
  {
    "title": "整租·芳源里 2室1厅 南",
    "community": "芳源里",
    "area": "102.70",
    "rooms": "2室1厅",
    "direction": "南",
    "floor": "",
    "price": "4730",
    "tags": "",
    "source": "",
    "url": "https://bj.lianjia.com/zufang/BJ1845244672578945024.html",
    "rent_type": "整租",
    "location": "大兴区-旧宫-芳源里",
    "scraped_at": "2026-05-02 22:06:21",
    "region": "jiugong1",
    "unit_price": 46.1,
    "lat": 39.785126,
    "lng": 116.411068
  },
  {
    "title": "整租·润枫锦尚 2室2厅 东/西/北",
    "community": "润枫锦尚",
    "area": "92.00",
    "rooms": "2室2厅",
    "direction": "东/西/北",
    "floor": "",
    "price": "4600",
    "tags": "",
    "source": "",
    "url": "https://bj.lianjia.com/zufang/BJ2158429063679574016.html",
    "rent_type": "整租",
    "location": "大兴区-旧宫-润枫锦尚",
    "scraped_at": "2026-05-02 22:06:21",
    "region": "jiugong1",
    "unit_price": 50.0,
    "lat": 39.790633,
    "lng": 116.422604
  },
  {
    "title": "整租·润枫锦尚 3室2厅 南/北",
    "community": "润枫锦尚",
    "area": "131.55",
    "rooms": "3室2厅",
    "direction": "南/北",
    "floor": "",
    "price": "6680",
    "tags": "",
    "source": "",
    "url": "https://bj.lianjia.com/zufang/BJ2147972887590469632.html",
    "rent_type": "整租",
    "location": "大兴区-旧宫-润枫锦尚",
    "scraped_at": "2026-05-02 22:06:21",
    "region": "jiugong1",
    "unit_price": 50.8,
    "lat": 39.790633,
    "lng": 116.422604
  },
  {
    "title": "整租·巧克力城 1室1厅 西北",
    "community": "巧克力城",
    "area": "54.76",
    "rooms": "1室1厅",
    "direction": "西北",
    "floor": "",
    "price": "3500",
    "tags": "",
    "source": "",
    "url": "https://bj.lianjia.com/zufang/BJ2156630289562992640.html",
    "rent_type": "整租",
    "location": "大兴区-旧宫-巧克力城",
    "scraped_at": "2026-05-02 22:07:10",
    "region": "jiugong1",
    "unit_price": 63.9,
    "lat": 39.817507,
    "lng": 116.416916
  },
  {
    "title": "整租·有德家苑5号院 1室1厅 南",
    "community": "有德家苑5号院",
    "area": "52.43",
    "rooms": "1室1厅",
    "direction": "南",
    "floor": "",
    "price": "3500",
    "tags": "",
    "source": "",
    "url": "https://bj.lianjia.com/zufang/BJ2158814109183770624.html",
    "rent_type": "整租",
    "location": "大兴区-旧宫-有德家苑",
    "scraped_at": "2026-05-02 22:06:21",
    "region": "jiugong1",
    "unit_price": 66.8,
    "lat": 39.784383,
    "lng": 116.420436
  },
  {
    "title": "整租·有德家苑5号院 1室0厅 南",
    "community": "有德家苑5号院",
    "area": "49.72",
    "rooms": "1室0厅",
    "direction": "南",
    "floor": "",
    "price": "3400",
    "tags": "",
    "source": "",
    "url": "https://bj.lianjia.com/zufang/BJ2149805775873114112.html",
    "rent_type": "整租",
    "location": "大兴区-旧宫-有德家苑",
    "scraped_at": "2026-05-02 22:06:21",
    "region": "jiugong1",
    "unit_price": 68.4,
    "lat": 39.784383,
    "lng": 116.420436
  },
  {
    "title": "整租·云龙家园 2室1厅 南/北",
    "community": "云龙家园",
    "area": "97.15",
    "rooms": "2室1厅",
    "direction": "南/北",
    "floor": "",
    "price": "4200",
    "tags": "",
    "source": "",
    "url": "https://bj.lianjia.com/zufang/BJ1804744797383032832.html",
    "rent_type": "整租",
    "location": "大兴区-旧宫-云龙家园",
    "scraped_at": "2026-05-02 22:06:46",
    "region": "jiugong1",
    "unit_price": 43.2,
    "lat": 39.806539,
    "lng": 116.429054
  },
  {
    "title": "整租·南街福苑 2室1厅 南",
    "community": "南街福苑",
    "area": "75.00",
    "rooms": "2室1厅",
    "direction": "南",
    "floor": "",
    "price": "4600",
    "tags": "",
    "source": "",
    "url": "https://bj.lianjia.com/zufang/BJ2155606724147412992.html",
    "rent_type": "整租",
    "location": "大兴区-旧宫-南街福苑",
    "scraped_at": "2026-05-02 22:06:21",
    "region": "jiugong1",
    "unit_price": 61.3,
    "lat": 39.754246,
    "lng": 116.341188
  },
  {
    "title": "整租·旧宫新苑南区 3室2厅 南/北",
    "community": "旧宫新苑南区",
    "area": "106.91",
    "rooms": "3室2厅",
    "direction": "南/北",
    "floor": "",
    "price": "6000",
    "tags": "",
    "source": "",
    "url": "https://bj.lianjia.com/zufang/BJ2159928244990640128.html",
    "rent_type": "整租",
    "location": "大兴区-旧宫-旧宫新苑南区",
    "scraped_at": "2026-05-02 22:06:21",
    "region": "jiugong1",
    "unit_price": 56.1,
    "lat": 39.797366,
    "lng": 116.448448
  },
  {
    "title": "整租·美利新世界 3室2厅 南/北",
    "community": "美利新世界",
    "area": "150.63",
    "rooms": "3室2厅",
    "direction": "南/北",
    "floor": "",
    "price": "6000",
    "tags": "",
    "source": "",
    "url": "https://bj.lianjia.com/zufang/BJ1824712339530711040.html",
    "rent_type": "整租",
    "location": "大兴区-旧宫-美利新世界",
    "scraped_at": "2026-05-02 22:07:10",
    "region": "jiugong1",
    "unit_price": 39.8,
    "lat": 39.809884,
    "lng": 116.442694
  },
  {
    "title": "整租·中冶德贤公馆 4室2厅 南/北",
    "community": "中冶德贤公馆",
    "area": "175.92",
    "rooms": "4室2厅",
    "direction": "南/北",
    "floor": "",
    "price": "15000",
    "tags": "",
    "source": "",
    "url": "https://bj.lianjia.com/zufang/BJ2140841048929206272.html",
    "rent_type": "整租",
    "location": "大兴区-旧宫-中冶德贤公馆",
    "scraped_at": "2026-05-02 22:06:21",
    "region": "jiugong1",
    "unit_price": 85.3,
    "lat": 39.811134,
    "lng": 116.430799
  },
  {
    "title": "整租·巧克力城 1室1厅 西北",
    "community": "巧克力城",
    "area": "50.69",
    "rooms": "1室1厅",
    "direction": "西北",
    "floor": "",
    "price": "4160",
    "tags": "",
    "source": "",
    "url": "https://bj.lianjia.com/zufang/BJ1795064221961027584.html",
    "rent_type": "整租",
    "location": "大兴区-旧宫-巧克力城",
    "scraped_at": "2026-05-02 22:06:21",
    "region": "jiugong1",
    "unit_price": 82.1,
    "lat": 39.817507,
    "lng": 116.416916
  },
  {
    "title": "整租·南街福苑 2室1厅 南",
    "community": "南街福苑",
    "area": "85.32",
    "rooms": "2室1厅",
    "direction": "南",
    "floor": "",
    "price": "4200",
    "tags": "",
    "source": "",
    "url": "https://bj.lianjia.com/zufang/BJ2025503434764976128.html",
    "rent_type": "整租",
    "location": "大兴区-旧宫-南街福苑",
    "scraped_at": "2026-05-02 22:07:21",
    "region": "jiugong1",
    "unit_price": 49.2,
    "lat": 39.754246,
    "lng": 116.341188
  },
  {
    "title": "整租·宣颐家园 7室2厅 南/西/北",
    "community": "宣颐家园",
    "area": "257.47",
    "rooms": "7室2厅",
    "direction": "南/西/北",
    "floor": "",
    "price": "18000",
    "tags": "",
    "source": "",
    "url": "https://bj.lianjia.com/zufang/BJ2115750050171715584.html",
    "rent_type": "整租",
    "location": "大兴区-旧宫-宣颐家园",
    "scraped_at": "2026-05-02 22:06:21",
    "region": "jiugong1",
    "unit_price": 69.9,
    "lat": 39.809038,
    "lng": 116.449302
  },
  {
    "title": "整租·亦庄北岸 1室1厅 东",
    "community": "亦庄北岸",
    "area": "40.13",
    "rooms": "1室1厅",
    "direction": "东",
    "floor": "",
    "price": "3260",
    "tags": "",
    "source": "",
    "url": "https://bj.lianjia.com/zufang/BJ1798588146846269440.html",
    "rent_type": "整租",
    "location": "大兴区-旧宫-亦庄北岸",
    "scraped_at": "2026-05-02 22:06:21",
    "region": "jiugong1",
    "unit_price": 81.2,
    "lat": 39.797539,
    "lng": 116.457319
  },
  {
    "title": "整租·清欣园甲区 3室1厅 南/北",
    "community": "清欣园甲区",
    "area": "136.00",
    "rooms": "3室1厅",
    "direction": "南/北",
    "floor": "",
    "price": "6500",
    "tags": "",
    "source": "",
    "url": "https://bj.lianjia.com/zufang/BJ2155167695618703360.html",
    "rent_type": "整租",
    "location": "大兴区-旧宫-清欣园甲区",
    "scraped_at": "2026-05-02 22:06:25",
    "region": "jiugong1",
    "unit_price": 47.8,
    "lat": 39.803611,
    "lng": 116.435414
  },
  {
    "title": "整租·旧宫新苑南区 2室1厅 南/北",
    "community": "旧宫新苑南区",
    "area": "84.29",
    "rooms": "2室1厅",
    "direction": "南/北",
    "floor": "",
    "price": "4667",
    "tags": "",
    "source": "",
    "url": "https://bj.lianjia.com/zufang/BJ2091459773571530752.html",
    "rent_type": "整租",
    "location": "大兴区-旧宫-旧宫新苑南区",
    "scraped_at": "2026-05-02 22:07:10",
    "region": "jiugong1",
    "unit_price": 55.4,
    "lat": 39.797366,
    "lng": 116.448448
  },
  {
    "title": "整租·紫郡府 3室2厅 南/北",
    "community": "紫郡府",
    "area": "127.94",
    "rooms": "3室2厅",
    "direction": "南/北",
    "floor": "",
    "price": "8800",
    "tags": "",
    "source": "",
    "url": "https://bj.lianjia.com/zufang/BJ2147980106738434048.html",
    "rent_type": "整租",
    "location": "大兴区-旧宫-紫郡府",
    "scraped_at": "2026-05-02 22:06:25",
    "region": "jiugong1",
    "unit_price": 68.8,
    "lat": 39.801835,
    "lng": 116.450863
  },
  {
    "title": "整租·京能丨电建·洺悦湾 3室1厅 南/北",
    "community": "京能丨电建·洺悦湾",
    "area": "89.48",
    "rooms": "3室1厅",
    "direction": "南/北",
    "floor": "",
    "price": "7000",
    "tags": "",
    "source": "",
    "url": "https://bj.lianjia.com/zufang/BJ2146507964683386880.html",
    "rent_type": "整租",
    "location": "大兴区-旧宫-京能丨电建",
    "scraped_at": "2026-05-02 22:06:25",
    "region": "jiugong1",
    "unit_price": 78.2,
    "lat": 39.779416,
    "lng": 116.423988
  },
  {
    "title": "整租·旧宫新苑南区 2室1厅 南/北",
    "community": "旧宫新苑南区",
    "area": "84.22",
    "rooms": "2室1厅",
    "direction": "南/北",
    "floor": "",
    "price": "4600",
    "tags": "",
    "source": "",
    "url": "https://bj.lianjia.com/zufang/BJ1980189615398584320.html",
    "rent_type": "整租",
    "location": "大兴区-旧宫-旧宫新苑南区",
    "scraped_at": "2026-05-02 22:06:46",
    "region": "jiugong1",
    "unit_price": 54.6,
    "lat": 39.797366,
    "lng": 116.448448
  },
  {
    "title": "整租·旧宫新苑南区 2室1厅 南",
    "community": "旧宫新苑南区",
    "area": "76.79",
    "rooms": "2室1厅",
    "direction": "南",
    "floor": "",
    "price": "5789",
    "tags": "",
    "source": "",
    "url": "https://bj.lianjia.com/zufang/BJ2158189042380832768.html",
    "rent_type": "整租",
    "location": "大兴区-旧宫-旧宫新苑南区",
    "scraped_at": "2026-05-02 22:06:25",
    "region": "jiugong1",
    "unit_price": 75.4,
    "lat": 39.797366,
    "lng": 116.448448
  },
  {
    "title": "整租·紫郡府 3室1厅 南/北",
    "community": "紫郡府",
    "area": "128.24",
    "rooms": "3室1厅",
    "direction": "南/北",
    "floor": "",
    "price": "9500",
    "tags": "",
    "source": "",
    "url": "https://bj.lianjia.com/zufang/BJ2147542747941175296.html",
    "rent_type": "整租",
    "location": "大兴区-旧宫-紫郡府",
    "scraped_at": "2026-05-02 22:06:25",
    "region": "jiugong1",
    "unit_price": 74.1,
    "lat": 39.801835,
    "lng": 116.450863
  },
  {
    "title": "整租·清欣园甲区 2室1厅 南/北",
    "community": "清欣园甲区",
    "area": "83.11",
    "rooms": "2室1厅",
    "direction": "南/北",
    "floor": "",
    "price": "4200",
    "tags": "",
    "source": "",
    "url": "https://bj.lianjia.com/zufang/BJ2152622484690567168.html",
    "rent_type": "整租",
    "location": "大兴区-旧宫-清欣园甲区",
    "scraped_at": "2026-05-02 22:06:25",
    "region": "jiugong1",
    "unit_price": 50.5,
    "lat": 39.803611,
    "lng": 116.435414
  },
  {
    "title": "整租·亦庄北岸 1室1厅 东北",
    "community": "亦庄北岸",
    "area": "63.54",
    "rooms": "1室1厅",
    "direction": "东北",
    "floor": "",
    "price": "3500",
    "tags": "",
    "source": "",
    "url": "https://bj.lianjia.com/zufang/BJ1892471984105717760.html",
    "rent_type": "整租",
    "location": "大兴区-旧宫-亦庄北岸",
    "scraped_at": "2026-05-02 22:06:43",
    "region": "jiugong1",
    "unit_price": 55.1,
    "lat": 39.797539,
    "lng": 116.457319
  },
  {
    "title": "整租·有德家苑2号院 2室1厅 南/北",
    "community": "有德家苑2号院",
    "area": "82.00",
    "rooms": "2室1厅",
    "direction": "南/北",
    "floor": "",
    "price": "4200",
    "tags": "",
    "source": "",
    "url": "https://bj.lianjia.com/zufang/BJ2152744739403726848.html",
    "rent_type": "整租",
    "location": "大兴区-旧宫-有德家苑",
    "scraped_at": "2026-05-02 22:06:25",
    "region": "jiugong1",
    "unit_price": 51.2,
    "lat": 39.784383,
    "lng": 116.420436
  },
  {
    "title": "整租·京能丨电建·洺悦湾 3室1厅 南",
    "community": "京能丨电建·洺悦湾",
    "area": "89.00",
    "rooms": "3室1厅",
    "direction": "南",
    "floor": "",
    "price": "6600",
    "tags": "",
    "source": "",
    "url": "https://bj.lianjia.com/zufang/BJ2142997072167567360.html",
    "rent_type": "整租",
    "location": "大兴区-旧宫-京能丨电建",
    "scraped_at": "2026-05-02 22:06:25",
    "region": "jiugong1",
    "unit_price": 74.2,
    "lat": 39.779416,
    "lng": 116.423988
  },
  {
    "title": "整租·芳源里 3室2厅 南/北",
    "community": "芳源里",
    "area": "123.65",
    "rooms": "3室2厅",
    "direction": "南/北",
    "floor": "",
    "price": "5900",
    "tags": "",
    "source": "",
    "url": "https://bj.lianjia.com/zufang/BJ1854052707199877120.html",
    "rent_type": "整租",
    "location": "大兴区-旧宫-芳源里",
    "scraped_at": "2026-05-02 22:06:46",
    "region": "jiugong1",
    "unit_price": 47.7,
    "lat": 39.785126,
    "lng": 116.411068
  },
  {
    "title": "整租·育龙家园 11室6厅 东/南/西/北",
    "community": "育龙家园",
    "area": "707.00",
    "rooms": "11室6厅",
    "direction": "东/南/西/北",
    "floor": "",
    "price": "55000",
    "tags": "",
    "source": "",
    "url": "https://bj.lianjia.com/zufang/BJ2145448786812469248.html",
    "rent_type": "整租",
    "location": "大兴区-旧宫-育龙家园",
    "scraped_at": "2026-05-02 22:06:25",
    "region": "jiugong1",
    "unit_price": 77.8,
    "lat": 39.800794,
    "lng": 116.440574
  },
  {
    "title": "整租·南街福苑 1室0厅 南",
    "community": "南街福苑",
    "area": "40.00",
    "rooms": "1室0厅",
    "direction": "南",
    "floor": "",
    "price": "3300",
    "tags": "",
    "source": "",
    "url": "https://bj.lianjia.com/zufang/BJ2160978516659666944.html",
    "rent_type": "整租",
    "location": "大兴区-旧宫-南街福苑",
    "scraped_at": "2026-05-02 22:06:25",
    "region": "jiugong1",
    "unit_price": 82.5,
    "lat": 39.754246,
    "lng": 116.341188
  },
  {
    "title": "整租·佳和园新区 2室1厅 南/北",
    "community": "佳和园新区",
    "area": "106.96",
    "rooms": "2室1厅",
    "direction": "南/北",
    "floor": "",
    "price": "4500",
    "tags": "",
    "source": "",
    "url": "https://bj.lianjia.com/zufang/BJ2023677258807377920.html",
    "rent_type": "整租",
    "location": "大兴区-旧宫-佳和园新区",
    "scraped_at": "2026-05-02 22:06:25",
    "region": "jiugong1",
    "unit_price": 42.1,
    "lat": 39.804546,
    "lng": 116.440058
  },
  {
    "title": "整租·集贤雅苑北区 1室1厅 南",
    "community": "集贤雅苑北区",
    "area": "55.50",
    "rooms": "1室1厅",
    "direction": "南",
    "floor": "",
    "price": "4160",
    "tags": "",
    "source": "",
    "url": "https://bj.lianjia.com/zufang/BJ1849770292130349056.html",
    "rent_type": "整租",
    "location": "大兴区-旧宫-集贤雅苑北区",
    "scraped_at": "2026-05-02 22:06:25",
    "region": "jiugong1",
    "unit_price": 75.0,
    "lat": 39.803083,
    "lng": 116.423571
  },
  {
    "title": "整租·润枫锦尚 3室1厅 南/北",
    "community": "润枫锦尚",
    "area": "90.00",
    "rooms": "3室1厅",
    "direction": "南/北",
    "floor": "",
    "price": "4300",
    "tags": "",
    "source": "",
    "url": "https://bj.lianjia.com/zufang/BJ2149494326856515584.html",
    "rent_type": "整租",
    "location": "大兴区-旧宫-润枫锦尚",
    "scraped_at": "2026-05-02 22:06:25",
    "region": "jiugong1",
    "unit_price": 47.8,
    "lat": 39.790633,
    "lng": 116.422604
  },
  {
    "title": "整租·育龙家园 3室2厅 南/北",
    "community": "育龙家园",
    "area": "117.00",
    "rooms": "3室2厅",
    "direction": "南/北",
    "floor": "",
    "price": "6500",
    "tags": "",
    "source": "",
    "url": "https://bj.lianjia.com/zufang/BJ2139375746559246336.html",
    "rent_type": "整租",
    "location": "大兴区-旧宫-育龙家园",
    "scraped_at": "2026-05-02 22:06:43",
    "region": "jiugong1",
    "unit_price": 55.6,
    "lat": 39.800794,
    "lng": 116.440574
  },
  {
    "title": "整租·中冶德贤公馆公寓 3房间 西北",
    "community": "中冶德贤公馆公寓 3房间 西北",
    "area": "86.00",
    "rooms": "",
    "direction": "",
    "floor": "",
    "price": "5500",
    "tags": "",
    "source": "",
    "url": "https://bj.lianjia.com/zufang/BJ2038259372387205120.html",
    "rent_type": "整租",
    "location": "大兴区-旧宫-中冶德贤公馆公寓",
    "scraped_at": "2026-05-02 22:07:21",
    "region": "jiugong1",
    "unit_price": 64.0,
    "lat": 39.811134,
    "lng": 116.430799
  },
  {
    "title": "整租·有德家苑5号院 2室1厅 南/北",
    "community": "有德家苑5号院",
    "area": "65.00",
    "rooms": "2室1厅",
    "direction": "南/北",
    "floor": "",
    "price": "3800",
    "tags": "",
    "source": "",
    "url": "https://bj.lianjia.com/zufang/BJ2158819559782481920.html",
    "rent_type": "整租",
    "location": "大兴区-旧宫-有德家苑",
    "scraped_at": "2026-05-02 22:06:25",
    "region": "jiugong1",
    "unit_price": 58.5,
    "lat": 39.784383,
    "lng": 116.420436
  },
  {
    "title": "整租·紫郡府 3室1厅 南/北",
    "community": "紫郡府",
    "area": "106.00",
    "rooms": "3室1厅",
    "direction": "南/北",
    "floor": "",
    "price": "8800",
    "tags": "",
    "source": "",
    "url": "https://bj.lianjia.com/zufang/BJ2075795910574473216.html",
    "rent_type": "整租",
    "location": "大兴区-旧宫-紫郡府",
    "scraped_at": "2026-05-02 22:06:25",
    "region": "jiugong1",
    "unit_price": 83.0,
    "lat": 39.801835,
    "lng": 116.450863
  },
  {
    "title": "整租·云龙家园 3室1厅 东/南/北",
    "community": "云龙家园",
    "area": "103.64",
    "rooms": "3室1厅",
    "direction": "东/南/北",
    "floor": "",
    "price": "4200",
    "tags": "",
    "source": "",
    "url": "https://bj.lianjia.com/zufang/BJ1932733378369421312.html",
    "rent_type": "整租",
    "location": "大兴区-旧宫-云龙家园",
    "scraped_at": "2026-05-02 22:06:46",
    "region": "jiugong1",
    "unit_price": 40.5,
    "lat": 39.806539,
    "lng": 116.429054
  },
  {
    "title": "整租·宣颐家园 1室1厅 南",
    "community": "宣颐家园",
    "area": "63.54",
    "rooms": "1室1厅",
    "direction": "南",
    "floor": "",
    "price": "4200",
    "tags": "",
    "source": "",
    "url": "https://bj.lianjia.com/zufang/BJ2158543950812545024.html",
    "rent_type": "整租",
    "location": "大兴区-旧宫-宣颐家园",
    "scraped_at": "2026-05-02 22:06:39",
    "region": "jiugong1",
    "unit_price": 66.1,
    "lat": 39.809038,
    "lng": 116.449302
  },
  {
    "title": "整租·亦庄北岸 1室0厅 东",
    "community": "亦庄北岸",
    "area": "38.68",
    "rooms": "1室0厅",
    "direction": "东",
    "floor": "",
    "price": "3000",
    "tags": "",
    "source": "",
    "url": "https://bj.lianjia.com/zufang/BJ2144667739535441920.html",
    "rent_type": "整租",
    "location": "大兴区-旧宫-亦庄北岸",
    "scraped_at": "2026-05-02 22:06:25",
    "region": "jiugong1",
    "unit_price": 77.6,
    "lat": 39.797539,
    "lng": 116.457319
  },
  {
    "title": "整租·南街福苑 2室1厅 南/北",
    "community": "南街福苑",
    "area": "88.00",
    "rooms": "2室1厅",
    "direction": "南/北",
    "floor": "",
    "price": "4300",
    "tags": "",
    "source": "",
    "url": "https://bj.lianjia.com/zufang/BJ2032417315710042112.html",
    "rent_type": "整租",
    "location": "大兴区-旧宫-南街福苑",
    "scraped_at": "2026-05-02 22:07:21",
    "region": "jiugong1",
    "unit_price": 48.9,
    "lat": 39.754246,
    "lng": 116.341188
  },
  {
    "title": "整租·紫郡府 3室2厅 东/南/北",
    "community": "紫郡府",
    "area": "129.00",
    "rooms": "3室2厅",
    "direction": "东/南/北",
    "floor": "",
    "price": "8500",
    "tags": "",
    "source": "",
    "url": "https://bj.lianjia.com/zufang/BJ2087420798603100160.html",
    "rent_type": "整租",
    "location": "大兴区-旧宫-紫郡府",
    "scraped_at": "2026-05-02 22:06:25",
    "region": "jiugong1",
    "unit_price": 65.9,
    "lat": 39.801835,
    "lng": 116.450863
  },
  {
    "title": "整租·清和园 1室1厅 南",
    "community": "清和园",
    "area": "52.52",
    "rooms": "1室1厅",
    "direction": "南",
    "floor": "",
    "price": "3990",
    "tags": "",
    "source": "",
    "url": "https://bj.lianjia.com/zufang/BJ1884952868146905088.html",
    "rent_type": "整租",
    "location": "大兴区-旧宫-清和园",
    "scraped_at": "2026-05-02 22:06:25",
    "region": "jiugong1",
    "unit_price": 76.0,
    "lat": 39.804946,
    "lng": 116.426163
  },
  {
    "title": "整租·首开保利熙悦诚郡 4室2厅 南/北",
    "community": "首开保利熙悦诚郡",
    "area": "144.00",
    "rooms": "4室2厅",
    "direction": "南/北",
    "floor": "",
    "price": "10080",
    "tags": "",
    "source": "",
    "url": "https://bj.lianjia.com/zufang/BJ2031588029067427840.html",
    "rent_type": "整租",
    "location": "大兴区-旧宫-首开保利熙悦诚郡",
    "scraped_at": "2026-05-02 22:07:21",
    "region": "jiugong1",
    "unit_price": 70.0,
    "lat": 39.78489,
    "lng": 116.4276
  },
  {
    "title": "整租·京能丨电建·洺悦湾 3室1厅 南/北",
    "community": "京能丨电建·洺悦湾",
    "area": "85.82",
    "rooms": "3室1厅",
    "direction": "南/北",
    "floor": "",
    "price": "6500",
    "tags": "",
    "source": "",
    "url": "https://bj.lianjia.com/zufang/BJ2141799773642948608.html",
    "rent_type": "整租",
    "location": "大兴区-旧宫-京能丨电建",
    "scraped_at": "2026-05-02 22:06:25",
    "region": "jiugong1",
    "unit_price": 75.7,
    "lat": 39.779416,
    "lng": 116.423988
  },
  {
    "title": "整租·清逸园 1室1厅 南",
    "community": "清逸园",
    "area": "56.92",
    "rooms": "1室1厅",
    "direction": "南",
    "floor": "",
    "price": "3830",
    "tags": "",
    "source": "",
    "url": "https://bj.lianjia.com/zufang/BJ1929287596022693888.html",
    "rent_type": "整租",
    "location": "大兴区-旧宫-清逸园",
    "scraped_at": "2026-05-02 22:06:25",
    "region": "jiugong1",
    "unit_price": 67.3,
    "lat": 39.803586,
    "lng": 116.442618
  },
  {
    "title": "整租·旧宫新苑南区 2室1厅 南/北",
    "community": "旧宫新苑南区",
    "area": "84.00",
    "rooms": "2室1厅",
    "direction": "南/北",
    "floor": "",
    "price": "4800",
    "tags": "",
    "source": "",
    "url": "https://bj.lianjia.com/zufang/BJ2159865728814022656.html",
    "rent_type": "整租",
    "location": "大兴区-旧宫-旧宫新苑南区",
    "scraped_at": "2026-05-02 22:06:28",
    "region": "jiugong1",
    "unit_price": 57.1,
    "lat": 39.797366,
    "lng": 116.448448
  },
  {
    "title": "整租·富力盛悦居 3室1厅 南/北",
    "community": "富力盛悦居",
    "area": "98.00",
    "rooms": "3室1厅",
    "direction": "南/北",
    "floor": "",
    "price": "8500",
    "tags": "",
    "source": "",
    "url": "https://bj.lianjia.com/zufang/BJ2158954389128085504.html",
    "rent_type": "整租",
    "location": "大兴区-旧宫-富力盛悦居",
    "scraped_at": "2026-05-02 22:06:39",
    "region": "jiugong1",
    "unit_price": 86.7,
    "lat": 39.804886,
    "lng": 116.449328
  },
  {
    "title": "整租·润龙家园 1室1厅 西/北",
    "community": "润龙家园",
    "area": "51.00",
    "rooms": "1室1厅",
    "direction": "西/北",
    "floor": "",
    "price": "3650",
    "tags": "",
    "source": "",
    "url": "https://bj.lianjia.com/zufang/BJ2156815069357277184.html",
    "rent_type": "整租",
    "location": "大兴区-旧宫-润龙家园",
    "scraped_at": "2026-05-02 22:06:28",
    "region": "jiugong1",
    "unit_price": 71.6,
    "lat": 39.810916,
    "lng": 116.439708
  },
  {
    "title": "整租·京能丨电建·洺悦湾 4室2厅 南/北",
    "community": "京能丨电建·洺悦湾",
    "area": "145.00",
    "rooms": "4室2厅",
    "direction": "南/北",
    "floor": "",
    "price": "7800",
    "tags": "",
    "source": "",
    "url": "https://bj.lianjia.com/zufang/BJ2159584937328508928.html",
    "rent_type": "整租",
    "location": "大兴区-旧宫-京能丨电建",
    "scraped_at": "2026-05-02 22:07:10",
    "region": "jiugong1",
    "unit_price": 53.8,
    "lat": 39.779416,
    "lng": 116.423988
  },
  {
    "title": "整租·清逸园 1室1厅 南",
    "community": "清逸园",
    "area": "50.77",
    "rooms": "1室1厅",
    "direction": "南",
    "floor": "",
    "price": "3960",
    "tags": "",
    "source": "",
    "url": "https://bj.lianjia.com/zufang/BJ1902031056731635712.html",
    "rent_type": "整租",
    "location": "大兴区-旧宫-清逸园",
    "scraped_at": "2026-05-02 22:06:28",
    "region": "jiugong1",
    "unit_price": 78.0,
    "lat": 39.803586,
    "lng": 116.442618
  },
  {
    "title": "整租·菊源南里 2室1厅 南/北",
    "community": "菊源南里",
    "area": "86.06",
    "rooms": "2室1厅",
    "direction": "南/北",
    "floor": "",
    "price": "4200",
    "tags": "",
    "source": "",
    "url": "https://bj.lianjia.com/zufang/BJ2152722052623106048.html",
    "rent_type": "整租",
    "location": "大兴区-旧宫-菊源南里",
    "scraped_at": "2026-05-02 22:06:28",
    "region": "jiugong1",
    "unit_price": 48.8,
    "lat": 39.786018,
    "lng": 116.420056
  },
  {
    "title": "整租·集贤雅苑北区 1室0厅 南",
    "community": "集贤雅苑北区",
    "area": "39.90",
    "rooms": "1室0厅",
    "direction": "南",
    "floor": "",
    "price": "3300",
    "tags": "",
    "source": "",
    "url": "https://bj.lianjia.com/zufang/BJ2155528408027627520.html",
    "rent_type": "整租",
    "location": "大兴区-旧宫-集贤雅苑北区",
    "scraped_at": "2026-05-02 22:06:28",
    "region": "jiugong1",
    "unit_price": 82.7,
    "lat": 39.803083,
    "lng": 116.423571
  },
  {
    "title": "整租·育龙家园 2室2厅 南/北",
    "community": "育龙家园",
    "area": "95.38",
    "rooms": "2室2厅",
    "direction": "南/北",
    "floor": "",
    "price": "4800",
    "tags": "",
    "source": "",
    "url": "https://bj.lianjia.com/zufang/BJ2073246321208197120.html",
    "rent_type": "整租",
    "location": "大兴区-旧宫-育龙家园",
    "scraped_at": "2026-05-02 22:07:21",
    "region": "jiugong1",
    "unit_price": 50.3,
    "lat": 39.800794,
    "lng": 116.440574
  },
  {
    "title": "整租·菊源南里 2室1厅 南",
    "community": "菊源南里",
    "area": "85.58",
    "rooms": "2室1厅",
    "direction": "南",
    "floor": "",
    "price": "4000",
    "tags": "",
    "source": "",
    "url": "https://bj.lianjia.com/zufang/BJ2137742983196311552.html",
    "rent_type": "整租",
    "location": "大兴区-旧宫-菊源南里",
    "scraped_at": "2026-05-02 22:06:28",
    "region": "jiugong1",
    "unit_price": 46.7,
    "lat": 39.786018,
    "lng": 116.420056
  },
  {
    "title": "整租·润枫锦尚 3室1厅 东/西",
    "community": "润枫锦尚",
    "area": "90.00",
    "rooms": "3室1厅",
    "direction": "东/西",
    "floor": "",
    "price": "4300",
    "tags": "",
    "source": "",
    "url": "https://bj.lianjia.com/zufang/BJ2100167888919855104.html",
    "rent_type": "整租",
    "location": "大兴区-旧宫-润枫锦尚",
    "scraped_at": "2026-05-02 22:06:28",
    "region": "jiugong1",
    "unit_price": 47.8,
    "lat": 39.790633,
    "lng": 116.422604
  },
  {
    "title": "整租·清逸园 3室1厅 南/北",
    "community": "清逸园",
    "area": "73.00",
    "rooms": "3室1厅",
    "direction": "南/北",
    "floor": "",
    "price": "4400",
    "tags": "",
    "source": "",
    "url": "https://bj.lianjia.com/zufang/BJ2001856875724800000.html",
    "rent_type": "整租",
    "location": "大兴区-旧宫-清逸园",
    "scraped_at": "2026-05-02 22:06:46",
    "region": "jiugong1",
    "unit_price": 60.3,
    "lat": 39.803586,
    "lng": 116.442618
  },
  {
    "title": "整租·南街福苑 2室1厅 南",
    "community": "南街福苑",
    "area": "75.00",
    "rooms": "2室1厅",
    "direction": "南",
    "floor": "",
    "price": "4200",
    "tags": "",
    "source": "",
    "url": "https://bj.lianjia.com/zufang/BJ2159215528281899008.html",
    "rent_type": "整租",
    "location": "大兴区-旧宫-南街福苑",
    "scraped_at": "2026-05-02 22:06:28",
    "region": "jiugong1",
    "unit_price": 56.0,
    "lat": 39.754246,
    "lng": 116.341188
  },
  {
    "title": "整租·富力盛悦居 6房间 西南",
    "community": "富力盛悦居 6房间 西南",
    "area": "168.00",
    "rooms": "",
    "direction": "",
    "floor": "",
    "price": "13000",
    "tags": "",
    "source": "",
    "url": "https://bj.lianjia.com/zufang/BJ2145800241150951424.html",
    "rent_type": "整租",
    "location": "大兴区-旧宫-富力盛悦居",
    "scraped_at": "2026-05-02 22:06:28",
    "region": "jiugong1",
    "unit_price": 77.4,
    "lat": 39.804886,
    "lng": 116.449328
  },
  {
    "title": "整租·广安康璟家园 1室1厅 南",
    "community": "广安康璟家园",
    "area": "68.04",
    "rooms": "1室1厅",
    "direction": "南",
    "floor": "",
    "price": "4000",
    "tags": "",
    "source": "",
    "url": "https://bj.lianjia.com/zufang/BJ2007701121652490240.html",
    "rent_type": "整租",
    "location": "大兴区-旧宫-广安康璟家园",
    "scraped_at": "2026-05-02 22:06:46",
    "region": "jiugong1",
    "unit_price": 58.8,
    "lat": 39.77919,
    "lng": 116.41412
  },
  {
    "title": "整租·清逸西园 2室1厅 南",
    "community": "清逸西园",
    "area": "80.31",
    "rooms": "2室1厅",
    "direction": "南",
    "floor": "",
    "price": "4330",
    "tags": "",
    "source": "",
    "url": "https://bj.lianjia.com/zufang/BJ1823288101376622592.html",
    "rent_type": "整租",
    "location": "大兴区-旧宫-清逸西园",
    "scraped_at": "2026-05-02 22:06:28",
    "region": "jiugong1",
    "unit_price": 53.9,
    "lat": 39.802516,
    "lng": 116.438278
  },
  {
    "title": "整租·美利新世界 3室2厅 复式 南/北",
    "community": "美利新世界",
    "area": "140.00",
    "rooms": "3室2厅",
    "direction": "",
    "floor": "",
    "price": "6300",
    "tags": "",
    "source": "",
    "url": "https://bj.lianjia.com/zufang/BJ2114318783291064320.html",
    "rent_type": "整租",
    "location": "大兴区-旧宫-美利新世界",
    "scraped_at": "2026-05-02 22:06:28",
    "region": "jiugong1",
    "unit_price": 45.0,
    "lat": 39.809884,
    "lng": 116.442694
  },
  {
    "title": "整租·中冶德贤公馆公寓 2房间 西北",
    "community": "中冶德贤公馆公寓 2房间 西北",
    "area": "101.00",
    "rooms": "",
    "direction": "",
    "floor": "",
    "price": "5000",
    "tags": "",
    "source": "",
    "url": "https://bj.lianjia.com/zufang/BJ2005207476776992768.html",
    "rent_type": "整租",
    "location": "大兴区-旧宫-中冶德贤公馆公寓",
    "scraped_at": "2026-05-02 22:06:28",
    "region": "jiugong1",
    "unit_price": 49.5,
    "lat": 39.811134,
    "lng": 116.430799
  },
  {
    "title": "整租·润枫锦尚 3室2厅 南/北",
    "community": "润枫锦尚",
    "area": "101.71",
    "rooms": "3室2厅",
    "direction": "南/北",
    "floor": "",
    "price": "5000",
    "tags": "",
    "source": "",
    "url": "https://bj.lianjia.com/zufang/BJ2009636278689071104.html",
    "rent_type": "整租",
    "location": "大兴区-旧宫-润枫锦尚",
    "scraped_at": "2026-05-02 22:06:46",
    "region": "jiugong1",
    "unit_price": 49.2,
    "lat": 39.790633,
    "lng": 116.422604
  },
  {
    "title": "整租·旧宫新苑南区 2室1厅 南",
    "community": "旧宫新苑南区",
    "area": "88.00",
    "rooms": "2室1厅",
    "direction": "南",
    "floor": "",
    "price": "4700",
    "tags": "",
    "source": "",
    "url": "https://bj.lianjia.com/zufang/BJ2153058962130337792.html",
    "rent_type": "整租",
    "location": "大兴区-旧宫-旧宫新苑南区",
    "scraped_at": "2026-05-02 22:06:28",
    "region": "jiugong1",
    "unit_price": 53.4,
    "lat": 39.797366,
    "lng": 116.448448
  },
  {
    "title": "整租·东亚五环国际 1房间 东",
    "community": "东亚五环国际 1房间 东",
    "area": "34.80",
    "rooms": "",
    "direction": "",
    "floor": "",
    "price": "3200",
    "tags": "",
    "source": "",
    "url": "https://bj.lianjia.com/zufang/BJ2154504337886281728.html",
    "rent_type": "整租",
    "location": "大兴区-旧宫-东亚五环国际",
    "scraped_at": "2026-05-02 22:06:28",
    "region": "jiugong1",
    "unit_price": 92.0,
    "lat": 39.792866,
    "lng": 116.448209
  },
  {
    "title": "整租·芳源里 2室2厅 南/北",
    "community": "芳源里",
    "area": "90.58",
    "rooms": "2室2厅",
    "direction": "南/北",
    "floor": "",
    "price": "4400",
    "tags": "",
    "source": "",
    "url": "https://bj.lianjia.com/zufang/BJ1983031125475328000.html",
    "rent_type": "整租",
    "location": "大兴区-旧宫-芳源里",
    "scraped_at": "2026-05-02 22:06:46",
    "region": "jiugong1",
    "unit_price": 48.6,
    "lat": 39.785126,
    "lng": 116.411068
  },
  {
    "title": "整租·巧克力城 5室2厅 跃层 南/北",
    "community": "巧克力城",
    "area": "174.06",
    "rooms": "5室2厅",
    "direction": "",
    "floor": "",
    "price": "9800",
    "tags": "",
    "source": "",
    "url": "https://bj.lianjia.com/zufang/BJ2054180651711594496.html",
    "rent_type": "整租",
    "location": "大兴区-旧宫-巧克力城",
    "scraped_at": "2026-05-02 22:06:39",
    "region": "jiugong1",
    "unit_price": 56.3,
    "lat": 39.817507,
    "lng": 116.416916
  },
  {
    "title": "整租·菊源里 3室2厅 南/北",
    "community": "菊源里",
    "area": "144.85",
    "rooms": "3室2厅",
    "direction": "南/北",
    "floor": "",
    "price": "7500",
    "tags": "",
    "source": "",
    "url": "https://bj.lianjia.com/zufang/BJ2096120538295435264.html",
    "rent_type": "整租",
    "location": "大兴区-旧宫-菊源里",
    "scraped_at": "2026-05-02 22:06:28",
    "region": "jiugong1",
    "unit_price": 51.8,
    "lat": 39.78617,
    "lng": 116.41511
  },
  {
    "title": "整租·宣颐家园 2室1厅 北",
    "community": "宣颐家园",
    "area": "42.42",
    "rooms": "2室1厅",
    "direction": "北",
    "floor": "",
    "price": "2900",
    "tags": "",
    "source": "",
    "url": "https://bj.lianjia.com/zufang/BJ2023659586350743552.html",
    "rent_type": "整租",
    "location": "大兴区-旧宫-宣颐家园",
    "scraped_at": "2026-05-02 22:06:46",
    "region": "jiugong1",
    "unit_price": 68.4,
    "lat": 39.809038,
    "lng": 116.449302
  },
  {
    "title": "整租·东亚五环国际 1房间 南/北",
    "community": "东亚五环国际 1房间 南/北",
    "area": "123.00",
    "rooms": "",
    "direction": "",
    "floor": "",
    "price": "6800",
    "tags": "",
    "source": "",
    "url": "https://bj.lianjia.com/zufang/BJ2147568099899998208.html",
    "rent_type": "整租",
    "location": "大兴区-旧宫-东亚五环国际",
    "scraped_at": "2026-05-02 22:06:28",
    "region": "jiugong1",
    "unit_price": 55.3,
    "lat": 39.792866,
    "lng": 116.448209
  },
  {
    "title": "整租·庑殿家苑C区 1室1厅 南",
    "community": "庑殿家苑C区",
    "area": "46.91",
    "rooms": "1室1厅",
    "direction": "南",
    "floor": "",
    "price": "3960",
    "tags": "",
    "source": "",
    "url": "https://bj.lianjia.com/zufang/BJ2090826926926069760.html",
    "rent_type": "整租",
    "location": "大兴区-旧宫-庑殿家苑",
    "scraped_at": "2026-05-02 22:06:28",
    "region": "jiugong1",
    "unit_price": 84.4,
    "lat": 39.817629,
    "lng": 116.4258
  },
  {
    "title": "整租·中冶德贤公馆 3室2厅 南/北",
    "community": "中冶德贤公馆",
    "area": "177.79",
    "rooms": "3室2厅",
    "direction": "南/北",
    "floor": "",
    "price": "13600",
    "tags": "",
    "source": "",
    "url": "https://bj.lianjia.com/zufang/BJ2155989859410378752.html",
    "rent_type": "整租",
    "location": "大兴区-旧宫-中冶德贤公馆",
    "scraped_at": "2026-05-02 22:07:10",
    "region": "jiugong1",
    "unit_price": 76.5,
    "lat": 39.811134,
    "lng": 116.430799
  },
  {
    "title": "整租·庑殿家苑B区 2室1厅 南/北",
    "community": "庑殿家苑B区",
    "area": "78.00",
    "rooms": "2室1厅",
    "direction": "南/北",
    "floor": "",
    "price": "4500",
    "tags": "",
    "source": "",
    "url": "https://bj.lianjia.com/zufang/BJ2161062171268612096.html",
    "rent_type": "整租",
    "location": "大兴区-旧宫-庑殿家苑",
    "scraped_at": "2026-05-02 22:06:28",
    "region": "jiugong1",
    "unit_price": 57.7,
    "lat": 39.817629,
    "lng": 116.4258
  },
  {
    "title": "整租·东亚五环国际 3房间 东",
    "community": "东亚五环国际 3房间 东",
    "area": "95.00",
    "rooms": "",
    "direction": "",
    "floor": "",
    "price": "4790",
    "tags": "",
    "source": "",
    "url": "https://bj.lianjia.com/zufang/BJ2132266007245357056.html",
    "rent_type": "整租",
    "location": "大兴区-旧宫-东亚五环国际",
    "scraped_at": "2026-05-02 22:06:28",
    "region": "jiugong1",
    "unit_price": 50.4,
    "lat": 39.792866,
    "lng": 116.448209
  },
  {
    "title": "整租·润枫锦尚 3室1厅 南/北",
    "community": "润枫锦尚",
    "area": "132.88",
    "rooms": "3室1厅",
    "direction": "南/北",
    "floor": "",
    "price": "6000",
    "tags": "",
    "source": "",
    "url": "https://bj.lianjia.com/zufang/BJ2142263562716839936.html",
    "rent_type": "整租",
    "location": "大兴区-旧宫-润枫锦尚",
    "scraped_at": "2026-05-02 22:06:30",
    "region": "jiugong1",
    "unit_price": 45.2,
    "lat": 39.790633,
    "lng": 116.422604
  },
  {
    "title": "整租·云龙家园 1室1厅 南/北",
    "community": "云龙家园",
    "area": "72.86",
    "rooms": "1室1厅",
    "direction": "南/北",
    "floor": "",
    "price": "3200",
    "tags": "",
    "source": "",
    "url": "https://bj.lianjia.com/zufang/BJ1823359952228450304.html",
    "rent_type": "整租",
    "location": "大兴区-旧宫-云龙家园",
    "scraped_at": "2026-05-02 22:06:46",
    "region": "jiugong1",
    "unit_price": 43.9,
    "lat": 39.806539,
    "lng": 116.429054
  },
  {
    "title": "整租·清欣园甲区 3室1厅 南/北",
    "community": "清欣园甲区",
    "area": "138.00",
    "rooms": "3室1厅",
    "direction": "南/北",
    "floor": "",
    "price": "6000",
    "tags": "",
    "source": "",
    "url": "https://bj.lianjia.com/zufang/BJ2154042801619206144.html",
    "rent_type": "整租",
    "location": "大兴区-旧宫-清欣园甲区",
    "scraped_at": "2026-05-02 22:06:30",
    "region": "jiugong1",
    "unit_price": 43.5,
    "lat": 39.803611,
    "lng": 116.435414
  },
  {
    "title": "整租·亦庄北岸 3室2厅 南/北",
    "community": "亦庄北岸",
    "area": "99.41",
    "rooms": "3室2厅",
    "direction": "南/北",
    "floor": "",
    "price": "5500",
    "tags": "",
    "source": "",
    "url": "https://bj.lianjia.com/zufang/BJ2156605974054436864.html",
    "rent_type": "整租",
    "location": "大兴区-旧宫-亦庄北岸",
    "scraped_at": "2026-05-02 22:06:30",
    "region": "jiugong1",
    "unit_price": 55.3,
    "lat": 39.797539,
    "lng": 116.457319
  },
  {
    "title": "整租·巧克力城 1室1厅 北",
    "community": "巧克力城",
    "area": "50.69",
    "rooms": "1室1厅",
    "direction": "北",
    "floor": "",
    "price": "3500",
    "tags": "",
    "source": "",
    "url": "https://bj.lianjia.com/zufang/BJ2023023824559144960.html",
    "rent_type": "整租",
    "location": "大兴区-旧宫-巧克力城",
    "scraped_at": "2026-05-02 22:06:30",
    "region": "jiugong1",
    "unit_price": 69.0,
    "lat": 39.817507,
    "lng": 116.416916
  },
  {
    "title": "整租·广安康璟家园 2室1厅 南",
    "community": "广安康璟家园",
    "area": "86.75",
    "rooms": "2室1厅",
    "direction": "南",
    "floor": "",
    "price": "5929",
    "tags": "",
    "source": "",
    "url": "https://bj.lianjia.com/zufang/BJ1887175198650662912.html",
    "rent_type": "整租",
    "location": "大兴区-旧宫-广安康璟家园",
    "scraped_at": "2026-05-02 22:06:30",
    "region": "jiugong1",
    "unit_price": 68.3,
    "lat": 39.77919,
    "lng": 116.41412
  },
  {
    "title": "整租·京能丨电建·洺悦湾 4室1厅 南/北",
    "community": "京能丨电建·洺悦湾",
    "area": "133.00",
    "rooms": "4室1厅",
    "direction": "南/北",
    "floor": "",
    "price": "9200",
    "tags": "",
    "source": "",
    "url": "https://bj.lianjia.com/zufang/BJ2157821688773869568.html",
    "rent_type": "整租",
    "location": "大兴区-旧宫-京能丨电建",
    "scraped_at": "2026-05-02 22:06:30",
    "region": "jiugong1",
    "unit_price": 69.2,
    "lat": 39.779416,
    "lng": 116.423988
  },
  {
    "title": "整租·润枫锦尚 2室2厅 南/北",
    "community": "润枫锦尚",
    "area": "94.00",
    "rooms": "2室2厅",
    "direction": "南/北",
    "floor": "",
    "price": "4400",
    "tags": "",
    "source": "",
    "url": "https://bj.lianjia.com/zufang/BJ2111041863510130688.html",
    "rent_type": "整租",
    "location": "大兴区-旧宫-润枫锦尚",
    "scraped_at": "2026-05-02 22:06:30",
    "region": "jiugong1",
    "unit_price": 46.8,
    "lat": 39.790633,
    "lng": 116.422604
  },
  {
    "title": "整租·大城小镇 3室2厅 南/北",
    "community": "大城小镇",
    "area": "123.24",
    "rooms": "3室2厅",
    "direction": "南/北",
    "floor": "",
    "price": "5300",
    "tags": "",
    "source": "",
    "url": "https://bj.lianjia.com/zufang/BJ2160327625342451712.html",
    "rent_type": "整租",
    "location": "大兴区-旧宫-大城小镇",
    "scraped_at": "2026-05-02 22:07:10",
    "region": "jiugong1",
    "unit_price": 43.0,
    "lat": 39.814091,
    "lng": 116.428662
  },
  {
    "title": "整租·集贤雅苑南区 3室1厅 南/北",
    "community": "集贤雅苑南区",
    "area": "124.00",
    "rooms": "3室1厅",
    "direction": "南/北",
    "floor": "",
    "price": "6500",
    "tags": "",
    "source": "",
    "url": "https://bj.lianjia.com/zufang/BJ2158131483066236928.html",
    "rent_type": "整租",
    "location": "大兴区-旧宫-集贤雅苑南区",
    "scraped_at": "2026-05-02 22:06:30",
    "region": "jiugong1",
    "unit_price": 52.4,
    "lat": 39.803083,
    "lng": 116.423571
  },
  {
    "title": "整租·宣颐家园 2室1厅 北",
    "community": "宣颐家园",
    "area": "42.42",
    "rooms": "2室1厅",
    "direction": "北",
    "floor": "",
    "price": "3300",
    "tags": "",
    "source": "",
    "url": "https://bj.lianjia.com/zufang/BJ2146197495271653376.html",
    "rent_type": "整租",
    "location": "大兴区-旧宫-宣颐家园",
    "scraped_at": "2026-05-02 22:06:30",
    "region": "jiugong1",
    "unit_price": 77.8,
    "lat": 39.809038,
    "lng": 116.449302
  },
  {
    "title": "整租·清和园 1室1厅 西北",
    "community": "清和园",
    "area": "43.00",
    "rooms": "1室1厅",
    "direction": "西北",
    "floor": "",
    "price": "2800",
    "tags": "",
    "source": "",
    "url": "https://bj.lianjia.com/zufang/BJ2034155740238708736.html",
    "rent_type": "整租",
    "location": "大兴区-旧宫-清和园",
    "scraped_at": "2026-05-02 22:07:21",
    "region": "jiugong1",
    "unit_price": 65.1,
    "lat": 39.804946,
    "lng": 116.426163
  },
  {
    "title": "整租·中冶德贤公馆公寓 3房间 东北",
    "community": "中冶德贤公馆公寓 3房间 东北",
    "area": "86.00",
    "rooms": "",
    "direction": "",
    "floor": "",
    "price": "6500",
    "tags": "",
    "source": "",
    "url": "https://bj.lianjia.com/zufang/BJ2150629552521478144.html",
    "rent_type": "整租",
    "location": "大兴区-旧宫-中冶德贤公馆公寓",
    "scraped_at": "2026-05-02 22:06:30",
    "region": "jiugong1",
    "unit_price": 75.6,
    "lat": 39.811134,
    "lng": 116.430799
  },
  {
    "title": "整租·富力盛悦居 3室2厅 南/北",
    "community": "富力盛悦居",
    "area": "120.78",
    "rooms": "3室2厅",
    "direction": "南/北",
    "floor": "",
    "price": "9400",
    "tags": "",
    "source": "",
    "url": "https://bj.lianjia.com/zufang/BJ2161114764636323840.html",
    "rent_type": "整租",
    "location": "大兴区-旧宫-富力盛悦居",
    "scraped_at": "2026-05-02 22:06:30",
    "region": "jiugong1",
    "unit_price": 77.8,
    "lat": 39.804886,
    "lng": 116.449328
  },
  {
    "title": "整租·巧克力城 1室1厅 北",
    "community": "巧克力城",
    "area": "50.00",
    "rooms": "1室1厅",
    "direction": "北",
    "floor": "",
    "price": "3600",
    "tags": "",
    "source": "",
    "url": "https://bj.lianjia.com/zufang/BJ2150532421097881600.html",
    "rent_type": "整租",
    "location": "大兴区-旧宫-巧克力城",
    "scraped_at": "2026-05-02 22:06:30",
    "region": "jiugong1",
    "unit_price": 72.0,
    "lat": 39.817507,
    "lng": 116.416916
  },
  {
    "title": "独栋·乐乎青年社区 旧宫旺兴店 外窗实墙 可月付独立厨卫 无中介房东直租 开间",
    "community": "乐乎青年社区 旧宫旺兴店 外窗实墙 可月付独立厨卫 无中介房东直租 开间",
    "area": "25.00",
    "rooms": "",
    "direction": "",
    "floor": "",
    "price": "2000",
    "tags": "",
    "source": "",
    "url": "https://bj.lianjia.com/apartment/83724.html",
    "rent_type": "独栋",
    "location": "",
    "scraped_at": "2026-05-02 22:06:30",
    "region": "jiugong1",
    "unit_price": 80.0,
    "lat": 40.051992,
    "lng": 116.330738
  },
  {
    "title": "整租·庑殿家苑B区 2室1厅 南",
    "community": "庑殿家苑B区",
    "area": "76.51",
    "rooms": "2室1厅",
    "direction": "南",
    "floor": "",
    "price": "5200",
    "tags": "",
    "source": "",
    "url": "https://bj.lianjia.com/zufang/BJ2145547892578844672.html",
    "rent_type": "整租",
    "location": "大兴区-旧宫-庑殿家苑",
    "scraped_at": "2026-05-02 22:06:39",
    "region": "jiugong1",
    "unit_price": 68.0,
    "lat": 39.817629,
    "lng": 116.4258
  },
  {
    "title": "整租·亦庄北岸 2室1厅 南",
    "community": "亦庄北岸",
    "area": "85.00",
    "rooms": "2室1厅",
    "direction": "南",
    "floor": "",
    "price": "4800",
    "tags": "",
    "source": "",
    "url": "https://bj.lianjia.com/zufang/BJ2159862162577686528.html",
    "rent_type": "整租",
    "location": "大兴区-旧宫-亦庄北岸",
    "scraped_at": "2026-05-02 22:06:30",
    "region": "jiugong1",
    "unit_price": 56.5,
    "lat": 39.797539,
    "lng": 116.457319
  },
  {
    "title": "整租·富力盛悦居 5房间 西北",
    "community": "富力盛悦居 5房间 西北",
    "area": "168.00",
    "rooms": "",
    "direction": "",
    "floor": "",
    "price": "10000",
    "tags": "",
    "source": "",
    "url": "https://bj.lianjia.com/zufang/BJ2143634744749850624.html",
    "rent_type": "整租",
    "location": "大兴区-旧宫-富力盛悦居",
    "scraped_at": "2026-05-02 22:06:30",
    "region": "jiugong1",
    "unit_price": 59.5,
    "lat": 39.804886,
    "lng": 116.449328
  },
  {
    "title": "整租·紫郡府 3室1厅 南/北",
    "community": "紫郡府",
    "area": "106.41",
    "rooms": "3室1厅",
    "direction": "南/北",
    "floor": "",
    "price": "7500",
    "tags": "",
    "source": "",
    "url": "https://bj.lianjia.com/zufang/BJ2130228128373538816.html",
    "rent_type": "整租",
    "location": "大兴区-旧宫-紫郡府",
    "scraped_at": "2026-05-02 22:06:30",
    "region": "jiugong1",
    "unit_price": 70.5,
    "lat": 39.801835,
    "lng": 116.450863
  },
  {
    "title": "整租·东亚五环国际 1房间 东",
    "community": "东亚五环国际 1房间 东",
    "area": "34.80",
    "rooms": "",
    "direction": "",
    "floor": "",
    "price": "3200",
    "tags": "",
    "source": "",
    "url": "https://bj.lianjia.com/zufang/BJ2152265667892477952.html",
    "rent_type": "整租",
    "location": "大兴区-旧宫-东亚五环国际",
    "scraped_at": "2026-05-02 22:06:30",
    "region": "jiugong1",
    "unit_price": 92.0,
    "lat": 39.792866,
    "lng": 116.448209
  },
  {
    "title": "整租·佳和园新区 3室1厅 南/北",
    "community": "佳和园新区",
    "area": "114.00",
    "rooms": "3室1厅",
    "direction": "南/北",
    "floor": "",
    "price": "5700",
    "tags": "",
    "source": "",
    "url": "https://bj.lianjia.com/zufang/BJ2089324542571839488.html",
    "rent_type": "整租",
    "location": "大兴区-旧宫-佳和园新区",
    "scraped_at": "2026-05-02 22:06:30",
    "region": "jiugong1",
    "unit_price": 50.0,
    "lat": 39.804546,
    "lng": 116.440058
  },
  {
    "title": "整租·东亚五环国际 4房间 西南",
    "community": "东亚五环国际 4房间 西南",
    "area": "98.00",
    "rooms": "",
    "direction": "",
    "floor": "",
    "price": "5000",
    "tags": "",
    "source": "",
    "url": "https://bj.lianjia.com/zufang/BJ2140750564047192064.html",
    "rent_type": "整租",
    "location": "大兴区-旧宫-东亚五环国际",
    "scraped_at": "2026-05-02 22:06:30",
    "region": "jiugong1",
    "unit_price": 51.0,
    "lat": 39.792866,
    "lng": 116.448209
  },
  {
    "title": "整租·东亚五环国际 4房间 南",
    "community": "东亚五环国际 4房间 南",
    "area": "110.00",
    "rooms": "",
    "direction": "",
    "floor": "",
    "price": "6000",
    "tags": "",
    "source": "",
    "url": "https://bj.lianjia.com/zufang/BJ2155253282413477888.html",
    "rent_type": "整租",
    "location": "大兴区-旧宫-东亚五环国际",
    "scraped_at": "2026-05-02 22:06:33",
    "region": "jiugong1",
    "unit_price": 54.5,
    "lat": 39.792866,
    "lng": 116.448209
  },
  {
    "title": "整租·大城小镇 2室1厅 南/北",
    "community": "大城小镇",
    "area": "95.17",
    "rooms": "2室1厅",
    "direction": "南/北",
    "floor": "",
    "price": "4800",
    "tags": "",
    "source": "",
    "url": "https://bj.lianjia.com/zufang/BJ2138200675845144576.html",
    "rent_type": "整租",
    "location": "大兴区-旧宫-大城小镇",
    "scraped_at": "2026-05-02 22:06:33",
    "region": "jiugong1",
    "unit_price": 50.4,
    "lat": 39.814091,
    "lng": 116.428662
  },
  {
    "title": "整租·紫郡府 3室1厅 南/北",
    "community": "紫郡府",
    "area": "107.00",
    "rooms": "3室1厅",
    "direction": "南/北",
    "floor": "",
    "price": "7600",
    "tags": "",
    "source": "",
    "url": "https://bj.lianjia.com/zufang/BJ2061435810753806336.html",
    "rent_type": "整租",
    "location": "大兴区-旧宫-紫郡府",
    "scraped_at": "2026-05-02 22:06:33",
    "region": "jiugong1",
    "unit_price": 71.0,
    "lat": 39.801835,
    "lng": 116.450863
  },
  {
    "title": "整租·巧克力城 1室1厅 南",
    "community": "巧克力城",
    "area": "50.45",
    "rooms": "1室1厅",
    "direction": "南",
    "floor": "",
    "price": "3800",
    "tags": "",
    "source": "",
    "url": "https://bj.lianjia.com/zufang/BJ2148675763837075456.html",
    "rent_type": "整租",
    "location": "大兴区-旧宫-巧克力城",
    "scraped_at": "2026-05-02 22:06:33",
    "region": "jiugong1",
    "unit_price": 75.3,
    "lat": 39.817507,
    "lng": 116.416916
  },
  {
    "title": "整租·首开保利熙悦诚郡 4室2厅 南/北",
    "community": "首开保利熙悦诚郡",
    "area": "158.50",
    "rooms": "4室2厅",
    "direction": "南/北",
    "floor": "",
    "price": "15000",
    "tags": "",
    "source": "",
    "url": "https://bj.lianjia.com/zufang/BJ2026529200466296832.html",
    "rent_type": "整租",
    "location": "大兴区-旧宫-首开保利熙悦诚郡",
    "scraped_at": "2026-05-02 22:06:33",
    "region": "jiugong1",
    "unit_price": 94.6,
    "lat": 39.78489,
    "lng": 116.4276
  },
  {
    "title": "整租·红星楼 2室1厅 南/北",
    "community": "红星楼",
    "area": "71.28",
    "rooms": "2室1厅",
    "direction": "南/北",
    "floor": "",
    "price": "4200",
    "tags": "",
    "source": "",
    "url": "https://bj.lianjia.com/zufang/BJ2159944059651620864.html",
    "rent_type": "整租",
    "location": "大兴区-旧宫-红星楼",
    "scraped_at": "2026-05-02 22:06:33",
    "region": "jiugong1",
    "unit_price": 58.9,
    "lat": 39.80402,
    "lng": 116.420554
  },
  {
    "title": "整租·朗润园二期 2室1厅 南",
    "community": "朗润园二期",
    "area": "87.59",
    "rooms": "2室1厅",
    "direction": "南",
    "floor": "",
    "price": "7000",
    "tags": "",
    "source": "",
    "url": "https://bj.lianjia.com/zufang/BJ2154483219595001856.html",
    "rent_type": "整租",
    "location": "大兴区-旧宫-朗润园二期",
    "scraped_at": "2026-05-02 22:06:33",
    "region": "jiugong1",
    "unit_price": 79.9,
    "lat": 39.803122,
    "lng": 116.453961
  },
  {
    "title": "整租·亦庄北岸 2室1厅 南",
    "community": "亦庄北岸",
    "area": "82.18",
    "rooms": "2室1厅",
    "direction": "南",
    "floor": "",
    "price": "4700",
    "tags": "",
    "source": "",
    "url": "https://bj.lianjia.com/zufang/BJ1993188028272607232.html",
    "rent_type": "整租",
    "location": "大兴区-旧宫-亦庄北岸",
    "scraped_at": "2026-05-02 22:06:46",
    "region": "jiugong1",
    "unit_price": 57.2,
    "lat": 39.797539,
    "lng": 116.457319
  },
  {
    "title": "整租·成和园 2室1厅 南/北",
    "community": "成和园",
    "area": "70.87",
    "rooms": "2室1厅",
    "direction": "南/北",
    "floor": "",
    "price": "4000",
    "tags": "",
    "source": "",
    "url": "https://bj.lianjia.com/zufang/BJ2145495528853471232.html",
    "rent_type": "整租",
    "location": "大兴区-旧宫-成和园",
    "scraped_at": "2026-05-02 22:06:33",
    "region": "jiugong1",
    "unit_price": 56.4,
    "lat": 39.81436,
    "lng": 116.42832
  },
  {
    "title": "整租·庑殿家苑B区 1室0厅 南/北",
    "community": "庑殿家苑B区",
    "area": "47.63",
    "rooms": "1室0厅",
    "direction": "南/北",
    "floor": "",
    "price": "3500",
    "tags": "",
    "source": "",
    "url": "https://bj.lianjia.com/zufang/BJ2148762381918928896.html",
    "rent_type": "整租",
    "location": "大兴区-旧宫-庑殿家苑",
    "scraped_at": "2026-05-02 22:06:33",
    "region": "jiugong1",
    "unit_price": 73.5,
    "lat": 39.817629,
    "lng": 116.4258
  },
  {
    "title": "整租·亲亲我家 4室2厅 复式 南/北",
    "community": "亲亲我家",
    "area": "158.45",
    "rooms": "4室2厅",
    "direction": "",
    "floor": "",
    "price": "9800",
    "tags": "",
    "source": "",
    "url": "https://bj.lianjia.com/zufang/BJ2082398097098407936.html",
    "rent_type": "整租",
    "location": "大兴区-旧宫-亲亲我家",
    "scraped_at": "2026-05-02 22:06:33",
    "region": "jiugong1",
    "unit_price": 61.8,
    "lat": 39.805132,
    "lng": 116.447796
  },
  {
    "title": "整租·清逸园 2室1厅 南/北",
    "community": "清逸园",
    "area": "58.06",
    "rooms": "2室1厅",
    "direction": "南/北",
    "floor": "",
    "price": "3600",
    "tags": "",
    "source": "",
    "url": "https://bj.lianjia.com/zufang/BJ2160623502883815424.html",
    "rent_type": "整租",
    "location": "大兴区-旧宫-清逸园",
    "scraped_at": "2026-05-02 22:06:33",
    "region": "jiugong1",
    "unit_price": 62.0,
    "lat": 39.803586,
    "lng": 116.442618
  },
  {
    "title": "整租·美利国际 2房间 西",
    "community": "美利国际 2房间 西",
    "area": "99.77",
    "rooms": "",
    "direction": "",
    "floor": "",
    "price": "4200",
    "tags": "",
    "source": "",
    "url": "https://bj.lianjia.com/zufang/BJ2158469006267252736.html",
    "rent_type": "整租",
    "location": "大兴区-旧宫-美利国际",
    "scraped_at": "2026-05-02 22:06:33",
    "region": "jiugong1",
    "unit_price": 42.1,
    "lat": 39.809884,
    "lng": 116.442694
  },
  {
    "title": "整租·中冶德贤公馆公寓 3房间 东南",
    "community": "中冶德贤公馆公寓 3房间 东南",
    "area": "95.80",
    "rooms": "",
    "direction": "",
    "floor": "",
    "price": "5800",
    "tags": "",
    "source": "",
    "url": "https://bj.lianjia.com/zufang/BJ2154555790973730816.html",
    "rent_type": "整租",
    "location": "大兴区-旧宫-中冶德贤公馆公寓",
    "scraped_at": "2026-05-02 22:06:33",
    "region": "jiugong1",
    "unit_price": 60.5,
    "lat": 39.811134,
    "lng": 116.430799
  },
  {
    "title": "整租·首开保利熙悦诚郡 3室2厅 南/北",
    "community": "首开保利熙悦诚郡",
    "area": "104.00",
    "rooms": "3室2厅",
    "direction": "南/北",
    "floor": "",
    "price": "7500",
    "tags": "",
    "source": "",
    "url": "https://bj.lianjia.com/zufang/BJ2088251696495984640.html",
    "rent_type": "整租",
    "location": "大兴区-旧宫-首开保利熙悦诚郡",
    "scraped_at": "2026-05-02 22:06:33",
    "region": "jiugong1",
    "unit_price": 72.1,
    "lat": 39.78489,
    "lng": 116.4276
  },
  {
    "title": "整租·芳源里 3室1厅 南/北",
    "community": "芳源里",
    "area": "89.17",
    "rooms": "3室1厅",
    "direction": "南/北",
    "floor": "",
    "price": "4800",
    "tags": "",
    "source": "",
    "url": "https://bj.lianjia.com/zufang/BJ2130170671920054272.html",
    "rent_type": "整租",
    "location": "大兴区-旧宫-芳源里",
    "scraped_at": "2026-05-02 22:06:33",
    "region": "jiugong1",
    "unit_price": 53.8,
    "lat": 39.785126,
    "lng": 116.411068
  },
  {
    "title": "整租·灵秀山庄 3室1厅 南/北",
    "community": "灵秀山庄",
    "area": "105.00",
    "rooms": "3室1厅",
    "direction": "南/北",
    "floor": "",
    "price": "6500",
    "tags": "",
    "source": "",
    "url": "https://bj.lianjia.com/zufang/BJ2146820598720888832.html",
    "rent_type": "整租",
    "location": "大兴区-旧宫-灵秀山庄",
    "scraped_at": "2026-05-02 22:06:33",
    "region": "jiugong1",
    "unit_price": 61.9,
    "lat": 39.799101,
    "lng": 116.449972
  },
  {
    "title": "整租·南街福苑 2室1厅 南",
    "community": "南街福苑",
    "area": "75.00",
    "rooms": "2室1厅",
    "direction": "南",
    "floor": "",
    "price": "4200",
    "tags": "",
    "source": "",
    "url": "https://bj.lianjia.com/zufang/BJ2159541988754456576.html",
    "rent_type": "整租",
    "location": "大兴区-旧宫-南街福苑",
    "scraped_at": "2026-05-02 22:06:33",
    "region": "jiugong1",
    "unit_price": 56.0,
    "lat": 39.754246,
    "lng": 116.341188
  },
  {
    "title": "整租·巧克力城 2室1厅 南",
    "community": "巧克力城",
    "area": "97.00",
    "rooms": "2室1厅",
    "direction": "南",
    "floor": "",
    "price": "5000",
    "tags": "",
    "source": "",
    "url": "https://bj.lianjia.com/zufang/BJ2157702476587859968.html",
    "rent_type": "整租",
    "location": "大兴区-旧宫-巧克力城",
    "scraped_at": "2026-05-02 22:06:43",
    "region": "jiugong1",
    "unit_price": 51.5,
    "lat": 39.817507,
    "lng": 116.416916
  },
  {
    "title": "整租·芳源里 3室2厅 南/北",
    "community": "芳源里",
    "area": "119.85",
    "rooms": "3室2厅",
    "direction": "南/北",
    "floor": "",
    "price": "5700",
    "tags": "",
    "source": "",
    "url": "https://bj.lianjia.com/zufang/BJ2070820710875398144.html",
    "rent_type": "整租",
    "location": "大兴区-旧宫-芳源里",
    "scraped_at": "2026-05-02 22:06:33",
    "region": "jiugong1",
    "unit_price": 47.6,
    "lat": 39.785126,
    "lng": 116.411068
  },
  {
    "title": "整租·菊源南里 2室1厅 南/北",
    "community": "菊源南里",
    "area": "95.00",
    "rooms": "2室1厅",
    "direction": "南/北",
    "floor": "",
    "price": "5000",
    "tags": "",
    "source": "",
    "url": "https://bj.lianjia.com/zufang/BJ2139924896174571520.html",
    "rent_type": "整租",
    "location": "大兴区-旧宫-菊源南里",
    "scraped_at": "2026-05-02 22:06:33",
    "region": "jiugong1",
    "unit_price": 52.6,
    "lat": 39.786018,
    "lng": 116.420056
  },
  {
    "title": "整租·成和园 2室1厅 南/北",
    "community": "成和园",
    "area": "94.00",
    "rooms": "2室1厅",
    "direction": "南/北",
    "floor": "",
    "price": "4500",
    "tags": "",
    "source": "",
    "url": "https://bj.lianjia.com/zufang/BJ2118283988387758080.html",
    "rent_type": "整租",
    "location": "大兴区-旧宫-成和园",
    "scraped_at": "2026-05-02 22:06:33",
    "region": "jiugong1",
    "unit_price": 47.9,
    "lat": 39.81436,
    "lng": 116.42832
  },
  {
    "title": "整租·成和园 2室1厅 南/北",
    "community": "成和园",
    "area": "70.00",
    "rooms": "2室1厅",
    "direction": "南/北",
    "floor": "",
    "price": "4200",
    "tags": "",
    "source": "",
    "url": "https://bj.lianjia.com/zufang/BJ2145487025556422656.html",
    "rent_type": "整租",
    "location": "大兴区-旧宫-成和园",
    "scraped_at": "2026-05-02 22:06:33",
    "region": "jiugong1",
    "unit_price": 60.0,
    "lat": 39.81436,
    "lng": 116.42832
  },
  {
    "title": "整租·中冶德贤公馆 4室2厅 南/北",
    "community": "中冶德贤公馆",
    "area": "214.00",
    "rooms": "4室2厅",
    "direction": "南/北",
    "floor": "",
    "price": "18000",
    "tags": "",
    "source": "",
    "url": "https://bj.lianjia.com/zufang/BJ2113926978934407168.html",
    "rent_type": "整租",
    "location": "大兴区-旧宫-中冶德贤公馆",
    "scraped_at": "2026-05-02 22:06:33",
    "region": "jiugong1",
    "unit_price": 84.1,
    "lat": 39.811134,
    "lng": 116.430799
  },
  {
    "title": "整租·国韵村 4室2厅 南/北",
    "community": "国韵村",
    "area": "173.65",
    "rooms": "4室2厅",
    "direction": "南/北",
    "floor": "",
    "price": "11000",
    "tags": "",
    "source": "",
    "url": "https://bj.lianjia.com/zufang/BJ2040392263846068224.html",
    "rent_type": "整租",
    "location": "大兴区-旧宫-国韵村",
    "scraped_at": "2026-05-02 22:06:33",
    "region": "jiugong1",
    "unit_price": 63.3,
    "lat": 39.803434,
    "lng": 116.450794
  },
  {
    "title": "整租·红星楼 2室1厅 南",
    "community": "红星楼",
    "area": "49.90",
    "rooms": "2室1厅",
    "direction": "南",
    "floor": "",
    "price": "3400",
    "tags": "",
    "source": "",
    "url": "https://bj.lianjia.com/zufang/BJ2141822347068309504.html",
    "rent_type": "整租",
    "location": "大兴区-旧宫-红星楼",
    "scraped_at": "2026-05-02 22:06:33",
    "region": "jiugong1",
    "unit_price": 68.1,
    "lat": 39.80402,
    "lng": 116.420554
  },
  {
    "title": "整租·清和园 2室1厅 南/北",
    "community": "清和园",
    "area": "74.00",
    "rooms": "2室1厅",
    "direction": "南/北",
    "floor": "",
    "price": "4500",
    "tags": "",
    "source": "",
    "url": "https://bj.lianjia.com/zufang/BJ2159654433972027392.html",
    "rent_type": "整租",
    "location": "大兴区-旧宫-清和园",
    "scraped_at": "2026-05-02 22:06:33",
    "region": "jiugong1",
    "unit_price": 60.8,
    "lat": 39.804946,
    "lng": 116.426163
  },
  {
    "title": "整租·清逸园甲区 2室1厅 南/北",
    "community": "清逸园甲区",
    "area": "90.76",
    "rooms": "2室1厅",
    "direction": "南/北",
    "floor": "",
    "price": "4600",
    "tags": "",
    "source": "",
    "url": "https://bj.lianjia.com/zufang/BJ2154564623796273152.html",
    "rent_type": "整租",
    "location": "大兴区-旧宫-清逸园甲区",
    "scraped_at": "2026-05-02 22:06:33",
    "region": "jiugong1",
    "unit_price": 50.7,
    "lat": 39.803986,
    "lng": 116.444368
  },
  {
    "title": "整租·旧宫新苑南区 1室1厅 南/北",
    "community": "旧宫新苑南区",
    "area": "63.00",
    "rooms": "1室1厅",
    "direction": "南/北",
    "floor": "",
    "price": "3800",
    "tags": "",
    "source": "",
    "url": "https://bj.lianjia.com/zufang/BJ2146246952021393408.html",
    "rent_type": "整租",
    "location": "大兴区-旧宫-旧宫新苑南区",
    "scraped_at": "2026-05-02 22:06:37",
    "region": "jiugong1",
    "unit_price": 60.3,
    "lat": 39.797366,
    "lng": 116.448448
  },
  {
    "title": "整租·宣颐家园 3室2厅 南/北",
    "community": "宣颐家园",
    "area": "137.00",
    "rooms": "3室2厅",
    "direction": "南/北",
    "floor": "",
    "price": "8000",
    "tags": "",
    "source": "",
    "url": "https://bj.lianjia.com/zufang/BJ2153033535429017600.html",
    "rent_type": "整租",
    "location": "大兴区-旧宫-宣颐家园",
    "scraped_at": "2026-05-02 22:06:37",
    "region": "jiugong1",
    "unit_price": 58.4,
    "lat": 39.809038,
    "lng": 116.449302
  },
  {
    "title": "整租·巧克力城 2室1厅 南/北",
    "community": "巧克力城",
    "area": "86.28",
    "rooms": "2室1厅",
    "direction": "南/北",
    "floor": "",
    "price": "4900",
    "tags": "",
    "source": "",
    "url": "https://bj.lianjia.com/zufang/BJ2148049527435689984.html",
    "rent_type": "整租",
    "location": "大兴区-旧宫-巧克力城",
    "scraped_at": "2026-05-02 22:06:37",
    "region": "jiugong1",
    "unit_price": 56.8,
    "lat": 39.817507,
    "lng": 116.416916
  },
  {
    "title": "整租·灵秀山庄 2室1厅 南/北",
    "community": "灵秀山庄",
    "area": "80.67",
    "rooms": "2室1厅",
    "direction": "南/北",
    "floor": "",
    "price": "4300",
    "tags": "",
    "source": "",
    "url": "https://bj.lianjia.com/zufang/BJ2148277458653151232.html",
    "rent_type": "整租",
    "location": "大兴区-旧宫-灵秀山庄",
    "scraped_at": "2026-05-02 22:06:37",
    "region": "jiugong1",
    "unit_price": 53.3,
    "lat": 39.799101,
    "lng": 116.449972
  },
  {
    "title": "整租·中冶德贤公馆 3室2厅 南/北",
    "community": "中冶德贤公馆",
    "area": "179.00",
    "rooms": "3室2厅",
    "direction": "南/北",
    "floor": "",
    "price": "13000",
    "tags": "",
    "source": "",
    "url": "https://bj.lianjia.com/zufang/BJ2091728469258928128.html",
    "rent_type": "整租",
    "location": "大兴区-旧宫-中冶德贤公馆",
    "scraped_at": "2026-05-02 22:06:37",
    "region": "jiugong1",
    "unit_price": 72.6,
    "lat": 39.811134,
    "lng": 116.430799
  },
  {
    "title": "整租·美利新世界 3室2厅 错层 南/北",
    "community": "美利新世界",
    "area": "130.13",
    "rooms": "3室2厅",
    "direction": "",
    "floor": "",
    "price": "6900",
    "tags": "",
    "source": "",
    "url": "https://bj.lianjia.com/zufang/BJ2079778539657232384.html",
    "rent_type": "整租",
    "location": "大兴区-旧宫-美利新世界",
    "scraped_at": "2026-05-02 22:06:37",
    "region": "jiugong1",
    "unit_price": 53.0,
    "lat": 39.809884,
    "lng": 116.442694
  },
  {
    "title": "整租·芳源里 1室1厅 南/北",
    "community": "芳源里",
    "area": "59.50",
    "rooms": "1室1厅",
    "direction": "南/北",
    "floor": "",
    "price": "3500",
    "tags": "",
    "source": "",
    "url": "https://bj.lianjia.com/zufang/BJ2159280074459709440.html",
    "rent_type": "整租",
    "location": "大兴区-旧宫-芳源里",
    "scraped_at": "2026-05-02 22:06:37",
    "region": "jiugong1",
    "unit_price": 58.8,
    "lat": 39.785126,
    "lng": 116.411068
  },
  {
    "title": "整租·佳和园老区 1室1厅 南/北",
    "community": "佳和园老区",
    "area": "61.72",
    "rooms": "1室1厅",
    "direction": "南/北",
    "floor": "",
    "price": "3700",
    "tags": "",
    "source": "",
    "url": "https://bj.lianjia.com/zufang/BJ2152304318127013888.html",
    "rent_type": "整租",
    "location": "大兴区-旧宫-佳和园老区",
    "scraped_at": "2026-05-02 22:06:37",
    "region": "jiugong1",
    "unit_price": 59.9,
    "lat": 39.804148,
    "lng": 116.438568
  },
  {
    "title": "整租·东亚五环国际 1房间 西",
    "community": "东亚五环国际 1房间 西",
    "area": "34.00",
    "rooms": "",
    "direction": "",
    "floor": "",
    "price": "3000",
    "tags": "",
    "source": "",
    "url": "https://bj.lianjia.com/zufang/BJ2148444025718308864.html",
    "rent_type": "整租",
    "location": "大兴区-旧宫-东亚五环国际",
    "scraped_at": "2026-05-02 22:06:37",
    "region": "jiugong1",
    "unit_price": 88.2,
    "lat": 39.792866,
    "lng": 116.448209
  },
  {
    "title": "整租·东亚五环国际 3房间 西北",
    "community": "东亚五环国际 3房间 西北",
    "area": "92.00",
    "rooms": "",
    "direction": "",
    "floor": "",
    "price": "4600",
    "tags": "",
    "source": "",
    "url": "https://bj.lianjia.com/zufang/BJ2147273799542767616.html",
    "rent_type": "整租",
    "location": "大兴区-旧宫-东亚五环国际",
    "scraped_at": "2026-05-02 22:06:37",
    "region": "jiugong1",
    "unit_price": 50.0,
    "lat": 39.792866,
    "lng": 116.448209
  },
  {
    "title": "整租·首开保利熙悦诚郡 3室2厅 南/北",
    "community": "首开保利熙悦诚郡",
    "area": "104.88",
    "rooms": "3室2厅",
    "direction": "南/北",
    "floor": "",
    "price": "7500",
    "tags": "",
    "source": "",
    "url": "https://bj.lianjia.com/zufang/BJ2143014779923464192.html",
    "rent_type": "整租",
    "location": "大兴区-旧宫-首开保利熙悦诚郡",
    "scraped_at": "2026-05-02 22:06:37",
    "region": "jiugong1",
    "unit_price": 71.5,
    "lat": 39.78489,
    "lng": 116.4276
  },
  {
    "title": "整租·巧克力城 2室2厅 南/北",
    "community": "巧克力城",
    "area": "129.35",
    "rooms": "2室2厅",
    "direction": "南/北",
    "floor": "",
    "price": "5600",
    "tags": "",
    "source": "",
    "url": "https://bj.lianjia.com/zufang/BJ2107747606095462400.html",
    "rent_type": "整租",
    "location": "大兴区-旧宫-巧克力城",
    "scraped_at": "2026-05-02 22:06:39",
    "region": "jiugong1",
    "unit_price": 43.3,
    "lat": 39.817507,
    "lng": 116.416916
  },
  {
    "title": "整租·明悦湾 1室1厅 南",
    "community": "明悦湾",
    "area": "57.00",
    "rooms": "1室1厅",
    "direction": "南",
    "floor": "",
    "price": "3500",
    "tags": "",
    "source": "",
    "url": "https://bj.lianjia.com/zufang/BJ2152631589861851136.html",
    "rent_type": "整租",
    "location": "大兴区-旧宫-明悦湾",
    "scraped_at": "2026-05-02 22:06:37",
    "region": "jiugong1",
    "unit_price": 61.4,
    "lat": 39.799876,
    "lng": 116.444938
  },
  {
    "title": "整租·旧宫新苑南区 2室1厅 南",
    "community": "旧宫新苑南区",
    "area": "84.00",
    "rooms": "2室1厅",
    "direction": "南",
    "floor": "",
    "price": "4600",
    "tags": "",
    "source": "",
    "url": "https://bj.lianjia.com/zufang/BJ2160680470289842176.html",
    "rent_type": "整租",
    "location": "大兴区-旧宫-旧宫新苑南区",
    "scraped_at": "2026-05-02 22:06:43",
    "region": "jiugong1",
    "unit_price": 54.8,
    "lat": 39.797366,
    "lng": 116.448448
  },
  {
    "title": "整租·富力盛悦居 3室1厅 南/北",
    "community": "富力盛悦居",
    "area": "120.00",
    "rooms": "3室1厅",
    "direction": "南/北",
    "floor": "",
    "price": "9000",
    "tags": "",
    "source": "",
    "url": "https://bj.lianjia.com/zufang/BJ2150079839787286528.html",
    "rent_type": "整租",
    "location": "大兴区-旧宫-富力盛悦居",
    "scraped_at": "2026-05-02 22:06:39",
    "region": "jiugong1",
    "unit_price": 75.0,
    "lat": 39.804886,
    "lng": 116.449328
  },
  {
    "title": "整租·芳源里 1室0厅 南/北",
    "community": "芳源里",
    "area": "46.00",
    "rooms": "1室0厅",
    "direction": "南/北",
    "floor": "",
    "price": "3600",
    "tags": "",
    "source": "",
    "url": "https://bj.lianjia.com/zufang/BJ2092102976389775360.html",
    "rent_type": "整租",
    "location": "大兴区-旧宫-芳源里",
    "scraped_at": "2026-05-02 22:06:37",
    "region": "jiugong1",
    "unit_price": 78.3,
    "lat": 39.785126,
    "lng": 116.411068
  },
  {
    "title": "整租·首开保利熙悦诚郡 2室1厅 南",
    "community": "首开保利熙悦诚郡",
    "area": "84.23",
    "rooms": "2室1厅",
    "direction": "南",
    "floor": "",
    "price": "7500",
    "tags": "",
    "source": "",
    "url": "https://bj.lianjia.com/zufang/BJ2156288319325995008.html",
    "rent_type": "整租",
    "location": "大兴区-旧宫-首开保利熙悦诚郡",
    "scraped_at": "2026-05-02 22:06:37",
    "region": "jiugong1",
    "unit_price": 89.0,
    "lat": 39.78489,
    "lng": 116.4276
  },
  {
    "title": "整租·巧克力城 1室1厅 北",
    "community": "巧克力城",
    "area": "51.10",
    "rooms": "1室1厅",
    "direction": "北",
    "floor": "",
    "price": "4100",
    "tags": "",
    "source": "",
    "url": "https://bj.lianjia.com/zufang/BJ2148786404967055360.html",
    "rent_type": "整租",
    "location": "大兴区-旧宫-巧克力城",
    "scraped_at": "2026-05-02 22:06:37",
    "region": "jiugong1",
    "unit_price": 80.2,
    "lat": 39.817507,
    "lng": 116.416916
  },
  {
    "title": "整租·中南湾 3室2厅 南/北",
    "community": "中南湾",
    "area": "136.08",
    "rooms": "3室2厅",
    "direction": "南/北",
    "floor": "",
    "price": "8300",
    "tags": "",
    "source": "",
    "url": "https://bj.lianjia.com/zufang/BJ2137627670358261760.html",
    "rent_type": "整租",
    "location": "大兴区-旧宫-中南湾",
    "scraped_at": "2026-05-02 22:06:37",
    "region": "jiugong1",
    "unit_price": 61.0,
    "lat": 39.811134,
    "lng": 116.430799
  },
  {
    "title": "整租·中冶德贤公馆 3室2厅 南/北",
    "community": "中冶德贤公馆",
    "area": "186.00",
    "rooms": "3室2厅",
    "direction": "南/北",
    "floor": "",
    "price": "16000",
    "tags": "",
    "source": "",
    "url": "https://bj.lianjia.com/zufang/BJ2140761934348156928.html",
    "rent_type": "整租",
    "location": "大兴区-旧宫-中冶德贤公馆",
    "scraped_at": "2026-05-02 22:06:37",
    "region": "jiugong1",
    "unit_price": 86.0,
    "lat": 39.811134,
    "lng": 116.430799
  },
  {
    "title": "整租·国韵村 2室1厅 南/北",
    "community": "国韵村",
    "area": "87.00",
    "rooms": "2室1厅",
    "direction": "南/北",
    "floor": "",
    "price": "6300",
    "tags": "",
    "source": "",
    "url": "https://bj.lianjia.com/zufang/BJ2152251992372674560.html",
    "rent_type": "整租",
    "location": "大兴区-旧宫-国韵村",
    "scraped_at": "2026-05-02 22:06:37",
    "region": "jiugong1",
    "unit_price": 72.4,
    "lat": 39.803434,
    "lng": 116.450794
  },
  {
    "title": "整租·清欣园甲区 3室1厅 南/北",
    "community": "清欣园甲区",
    "area": "89.00",
    "rooms": "3室1厅",
    "direction": "南/北",
    "floor": "",
    "price": "5300",
    "tags": "",
    "source": "",
    "url": "https://bj.lianjia.com/zufang/BJ2159943722685431808.html",
    "rent_type": "整租",
    "location": "大兴区-旧宫-清欣园甲区",
    "scraped_at": "2026-05-02 22:06:37",
    "region": "jiugong1",
    "unit_price": 59.6,
    "lat": 39.803611,
    "lng": 116.435414
  },
  {
    "title": "整租·巧克力城 1室1厅 南",
    "community": "巧克力城",
    "area": "50.45",
    "rooms": "1室1厅",
    "direction": "南",
    "floor": "",
    "price": "3800",
    "tags": "",
    "source": "",
    "url": "https://bj.lianjia.com/zufang/BJ2142598309762564096.html",
    "rent_type": "整租",
    "location": "大兴区-旧宫-巧克力城",
    "scraped_at": "2026-05-02 22:06:37",
    "region": "jiugong1",
    "unit_price": 75.3,
    "lat": 39.817507,
    "lng": 116.416916
  },
  {
    "title": "整租·云龙家园 1室1厅 南/北",
    "community": "云龙家园",
    "area": "63.86",
    "rooms": "1室1厅",
    "direction": "南/北",
    "floor": "",
    "price": "3200",
    "tags": "",
    "source": "",
    "url": "https://bj.lianjia.com/zufang/BJ2150990641683759104.html",
    "rent_type": "整租",
    "location": "大兴区-旧宫-云龙家园",
    "scraped_at": "2026-05-02 22:06:37",
    "region": "jiugong1",
    "unit_price": 50.1,
    "lat": 39.806539,
    "lng": 116.429054
  },
  {
    "title": "整租·朗润园二期 2室1厅 南",
    "community": "朗润园二期",
    "area": "87.00",
    "rooms": "2室1厅",
    "direction": "南",
    "floor": "",
    "price": "7500",
    "tags": "",
    "source": "",
    "url": "https://bj.lianjia.com/zufang/BJ2141579753113518080.html",
    "rent_type": "整租",
    "location": "大兴区-旧宫-朗润园二期",
    "scraped_at": "2026-05-02 22:06:39",
    "region": "jiugong1",
    "unit_price": 86.2,
    "lat": 39.803122,
    "lng": 116.453961
  },
  {
    "title": "整租·美利新世界 2室1厅 南/北",
    "community": "美利新世界",
    "area": "100.00",
    "rooms": "2室1厅",
    "direction": "南/北",
    "floor": "",
    "price": "4800",
    "tags": "",
    "source": "",
    "url": "https://bj.lianjia.com/zufang/BJ2141935652969644032.html",
    "rent_type": "整租",
    "location": "大兴区-旧宫-美利新世界",
    "scraped_at": "2026-05-02 22:06:37",
    "region": "jiugong1",
    "unit_price": 48.0,
    "lat": 39.809884,
    "lng": 116.442694
  },
  {
    "title": "整租·美利国际 4房间 东",
    "community": "美利国际 4房间 东",
    "area": "73.42",
    "rooms": "",
    "direction": "",
    "floor": "",
    "price": "3800",
    "tags": "",
    "source": "",
    "url": "https://bj.lianjia.com/zufang/BJ2161311427527180288.html",
    "rent_type": "整租",
    "location": "大兴区-旧宫-美利国际",
    "scraped_at": "2026-05-02 22:06:43",
    "region": "jiugong1",
    "unit_price": 51.8,
    "lat": 39.809884,
    "lng": 116.442694
  },
  {
    "title": "整租·巧克力城 3室1厅 南/北",
    "community": "巧克力城",
    "area": "109.15",
    "rooms": "3室1厅",
    "direction": "南/北",
    "floor": "",
    "price": "5800",
    "tags": "",
    "source": "",
    "url": "https://bj.lianjia.com/zufang/BJ2152004258122170368.html",
    "rent_type": "整租",
    "location": "大兴区-旧宫-巧克力城",
    "scraped_at": "2026-05-02 22:06:37",
    "region": "jiugong1",
    "unit_price": 53.1,
    "lat": 39.817507,
    "lng": 116.416916
  },
  {
    "title": "整租·东亚五环国际 3房间 东",
    "community": "东亚五环国际 3房间 东",
    "area": "94.00",
    "rooms": "",
    "direction": "",
    "floor": "",
    "price": "5500",
    "tags": "",
    "source": "",
    "url": "https://bj.lianjia.com/zufang/BJ2144691281454956544.html",
    "rent_type": "整租",
    "location": "大兴区-旧宫-东亚五环国际",
    "scraped_at": "2026-05-02 22:06:37",
    "region": "jiugong1",
    "unit_price": 58.5,
    "lat": 39.792866,
    "lng": 116.448209
  },
  {
    "title": "整租·芳源里 3室1厅 南/北",
    "community": "芳源里",
    "area": "106.84",
    "rooms": "3室1厅",
    "direction": "南/北",
    "floor": "",
    "price": "5733",
    "tags": "",
    "source": "",
    "url": "https://bj.lianjia.com/zufang/BJ2127965288845541376.html",
    "rent_type": "整租",
    "location": "大兴区-旧宫-芳源里",
    "scraped_at": "2026-05-02 22:06:37",
    "region": "jiugong1",
    "unit_price": 53.7,
    "lat": 39.785126,
    "lng": 116.411068
  },
  {
    "title": "整租·紫郡府 3室2厅 南/北",
    "community": "紫郡府",
    "area": "134.23",
    "rooms": "3室2厅",
    "direction": "南/北",
    "floor": "",
    "price": "9000",
    "tags": "",
    "source": "",
    "url": "https://bj.lianjia.com/zufang/BJ2122618760681488384.html",
    "rent_type": "整租",
    "location": "大兴区-旧宫-紫郡府",
    "scraped_at": "2026-05-02 22:06:39",
    "region": "jiugong1",
    "unit_price": 67.0,
    "lat": 39.801835,
    "lng": 116.450863
  },
  {
    "title": "整租·润枫锦尚 2室1厅 东",
    "community": "润枫锦尚",
    "area": "64.00",
    "rooms": "2室1厅",
    "direction": "东",
    "floor": "",
    "price": "3400",
    "tags": "",
    "source": "",
    "url": "https://bj.lianjia.com/zufang/BJ2114019875377643520.html",
    "rent_type": "整租",
    "location": "大兴区-旧宫-润枫锦尚",
    "scraped_at": "2026-05-02 22:06:39",
    "region": "jiugong1",
    "unit_price": 53.1,
    "lat": 39.790633,
    "lng": 116.422604
  },
  {
    "title": "整租·明悦湾 2室1厅 南/北",
    "community": "明悦湾",
    "area": "75.00",
    "rooms": "2室1厅",
    "direction": "南/北",
    "floor": "",
    "price": "4200",
    "tags": "",
    "source": "",
    "url": "https://bj.lianjia.com/zufang/BJ2157346375765852160.html",
    "rent_type": "整租",
    "location": "大兴区-旧宫-明悦湾",
    "scraped_at": "2026-05-02 22:06:39",
    "region": "jiugong1",
    "unit_price": 56.0,
    "lat": 39.799876,
    "lng": 116.444938
  },
  {
    "title": "整租·旧宫新苑南区 2室1厅 南/北",
    "community": "旧宫新苑南区",
    "area": "84.34",
    "rooms": "2室1厅",
    "direction": "南/北",
    "floor": "",
    "price": "4800",
    "tags": "",
    "source": "",
    "url": "https://bj.lianjia.com/zufang/BJ2160327553221394432.html",
    "rent_type": "整租",
    "location": "大兴区-旧宫-旧宫新苑南区",
    "scraped_at": "2026-05-02 22:06:39",
    "region": "jiugong1",
    "unit_price": 56.9,
    "lat": 39.797366,
    "lng": 116.448448
  },
  {
    "title": "整租·京能丨电建·洺悦湾 3室1厅 南/北",
    "community": "京能丨电建·洺悦湾",
    "area": "89.00",
    "rooms": "3室1厅",
    "direction": "南/北",
    "floor": "",
    "price": "7600",
    "tags": "",
    "source": "",
    "url": "https://bj.lianjia.com/zufang/BJ2158894928304799744.html",
    "rent_type": "整租",
    "location": "大兴区-旧宫-京能丨电建",
    "scraped_at": "2026-05-02 22:06:39",
    "region": "jiugong1",
    "unit_price": 85.4,
    "lat": 39.779416,
    "lng": 116.423988
  },
  {
    "title": "整租·云龙家园 2室1厅 南/北",
    "community": "云龙家园",
    "area": "90.00",
    "rooms": "2室1厅",
    "direction": "南/北",
    "floor": "",
    "price": "4400",
    "tags": "",
    "source": "",
    "url": "https://bj.lianjia.com/zufang/BJ2144643569976082432.html",
    "rent_type": "整租",
    "location": "大兴区-旧宫-云龙家园",
    "scraped_at": "2026-05-02 22:06:39",
    "region": "jiugong1",
    "unit_price": 48.9,
    "lat": 39.806539,
    "lng": 116.429054
  },
  {
    "title": "整租·富力盛悦居 3房间 北",
    "community": "富力盛悦居 3房间 北",
    "area": "134.34",
    "rooms": "",
    "direction": "",
    "floor": "",
    "price": "9000",
    "tags": "",
    "source": "",
    "url": "https://bj.lianjia.com/zufang/BJ2116180927267733504.html",
    "rent_type": "整租",
    "location": "大兴区-旧宫-富力盛悦居",
    "scraped_at": "2026-05-02 22:06:39",
    "region": "jiugong1",
    "unit_price": 67.0,
    "lat": 39.804886,
    "lng": 116.449328
  },
  {
    "title": "整租·亦庄北岸 2室1厅 西北",
    "community": "亦庄北岸",
    "area": "62.90",
    "rooms": "2室1厅",
    "direction": "西北",
    "floor": "",
    "price": "4200",
    "tags": "",
    "source": "",
    "url": "https://bj.lianjia.com/zufang/BJ2088130865488986112.html",
    "rent_type": "整租",
    "location": "大兴区-旧宫-亦庄北岸",
    "scraped_at": "2026-05-02 22:06:39",
    "region": "jiugong1",
    "unit_price": 66.8,
    "lat": 39.797539,
    "lng": 116.457319
  },
  {
    "title": "整租·国韵村 2室1厅 南",
    "community": "国韵村",
    "area": "85.59",
    "rooms": "2室1厅",
    "direction": "南",
    "floor": "",
    "price": "7000",
    "tags": "",
    "source": "",
    "url": "https://bj.lianjia.com/zufang/BJ2095445933746552832.html",
    "rent_type": "整租",
    "location": "大兴区-旧宫-国韵村",
    "scraped_at": "2026-05-02 22:06:39",
    "region": "jiugong1",
    "unit_price": 81.8,
    "lat": 39.803434,
    "lng": 116.450794
  },
  {
    "title": "整租·灵秀山庄 1室1厅 南",
    "community": "灵秀山庄",
    "area": "60.00",
    "rooms": "1室1厅",
    "direction": "南",
    "floor": "",
    "price": "4200",
    "tags": "",
    "source": "",
    "url": "https://bj.lianjia.com/zufang/BJ2159483478897328128.html",
    "rent_type": "整租",
    "location": "大兴区-旧宫-灵秀山庄",
    "scraped_at": "2026-05-02 22:06:39",
    "region": "jiugong1",
    "unit_price": 70.0,
    "lat": 39.799101,
    "lng": 116.449972
  },
  {
    "title": "整租·亲亲我家 5室2厅 南/北",
    "community": "亲亲我家",
    "area": "1600.00",
    "rooms": "5室2厅",
    "direction": "南/北",
    "floor": "",
    "price": "100000",
    "tags": "",
    "source": "",
    "url": "https://bj.lianjia.com/zufang/BJ2145094501750800384.html",
    "rent_type": "整租",
    "location": "大兴区-旧宫-亲亲我家",
    "scraped_at": "2026-05-02 22:06:39",
    "region": "jiugong1",
    "unit_price": 62.5,
    "lat": 39.805132,
    "lng": 116.447796
  },
  {
    "title": "整租·中南湾 2室1厅 南/北",
    "community": "中南湾",
    "area": "96.70",
    "rooms": "2室1厅",
    "direction": "南/北",
    "floor": "",
    "price": "5200",
    "tags": "",
    "source": "",
    "url": "https://bj.lianjia.com/zufang/BJ2151325972152975360.html",
    "rent_type": "整租",
    "location": "大兴区-旧宫-中南湾",
    "scraped_at": "2026-05-02 22:06:39",
    "region": "jiugong1",
    "unit_price": 53.8,
    "lat": 39.811134,
    "lng": 116.430799
  },
  {
    "title": "整租·清和园 2室1厅 南/北",
    "community": "清和园",
    "area": "71.57",
    "rooms": "2室1厅",
    "direction": "南/北",
    "floor": "",
    "price": "3800",
    "tags": "",
    "source": "",
    "url": "https://bj.lianjia.com/zufang/BJ2160652726759849984.html",
    "rent_type": "整租",
    "location": "大兴区-旧宫-清和园",
    "scraped_at": "2026-05-02 22:06:39",
    "region": "jiugong1",
    "unit_price": 53.1,
    "lat": 39.804946,
    "lng": 116.426163
  },
  {
    "title": "整租·清和园 3室1厅 南/北",
    "community": "清和园",
    "area": "91.30",
    "rooms": "3室1厅",
    "direction": "南/北",
    "floor": "",
    "price": "4500",
    "tags": "",
    "source": "",
    "url": "https://bj.lianjia.com/zufang/BJ2158190705862770688.html",
    "rent_type": "整租",
    "location": "大兴区-旧宫-清和园",
    "scraped_at": "2026-05-02 22:06:46",
    "region": "jiugong1",
    "unit_price": 49.3,
    "lat": 39.804946,
    "lng": 116.426163
  },
  {
    "title": "整租·灵秀山庄 2室1厅 南/北",
    "community": "灵秀山庄",
    "area": "95.01",
    "rooms": "2室1厅",
    "direction": "南/北",
    "floor": "",
    "price": "4500",
    "tags": "",
    "source": "",
    "url": "https://bj.lianjia.com/zufang/BJ1739483152394485760.html",
    "rent_type": "整租",
    "location": "大兴区-旧宫-灵秀山庄",
    "scraped_at": "2026-05-02 22:06:46",
    "region": "jiugong1",
    "unit_price": 47.4,
    "lat": 39.799101,
    "lng": 116.449972
  },
  {
    "title": "整租·京能丨电建·洺悦湾 3室1厅 南/北",
    "community": "京能丨电建·洺悦湾",
    "area": "89.02",
    "rooms": "3室1厅",
    "direction": "南/北",
    "floor": "",
    "price": "6500",
    "tags": "",
    "source": "",
    "url": "https://bj.lianjia.com/zufang/BJ1751577358084603904.html",
    "rent_type": "整租",
    "location": "大兴区-旧宫-京能丨电建",
    "scraped_at": "2026-05-02 22:06:46",
    "region": "jiugong1",
    "unit_price": 73.0,
    "lat": 39.779416,
    "lng": 116.423988
  },
  {
    "title": "整租·广安康璟家园 2室1厅 南/北",
    "community": "广安康璟家园",
    "area": "88.00",
    "rooms": "2室1厅",
    "direction": "南/北",
    "floor": "",
    "price": "5460",
    "tags": "",
    "source": "",
    "url": "https://bj.lianjia.com/zufang/BJ1938469795603152896.html",
    "rent_type": "整租",
    "location": "大兴区-旧宫-广安康璟家园",
    "scraped_at": "2026-05-02 22:06:46",
    "region": "jiugong1",
    "unit_price": 62.0,
    "lat": 39.77919,
    "lng": 116.41412
  },
  {
    "title": "整租·朗润园二期 2室1厅 南/北",
    "community": "朗润园二期",
    "area": "88.59",
    "rooms": "2室1厅",
    "direction": "南/北",
    "floor": "",
    "price": "7140",
    "tags": "",
    "source": "",
    "url": "https://bj.lianjia.com/zufang/BJ1951251116905725952.html",
    "rent_type": "整租",
    "location": "大兴区-旧宫-朗润园二期",
    "scraped_at": "2026-05-02 22:06:43",
    "region": "jiugong1",
    "unit_price": 80.6,
    "lat": 39.803122,
    "lng": 116.453961
  },
  {
    "title": "整租·云龙家园 1室1厅 南/北",
    "community": "云龙家园",
    "area": "71.05",
    "rooms": "1室1厅",
    "direction": "南/北",
    "floor": "",
    "price": "3500",
    "tags": "",
    "source": "",
    "url": "https://bj.lianjia.com/zufang/BJ1952010127569584128.html",
    "rent_type": "整租",
    "location": "大兴区-旧宫-云龙家园",
    "scraped_at": "2026-05-02 22:06:43",
    "region": "jiugong1",
    "unit_price": 49.3,
    "lat": 39.806539,
    "lng": 116.429054
  },
  {
    "title": "整租·南街福苑 3室1厅 南/北",
    "community": "南街福苑",
    "area": "121.91",
    "rooms": "3室1厅",
    "direction": "南/北",
    "floor": "",
    "price": "7000",
    "tags": "",
    "source": "",
    "url": "https://bj.lianjia.com/zufang/BJ2019736938986078208.html",
    "rent_type": "整租",
    "location": "大兴区-旧宫-南街福苑",
    "scraped_at": "2026-05-02 22:06:39",
    "region": "jiugong1",
    "unit_price": 57.4,
    "lat": 39.754246,
    "lng": 116.341188
  },
  {
    "title": "整租·广安康璟家园 2室1厅 南",
    "community": "广安康璟家园",
    "area": "85.00",
    "rooms": "2室1厅",
    "direction": "南",
    "floor": "",
    "price": "5200",
    "tags": "",
    "source": "",
    "url": "https://bj.lianjia.com/zufang/BJ2160748668255207424.html",
    "rent_type": "整租",
    "location": "大兴区-旧宫-广安康璟家园",
    "scraped_at": "2026-05-02 22:06:43",
    "region": "jiugong1",
    "unit_price": 61.2,
    "lat": 39.77919,
    "lng": 116.41412
  },
  {
    "title": "整租·红星楼 2室1厅 南/北",
    "community": "红星楼",
    "area": "55.80",
    "rooms": "2室1厅",
    "direction": "南/北",
    "floor": "",
    "price": "3150",
    "tags": "",
    "source": "",
    "url": "https://bj.lianjia.com/zufang/BJ1905839846463635456.html",
    "rent_type": "整租",
    "location": "大兴区-旧宫-红星楼",
    "scraped_at": "2026-05-02 22:06:43",
    "region": "jiugong1",
    "unit_price": 56.5,
    "lat": 39.80402,
    "lng": 116.420554
  },
  {
    "title": "整租·美利新世界 2室2厅 南/北",
    "community": "美利新世界",
    "area": "100.04",
    "rooms": "2室2厅",
    "direction": "南/北",
    "floor": "",
    "price": "4800",
    "tags": "",
    "source": "",
    "url": "https://bj.lianjia.com/zufang/BJ1890326698721804288.html",
    "rent_type": "整租",
    "location": "大兴区-旧宫-美利新世界",
    "scraped_at": "2026-05-02 22:06:43",
    "region": "jiugong1",
    "unit_price": 48.0,
    "lat": 39.809884,
    "lng": 116.442694
  },
  {
    "title": "整租·美然绿色家园 2室1厅 南/北",
    "community": "美然绿色家园",
    "area": "76.94",
    "rooms": "2室1厅",
    "direction": "南/北",
    "floor": "",
    "price": "4600",
    "tags": "",
    "source": "",
    "url": "https://bj.lianjia.com/zufang/BJ1895337326305869824.html",
    "rent_type": "整租",
    "location": "大兴区-旧宫-美然绿色家园",
    "scraped_at": "2026-05-02 22:06:43",
    "region": "jiugong1",
    "unit_price": 59.8,
    "lat": 39.800875,
    "lng": 116.447418
  },
  {
    "title": "整租·清和园 3室1厅 南/北",
    "community": "清和园",
    "area": "91.30",
    "rooms": "3室1厅",
    "direction": "南/北",
    "floor": "",
    "price": "4500",
    "tags": "",
    "source": "",
    "url": "https://bj.lianjia.com/zufang/BJ1895336472735645696.html",
    "rent_type": "整租",
    "location": "大兴区-旧宫-清和园",
    "scraped_at": "2026-05-02 22:06:43",
    "region": "jiugong1",
    "unit_price": 49.3,
    "lat": 39.804946,
    "lng": 116.426163
  },
  {
    "title": "整租·芳源里 2室2厅 南/北",
    "community": "芳源里",
    "area": "99.00",
    "rooms": "2室2厅",
    "direction": "南/北",
    "floor": "",
    "price": "4400",
    "tags": "",
    "source": "",
    "url": "https://bj.lianjia.com/zufang/BJ1740968370959810560.html",
    "rent_type": "整租",
    "location": "大兴区-旧宫-芳源里",
    "scraped_at": "2026-05-02 22:06:43",
    "region": "jiugong1",
    "unit_price": 44.4,
    "lat": 39.785126,
    "lng": 116.411068
  },
  {
    "title": "整租·广安康璟家园 1室1厅 南",
    "community": "广安康璟家园",
    "area": "68.24",
    "rooms": "1室1厅",
    "direction": "南",
    "floor": "",
    "price": "4000",
    "tags": "",
    "source": "",
    "url": "https://bj.lianjia.com/zufang/BJ1743175635540377600.html",
    "rent_type": "整租",
    "location": "大兴区-旧宫-广安康璟家园",
    "scraped_at": "2026-05-02 22:06:43",
    "region": "jiugong1",
    "unit_price": 58.6,
    "lat": 39.77919,
    "lng": 116.41412
  },
  {
    "title": "整租·育龙家园 3室1厅 南/北",
    "community": "育龙家园",
    "area": "117.00",
    "rooms": "3室1厅",
    "direction": "南/北",
    "floor": "",
    "price": "6000",
    "tags": "",
    "source": "",
    "url": "https://bj.lianjia.com/zufang/BJ1743609793337098240.html",
    "rent_type": "整租",
    "location": "大兴区-旧宫-育龙家园",
    "scraped_at": "2026-05-02 22:06:43",
    "region": "jiugong1",
    "unit_price": 51.3,
    "lat": 39.800794,
    "lng": 116.440574
  },
  {
    "title": "整租·广安康璟家园 1室1厅 南",
    "community": "广安康璟家园",
    "area": "68.00",
    "rooms": "1室1厅",
    "direction": "南",
    "floor": "",
    "price": "3300",
    "tags": "",
    "source": "",
    "url": "https://bj.lianjia.com/zufang/BJ1753000270230454272.html",
    "rent_type": "整租",
    "location": "大兴区-旧宫-广安康璟家园",
    "scraped_at": "2026-05-02 22:07:10",
    "region": "jiugong1",
    "unit_price": 48.5,
    "lat": 39.77919,
    "lng": 116.41412
  },
  {
    "title": "整租·清欣园 2室1厅 南/北",
    "community": "清欣园",
    "area": "69.60",
    "rooms": "2室1厅",
    "direction": "南/北",
    "floor": "",
    "price": "3400",
    "tags": "",
    "source": "",
    "url": "https://bj.lianjia.com/zufang/BJ1760541266052907008.html",
    "rent_type": "整租",
    "location": "大兴区-旧宫-清欣园",
    "scraped_at": "2026-05-02 22:07:10",
    "region": "jiugong1",
    "unit_price": 48.9,
    "lat": 39.806424,
    "lng": 116.43746
  },
  {
    "title": "整租·广安康璟家园 1室1厅 南",
    "community": "广安康璟家园",
    "area": "68.00",
    "rooms": "1室1厅",
    "direction": "南",
    "floor": "",
    "price": "3900",
    "tags": "",
    "source": "",
    "url": "https://bj.lianjia.com/zufang/BJ1772203557714395136.html",
    "rent_type": "整租",
    "location": "大兴区-旧宫-广安康璟家园",
    "scraped_at": "2026-05-02 22:06:43",
    "region": "jiugong1",
    "unit_price": 57.4,
    "lat": 39.77919,
    "lng": 116.41412
  },
  {
    "title": "整租·芳源里 2室2厅 南/北",
    "community": "芳源里",
    "area": "87.22",
    "rooms": "2室2厅",
    "direction": "南/北",
    "floor": "",
    "price": "4200",
    "tags": "",
    "source": "",
    "url": "https://bj.lianjia.com/zufang/BJ1780244704818888704.html",
    "rent_type": "整租",
    "location": "大兴区-旧宫-芳源里",
    "scraped_at": "2026-05-02 22:06:43",
    "region": "jiugong1",
    "unit_price": 48.2,
    "lat": 39.785126,
    "lng": 116.411068
  },
  {
    "title": "整租·宣颐家园 2室1厅 西",
    "community": "宣颐家园",
    "area": "37.03",
    "rooms": "2室1厅",
    "direction": "西",
    "floor": "",
    "price": "2900",
    "tags": "",
    "source": "",
    "url": "https://bj.lianjia.com/zufang/BJ1786668642553823232.html",
    "rent_type": "整租",
    "location": "大兴区-旧宫-宣颐家园",
    "scraped_at": "2026-05-02 22:07:10",
    "region": "jiugong1",
    "unit_price": 78.3,
    "lat": 39.809038,
    "lng": 116.449302
  },
  {
    "title": "整租·清乐园 2室1厅 南/北",
    "community": "清乐园",
    "area": "75.50",
    "rooms": "2室1厅",
    "direction": "南/北",
    "floor": "",
    "price": "3300",
    "tags": "",
    "source": "",
    "url": "https://bj.lianjia.com/zufang/BJ1623184562186092544.html",
    "rent_type": "整租",
    "location": "大兴区-旧宫-清乐园",
    "scraped_at": "2026-05-02 22:07:10",
    "region": "jiugong1",
    "unit_price": 43.7,
    "lat": 39.802379,
    "lng": 116.427194
  },
  {
    "title": "整租·清和园 3室1厅 南/北",
    "community": "清和园",
    "area": "85.06",
    "rooms": "3室1厅",
    "direction": "南/北",
    "floor": "",
    "price": "4880",
    "tags": "",
    "source": "",
    "url": "https://bj.lianjia.com/zufang/BJ1648322332013363200.html",
    "rent_type": "整租",
    "location": "大兴区-旧宫-清和园",
    "scraped_at": "2026-05-02 22:06:43",
    "region": "jiugong1",
    "unit_price": 57.4,
    "lat": 39.804946,
    "lng": 116.426163
  },
  {
    "title": "整租·亦庄北岸 1室0厅 西",
    "community": "亦庄北岸",
    "area": "37.73",
    "rooms": "1室0厅",
    "direction": "西",
    "floor": "",
    "price": "3000",
    "tags": "",
    "source": "",
    "url": "https://bj.lianjia.com/zufang/BJ1890385753528074240.html",
    "rent_type": "整租",
    "location": "大兴区-旧宫-亦庄北岸",
    "scraped_at": "2026-05-02 22:06:43",
    "region": "jiugong1",
    "unit_price": 79.5,
    "lat": 39.797539,
    "lng": 116.457319
  },
  {
    "title": "整租·红星楼 2室1厅 南/北",
    "community": "红星楼",
    "area": "54.65",
    "rooms": "2室1厅",
    "direction": "南/北",
    "floor": "",
    "price": "3600",
    "tags": "",
    "source": "",
    "url": "https://bj.lianjia.com/zufang/BJ1891810463654608896.html",
    "rent_type": "整租",
    "location": "大兴区-旧宫-红星楼",
    "scraped_at": "2026-05-02 22:06:43",
    "region": "jiugong1",
    "unit_price": 65.9,
    "lat": 39.80402,
    "lng": 116.420554
  },
  {
    "title": "整租·大城小镇 1室1厅 南",
    "community": "大城小镇",
    "area": "71.65",
    "rooms": "1室1厅",
    "direction": "南",
    "floor": "",
    "price": "3100",
    "tags": "",
    "source": "",
    "url": "https://bj.lianjia.com/zufang/BJ1901529361148805120.html",
    "rent_type": "整租",
    "location": "大兴区-旧宫-大城小镇",
    "scraped_at": "2026-05-02 22:06:43",
    "region": "jiugong1",
    "unit_price": 43.3,
    "lat": 39.814091,
    "lng": 116.428662
  },
  {
    "title": "整租·宣颐家园 2室1厅 西南",
    "community": "宣颐家园",
    "area": "39.71",
    "rooms": "2室1厅",
    "direction": "西南",
    "floor": "",
    "price": "3200",
    "tags": "",
    "source": "",
    "url": "https://bj.lianjia.com/zufang/BJ1884546538017914880.html",
    "rent_type": "整租",
    "location": "大兴区-旧宫-宣颐家园",
    "scraped_at": "2026-05-02 22:06:43",
    "region": "jiugong1",
    "unit_price": 80.6,
    "lat": 39.809038,
    "lng": 116.449302
  },
  {
    "title": "整租·亦庄北岸 1室0厅 西",
    "community": "亦庄北岸",
    "area": "38.68",
    "rooms": "1室0厅",
    "direction": "西",
    "floor": "",
    "price": "3100",
    "tags": "",
    "source": "",
    "url": "https://bj.lianjia.com/zufang/BJ1886777727080464384.html",
    "rent_type": "整租",
    "location": "大兴区-旧宫-亦庄北岸",
    "scraped_at": "2026-05-02 22:06:43",
    "region": "jiugong1",
    "unit_price": 80.1,
    "lat": 39.797539,
    "lng": 116.457319
  },
  {
    "title": "整租·清和园 2室1厅 南/北",
    "community": "清和园",
    "area": "71.57",
    "rooms": "2室1厅",
    "direction": "南/北",
    "floor": "",
    "price": "4000",
    "tags": "",
    "source": "",
    "url": "https://bj.lianjia.com/zufang/BJ1874677659825340416.html",
    "rent_type": "整租",
    "location": "大兴区-旧宫-清和园",
    "scraped_at": "2026-05-02 22:07:10",
    "region": "jiugong1",
    "unit_price": 55.9,
    "lat": 39.804946,
    "lng": 116.426163
  },
  {
    "title": "整租·清逸西园 1室1厅 南",
    "community": "清逸西园",
    "area": "48.37",
    "rooms": "1室1厅",
    "direction": "南",
    "floor": "",
    "price": "3000",
    "tags": "",
    "source": "",
    "url": "https://bj.lianjia.com/zufang/BJ1887874003473793024.html",
    "rent_type": "整租",
    "location": "大兴区-旧宫-清逸西园",
    "scraped_at": "2026-05-02 22:06:43",
    "region": "jiugong1",
    "unit_price": 62.0,
    "lat": 39.802516,
    "lng": 116.438278
  },
  {
    "title": "整租·清逸园 2室1厅 南/北",
    "community": "清逸园",
    "area": "69.51",
    "rooms": "2室1厅",
    "direction": "南/北",
    "floor": "",
    "price": "3600",
    "tags": "",
    "source": "",
    "url": "https://bj.lianjia.com/zufang/BJ1888100634385711104.html",
    "rent_type": "整租",
    "location": "大兴区-旧宫-清逸园",
    "scraped_at": "2026-05-02 22:06:46",
    "region": "jiugong1",
    "unit_price": 51.8,
    "lat": 39.803586,
    "lng": 116.442618
  },
  {
    "title": "整租·巧克力城 1室1厅 南/北",
    "community": "巧克力城",
    "area": "53.90",
    "rooms": "1室1厅",
    "direction": "南/北",
    "floor": "",
    "price": "3500",
    "tags": "",
    "source": "",
    "url": "https://bj.lianjia.com/zufang/BJ1633077328386981888.html",
    "rent_type": "整租",
    "location": "大兴区-旧宫-巧克力城",
    "scraped_at": "2026-05-02 22:07:10",
    "region": "jiugong1",
    "unit_price": 64.9,
    "lat": 39.817507,
    "lng": 116.416916
  },