[
  {
    "title": "整租·密西花园三期 2室2厅 南/北",
    "community": "密西花园三期",
    "area": "94.98",
    "rooms": "2室2厅",
    "direction": "南/北",
    "floor": "",
    "price": "2200",
    "tags": "",
    "source": "",
    "url": "https://bj.lianjia.com/zufang/BJ2156317520510844928.html",
    "rent_type": "整租",
    "location": "密云区-果园街道-密西花园三期",
    "scraped_at": "2026-05-02 23:21:57",
    "region": "果园街道",
    "unit_price": 23.2,
    "lat": 40.38477,
    "lng": 116.837518
  },
  {
    "title": "整租·桃源公馆 3室2厅 南/北",
    "community": "桃源公馆",
    "area": "150.98",
    "rooms": "3室2厅",
    "direction": "南/北",
    "floor": "",
    "price": "2700",
    "tags": "",
    "source": "",
    "url": "https://bj.lianjia.com/zufang/BJ2105927020683722752.html",
    "rent_type": "整租",
    "location": "密云区-果园街道-桃源公馆",
    "scraped_at": "2026-05-02 23:21:57",
    "region": "果园街道",
    "unit_price": 17.9,
    "lat": 40.361495,
    "lng": 116.825789
  },
  {
    "title": "整租·瑞海姆公寓 2室2厅 南/北",
    "community": "瑞海姆公寓",
    "area": "126.42",
    "rooms": "2室2厅",
    "direction": "南/北",
    "floor": "",
    "price": "2500",
    "tags": "",
    "source": "",
    "url": "https://bj.lianjia.com/zufang/BJ2160743663775252480.html",
    "rent_type": "整租",
    "location": "密云区-果园街道-瑞海姆公寓",
    "scraped_at": "2026-05-02 23:21:57",
    "region": "果园街道",
    "unit_price": 19.8,
    "lat": 40.365066,
    "lng": 116.826078
  },
  {
    "title": "整租·康居南区 2室1厅 南/北",
    "community": "康居南区",
    "area": "91.32",
    "rooms": "2室1厅",
    "direction": "南/北",
    "floor": "",
    "price": "2100",
    "tags": "",
    "source": "",
    "url": "https://bj.lianjia.com/zufang/BJ2156018573468762112.html",
    "rent_type": "整租",
    "location": "密云区-果园街道-康居南区",
    "scraped_at": "2026-05-02 23:21:57",
    "region": "果园街道",
    "unit_price": 23.0,
    "lat": 40.377266,
    "lng": 116.830648
  },
  {
    "title": "整租·阳光水岸家园 1室1厅 南",
    "community": "阳光水岸家园",
    "area": "55.10",
    "rooms": "1室1厅",
    "direction": "南",
    "floor": "",
    "price": "1700",
    "tags": "",
    "source": "",
    "url": "https://bj.lianjia.com/zufang/BJ2154844272652713984.html",
    "rent_type": "整租",
    "location": "密云区-果园街道-阳光水岸家园",
    "scraped_at": "2026-05-02 23:21:57",
    "region": "果园街道",
    "unit_price": 30.9,
    "lat": 40.372526,
    "lng": 116.823428
  },
  {
    "title": "整租·中加锦园 3室1厅 南/北",
    "community": "中加锦园",
    "area": "128.80",
    "rooms": "3室1厅",
    "direction": "南/北",
    "floor": "",
    "price": "2800",
    "tags": "",
    "source": "",
    "url": "https://bj.lianjia.com/zufang/BJ2150878942859362304.html",
    "rent_type": "整租",
    "location": "密云区-果园街道-中加锦园",
    "scraped_at": "2026-05-02 23:21:57",
    "region": "果园街道",
    "unit_price": 21.7,
    "lat": 40.36512,
    "lng": 116.82203
  },
  {
    "title": "整租·涧桥山 4室2厅 南/北",
    "community": "涧桥山",
    "area": "179.08",
    "rooms": "4室2厅",
    "direction": "南/北",
    "floor": "",
    "price": "4500",
    "tags": "",
    "source": "",
    "url": "https://bj.lianjia.com/zufang/BJ2138527536760487936.html",
    "rent_type": "整租",
    "location": "密云区-果园街道-涧桥山",
    "scraped_at": "2026-05-02 23:21:57",
    "region": "果园街道",
    "unit_price": 25.1,
    "lat": 40.362676,
    "lng": 116.827278
  },
  {
    "title": "整租·果园西里 3室2厅 南/北",
    "community": "果园西里",
    "area": "108.00",
    "rooms": "3室2厅",
    "direction": "南/北",
    "floor": "",
    "price": "1600",
    "tags": "",
    "source": "",
    "url": "https://bj.lianjia.com/zufang/BJ2158407567666053120.html",
    "rent_type": "整租",
    "location": "密云区-果园街道-果园西里",
    "scraped_at": "2026-05-02 23:21:57",
    "region": "果园街道",
    "unit_price": 14.8,
    "lat": 40.37169,
    "lng": 116.821733
  },
  {
    "title": "整租·果园西里 2室2厅 南/北",
    "community": "果园西里",
    "area": "86.09",
    "rooms": "2室2厅",
    "direction": "南/北",
    "floor": "",
    "price": "1800",
    "tags": "",
    "source": "",
    "url": "https://bj.lianjia.com/zufang/BJ2151604200205713408.html",
    "rent_type": "整租",
    "location": "密云区-果园街道-果园西里",
    "scraped_at": "2026-05-02 23:21:57",
    "region": "果园街道",
    "unit_price": 20.9,
    "lat": 40.37169,
    "lng": 116.821733
  },
  {
    "title": "整租·阳光水岸家园 1室1厅 南",
    "community": "阳光水岸家园",
    "area": "50.40",
    "rooms": "1室1厅",
    "direction": "南",
    "floor": "",
    "price": "1700",
    "tags": "",
    "source": "",
    "url": "https://bj.lianjia.com/zufang/BJ2159281705737781248.html",
    "rent_type": "整租",
    "location": "密云区-果园街道-阳光水岸家园",
    "scraped_at": "2026-05-02 23:21:57",
    "region": "果园街道",
    "unit_price": 33.7,
    "lat": 40.372526,
    "lng": 116.823428
  },
  {
    "title": "整租·果园西里 2室2厅 南/北",
    "community": "果园西里",
    "area": "88.10",
    "rooms": "2室2厅",
    "direction": "南/北",
    "floor": "",
    "price": "1600",
    "tags": "",
    "source": "",
    "url": "https://bj.lianjia.com/zufang/BJ2148768947590135808.html",
    "rent_type": "整租",
    "location": "密云区-果园街道-果园西里",
    "scraped_at": "2026-05-02 23:21:57",
    "region": "果园街道",
    "unit_price": 18.2,
    "lat": 40.37169,
    "lng": 116.821733
  },
  {
    "title": "整租·果园西里 2室2厅 南/北",
    "community": "果园西里",
    "area": "80.80",
    "rooms": "2室2厅",
    "direction": "南/北",
    "floor": "",
    "price": "1600",
    "tags": "",
    "source": "",
    "url": "https://bj.lianjia.com/zufang/BJ2157037417318580224.html",
    "rent_type": "整租",
    "location": "密云区-果园街道-果园西里",
    "scraped_at": "2026-05-02 23:21:57",
    "region": "果园街道",
    "unit_price": 19.8,
    "lat": 40.37169,
    "lng": 116.821733
  },
  {
    "title": "整租·果园新里中区 2室1厅 南/北",
    "community": "果园新里中区",
    "area": "103.02",
    "rooms": "2室1厅",
    "direction": "南/北",
    "floor": "",
    "price": "1980",
    "tags": "",
    "source": "",
    "url": "https://bj.lianjia.com/zufang/BJ2092970029040533504.html",
    "rent_type": "整租",
    "location": "密云区-果园街道-果园新里中区",
    "scraped_at": "2026-05-02 23:21:57",
    "region": "果园街道",
    "unit_price": 19.2,
    "lat": 40.370234,
    "lng": 116.825959
  },
  {
    "title": "整租·康居南区 1室1厅 南/北",
    "community": "康居南区",
    "area": "100.00",
    "rooms": "1室1厅",
    "direction": "南/北",
    "floor": "",
    "price": "1000",
    "tags": "",
    "source": "",
    "url": "https://bj.lianjia.com/zufang/BJ2111701882874363904.html",
    "rent_type": "整租",
    "location": "密云区-果园街道-康居南区",
    "scraped_at": "2026-05-02 23:21:57",
    "region": "果园街道",
    "unit_price": 10.0,
    "lat": 40.377266,
    "lng": 116.830648
  },
  {
    "title": "整租·果园西路38号院 6室2厅 南/北",
    "community": "果园西路38号院",
    "area": "373.50",
    "rooms": "6室2厅",
    "direction": "南/北",
    "floor": "",
    "price": "5000",
    "tags": "",
    "source": "",
    "url": "https://bj.lianjia.com/zufang/BJ2139598597379850240.html",
    "rent_type": "整租",
    "location": "密云区-果园街道-果园西路",
    "scraped_at": "2026-05-02 23:21:57",
    "region": "果园街道",
    "unit_price": 13.4,
    "lat": 40.368691,
    "lng": 116.820718
  },
  {
    "title": "整租·滨河园 4室2厅 南/北",
    "community": "滨河园",
    "area": "230.09",
    "rooms": "4室2厅",
    "direction": "南/北",
    "floor": "",
    "price": "8000",
    "tags": "",
    "source": "",
    "url": "https://bj.lianjia.com/zufang/BJ2141766923195514880.html",
    "rent_type": "整租",
    "location": "密云区-果园街道-滨河园",
    "scraped_at": "2026-05-02 23:21:57",
    "region": "果园街道",
    "unit_price": 34.8,
    "lat": 40.385226,
    "lng": 116.839098
  },
  {
    "title": "整租·绿地·国际花都 2室2厅 南/北",
    "community": "绿地·国际花都",
    "area": "90.45",
    "rooms": "2室2厅",
    "direction": "南/北",
    "floor": "",
    "price": "2600",
    "tags": "",
    "source": "",
    "url": "https://bj.lianjia.com/zufang/BJ2123378039562698752.html",
    "rent_type": "整租",
    "location": "密云区-果园街道-绿地",
    "scraped_at": "2026-05-02 23:21:57",
    "region": "果园街道",
    "unit_price": 28.7,
    "lat": 40.382006,
    "lng": 116.830968
  },
  {
    "title": "整租·涧桥山 2室2厅 南/西",
    "community": "涧桥山",
    "area": "88.53",
    "rooms": "2室2厅",
    "direction": "南/西",
    "floor": "",
    "price": "2360",
    "tags": "",
    "source": "",
    "url": "https://bj.lianjia.com/zufang/BJ2152613099067146240.html",
    "rent_type": "整租",
    "location": "密云区-果园街道-涧桥山",
    "scraped_at": "2026-05-02 23:21:57",
    "region": "果园街道",
    "unit_price": 26.7,
    "lat": 40.362676,
    "lng": 116.827278
  },
  {
    "title": "整租·绿地·国际花都 2室1厅 南/北",
    "community": "绿地·国际花都",
    "area": "91.78",
    "rooms": "2室1厅",
    "direction": "南/北",
    "floor": "",
    "price": "2700",
    "tags": "",
    "source": "",
    "url": "https://bj.lianjia.com/zufang/BJ2130984294296846336.html",
    "rent_type": "整租",
    "location": "密云区-果园街道-绿地",
    "scraped_at": "2026-05-02 23:21:57",
    "region": "果园街道",
    "unit_price": 29.4,
    "lat": 40.382006,
    "lng": 116.830968
  },
  {
    "title": "整租·果园西里 3室2厅 南/北",
    "community": "果园西里",
    "area": "76.95",
    "rooms": "3室2厅",
    "direction": "南/北",
    "floor": "",
    "price": "1600",
    "tags": "",
    "source": "",
    "url": "https://bj.lianjia.com/zufang/BJ2137752849734434816.html",
    "rent_type": "整租",
    "location": "密云区-果园街道-果园西里",
    "scraped_at": "2026-05-02 23:21:57",
    "region": "果园街道",
    "unit_price": 20.8,
    "lat": 40.37169,
    "lng": 116.821733
  },
  {
    "title": "整租·果园新里中区 2室1厅 南/北",
    "community": "果园新里中区",
    "area": "61.46",
    "rooms": "2室1厅",
    "direction": "南/北",
    "floor": "",
    "price": "1100",
    "tags": "",
    "source": "",
    "url": "https://bj.lianjia.com/zufang/BJ2049786888574730240.html",
    "rent_type": "整租",
    "location": "密云区-果园街道-果园新里中区",
    "scraped_at": "2026-05-02 23:21:57",
    "region": "果园街道",
    "unit_price": 17.9,
    "lat": 40.370234,
    "lng": 116.825959
  },
  {
    "title": "整租·滨河园 4室2厅 复式 南/北",
    "community": "滨河园",
    "area": "176.63",
    "rooms": "4室2厅",
    "direction": "",
    "floor": "",
    "price": "5220",
    "tags": "",
    "source": "",
    "url": "https://bj.lianjia.com/zufang/BJ2108095539416399872.html",
    "rent_type": "整租",
    "location": "密云区-果园街道-滨河园",
    "scraped_at": "2026-05-02 23:21:57",
    "region": "果园街道",
    "unit_price": 29.6,
    "lat": 40.385226,
    "lng": 116.839098
  },
  {
    "title": "整租·果园西里 2室2厅 南/北",
    "community": "果园西里",
    "area": "80.61",
    "rooms": "2室2厅",
    "direction": "南/北",
    "floor": "",
    "price": "1200",
    "tags": "",
    "source": "",
    "url": "https://bj.lianjia.com/zufang/BJ1962861471805210624.html",
    "rent_type": "整租",
    "location": "密云区-果园街道-果园西里",
    "scraped_at": "2026-05-02 23:21:57",
    "region": "果园街道",
    "unit_price": 14.9,
    "lat": 40.37169,
    "lng": 116.821733
  },
  {
    "title": "整租·国际花都 1室1厅 南",
    "community": "国际花都",
    "area": "48.78",
    "rooms": "1室1厅",
    "direction": "南",
    "floor": "",
    "price": "1900",
    "tags": "",
    "source": "",
    "url": "https://bj.lianjia.com/zufang/BJ2155203639424057344.html",
    "rent_type": "整租",
    "location": "密云区-果园街道-国际花都",
    "scraped_at": "2026-05-02 23:21:57",
    "region": "果园街道",
    "unit_price": 39.0,
    "lat": 40.383326,
    "lng": 116.830158
  },
  {
    "title": "整租·密西花园二期 3室2厅 南/北",
    "community": "密西花园二期",
    "area": "122.31",
    "rooms": "3室2厅",
    "direction": "南/北",
    "floor": "",
    "price": "1500",
    "tags": "",
    "source": "",
    "url": "https://bj.lianjia.com/zufang/BJ2130143000385290240.html",
    "rent_type": "整租",
    "location": "密云区-果园街道-密西花园二期",
    "scraped_at": "2026-05-02 23:21:57",
    "region": "果园街道",
    "unit_price": 12.3,
    "lat": 40.387276,
    "lng": 116.833018
  },
  {
    "title": "整租·果园新里中区 2室1厅 南/北",
    "community": "果园新里中区",
    "area": "61.46",
    "rooms": "2室1厅",
    "direction": "南/北",
    "floor": "",
    "price": "1500",
    "tags": "",
    "source": "",
    "url": "https://bj.lianjia.com/zufang/BJ2093639103626084352.html",
    "rent_type": "整租",
    "location": "密云区-果园街道-果园新里中区",
    "scraped_at": "2026-05-02 23:21:57",
    "region": "果园街道",
    "unit_price": 24.4,
    "lat": 40.370234,
    "lng": 116.825959
  },
  {
    "title": "整租·康居家园 2室2厅 南/北",
    "community": "康居家园",
    "area": "99.86",
    "rooms": "2室2厅",
    "direction": "南/北",
    "floor": "",
    "price": "1500",
    "tags": "",
    "source": "",
    "url": "https://bj.lianjia.com/zufang/BJ2073646827462197248.html",
    "rent_type": "整租",
    "location": "密云区-果园街道-康居家园",
    "scraped_at": "2026-05-02 23:21:57",
    "region": "果园街道",
    "unit_price": 15.0,
    "lat": 40.377274,
    "lng": 116.830917
  },
  {
    "title": "整租·果园西里 2室1厅 南/北",
    "community": "果园西里",
    "area": "62.18",
    "rooms": "2室1厅",
    "direction": "南/北",
    "floor": "",
    "price": "2100",
    "tags": "",
    "source": "",
    "url": "https://bj.lianjia.com/zufang/BJ2145900323359686656.html",
    "rent_type": "整租",
    "location": "密云区-果园街道-果园西里",
    "scraped_at": "2026-05-02 23:21:57",
    "region": "果园街道",
    "unit_price": 33.8,
    "lat": 40.37169,
    "lng": 116.821733
  },
  {
    "title": "整租·果园新里北区 2室1厅 南",
    "community": "果园新里北区",
    "area": "58.14",
    "rooms": "2室1厅",
    "direction": "南",
    "floor": "",
    "price": "1500",
    "tags": "",
    "source": "",
    "url": "https://bj.lianjia.com/zufang/BJ2159956098809856000.html",
    "rent_type": "整租",
    "location": "密云区-果园街道-果园新里北区",
    "scraped_at": "2026-05-02 23:21:57",
    "region": "果园街道",
    "unit_price": 25.8,
    "lat": 40.376032,
    "lng": 116.826068
  },
  {
    "title": "整租·果园新里中区 3室2厅 南/北",
    "community": "果园新里中区",
    "area": "115.76",
    "rooms": "3室2厅",
    "direction": "南/北",
    "floor": "",
    "price": "1800",
    "tags": "",
    "source": "",
    "url": "https://bj.lianjia.com/zufang/BJ2153847212696666112.html",
    "rent_type": "整租",
    "location": "密云区-果园街道-果园新里中区",
    "scraped_at": "2026-05-02 23:21:57",
    "region": "果园街道",
    "unit_price": 15.5,
    "lat": 40.370234,
    "lng": 116.825959
  }
]