[
  {
    "title": "整租·康城别墅二期 8室2厅 南/北",
    "community": "康城别墅二期",
    "area": "274.70",
    "rooms": "8室2厅",
    "direction": "南/北",
    "floor": "",
    "price": "18000",
    "tags": "",
    "source": "",
    "url": "https://bj.lianjia.com/zufang/BJ2136424180273381376.html",
    "rent_type": "整租",
    "location": "朝阳区-双桥-康城别墅二期",
    "scraped_at": "2026-05-02 21:03:11",
    "region": "shuangqiao",
    "unit_price": 65.5,
    "lat": 39.885616,
    "lng": 116.601418
  },
  {
    "title": "整租·朝阳旺角 1室0厅 北",
    "community": "朝阳旺角",
    "area": "44.39",
    "rooms": "1室0厅",
    "direction": "北",
    "floor": "",
    "price": "3300",
    "tags": "",
    "source": "",
    "url": "https://bj.lianjia.com/zufang/BJ1949642991849177088.html",
    "rent_type": "整租",
    "location": "朝阳区-双桥-朝阳旺角",
    "scraped_at": "2026-05-02 21:04:24",
    "region": "shuangqiao",
    "unit_price": 74.3,
    "lat": 39.903703,
    "lng": 116.580949
  },
  {
    "title": "整租·远洋一方溪语苑 3室2厅 南/北",
    "community": "远洋一方溪语苑",
    "area": "128.00",
    "rooms": "3室2厅",
    "direction": "南/北",
    "floor": "",
    "price": "8000",
    "tags": "",
    "source": "",
    "url": "https://bj.lianjia.com/zufang/BJ2153045717831122944.html",
    "rent_type": "整租",
    "location": "朝阳区-双桥-远洋一方溪语苑",
    "scraped_at": "2026-05-02 21:03:11",
    "region": "shuangqiao",
    "unit_price": 62.5,
    "lat": 39.907713,
    "lng": 116.572868
  },
  {
    "title": "整租·金隅可乐 3房间 西南",
    "community": "金隅可乐 3房间 西南",
    "area": "97.00",
    "rooms": "",
    "direction": "",
    "floor": "",
    "price": "5500",
    "tags": "",
    "source": "",
    "url": "https://bj.lianjia.com/zufang/BJ2102971769399803904.html",
    "rent_type": "整租",
    "location": "朝阳区-双桥-金隅可乐",
    "scraped_at": "2026-05-02 21:03:11",
    "region": "shuangqiao",
    "unit_price": 56.7,
    "lat": 39.902629,
    "lng": 116.570385
  },
  {
    "title": "整租·玲珑山 2房间 南",
    "community": "玲珑山 2房间 南",
    "area": "53.60",
    "rooms": "",
    "direction": "",
    "floor": "",
    "price": "4600",
    "tags": "",
    "source": "",
    "url": "https://bj.lianjia.com/zufang/BJ2148072376682676224.html",
    "rent_type": "整租",
    "location": "朝阳区-双桥-玲珑山",
    "scraped_at": "2026-05-02 21:04:20",
    "region": "shuangqiao",
    "unit_price": 85.8,
    "lat": 39.907713,
    "lng": 116.572868
  },
  {
    "title": "独栋·超级蜂巢 国际网红社区（高碑店） 3、【1号线销冠王】民电社区！0杂费！国际网红直播基地 中介勿扰 1室1厅",
    "community": "超级蜂巢 国际网红社区（高碑店） 3、【1号线销冠王】民电社区！0杂费！国际网红直播基地 中介勿扰",
    "area": "35.00",
    "rooms": "1室1厅",
    "direction": "",
    "floor": "",
    "price": "2900-3400",
    "tags": "",
    "source": "",
    "url": "https://bj.lianjia.com/apartment/89101.html",
    "rent_type": "独栋",
    "location": "",
    "scraped_at": "2026-05-02 21:03:22",
    "region": "shuangqiao",
    "unit_price": "",
    "lat": 39.908224,
    "lng": 116.492463
  },
  {
    "title": "整租·珠江绿洲 3室1厅 西南",
    "community": "珠江绿洲",
    "area": "144.13",
    "rooms": "3室1厅",
    "direction": "西南",
    "floor": "",
    "price": "9000",
    "tags": "",
    "source": "",
    "url": "https://bj.lianjia.com/zufang/BJ2155953666920546304.html",
    "rent_type": "整租",
    "location": "朝阳区-双桥-珠江绿洲",
    "scraped_at": "2026-05-02 21:03:28",
    "region": "shuangqiao",
    "unit_price": 62.4,
    "lat": 39.907713,
    "lng": 116.572868
  },
  {
    "title": "整租·水郡长安 3室2厅 南/北",
    "community": "水郡长安",
    "area": "154.81",
    "rooms": "3室2厅",
    "direction": "南/北",
    "floor": "",
    "price": "7500",
    "tags": "",
    "source": "",
    "url": "https://bj.lianjia.com/zufang/BJ2150077064772845568.html",
    "rent_type": "整租",
    "location": "朝阳区-双桥-水郡长安",
    "scraped_at": "2026-05-02 21:03:30",
    "region": "shuangqiao",
    "unit_price": 48.4,
    "lat": 39.907713,
    "lng": 116.572868
  },
  {
    "title": "整租·康泉小区 2室1厅 南",
    "community": "康泉小区",
    "area": "89.00",
    "rooms": "2室1厅",
    "direction": "南",
    "floor": "",
    "price": "4600",
    "tags": "",
    "source": "",
    "url": "https://bj.lianjia.com/zufang/BJ2149095136871579648.html",
    "rent_type": "整租",
    "location": "朝阳区-双桥-康泉小区",
    "scraped_at": "2026-05-02 21:04:39",
    "region": "shuangqiao",
    "unit_price": 51.7,
    "lat": 39.905367,
    "lng": 116.573816
  },
  {
    "title": "整租·康泉小区 3室1厅 南/北",
    "community": "康泉小区",
    "area": "96.58",
    "rooms": "3室1厅",
    "direction": "南/北",
    "floor": "",
    "price": "6000",
    "tags": "",
    "source": "",
    "url": "https://bj.lianjia.com/zufang/BJ2157456923505459200.html",
    "rent_type": "整租",
    "location": "朝阳区-双桥-康泉小区",
    "scraped_at": "2026-05-02 21:03:28",
    "region": "shuangqiao",
    "unit_price": 62.1,
    "lat": 39.905367,
    "lng": 116.573816
  },
  {
    "title": "整租·京铁新苑 2室1厅 南/北",
    "community": "京铁新苑",
    "area": "90.35",
    "rooms": "2室1厅",
    "direction": "南/北",
    "floor": "",
    "price": "4000",
    "tags": "",
    "source": "",
    "url": "https://bj.lianjia.com/zufang/BJ2139349745276026880.html",
    "rent_type": "整租",
    "location": "朝阳区-双桥-京铁新苑",
    "scraped_at": "2026-05-02 21:03:11",
    "region": "shuangqiao",
    "unit_price": 44.3,
    "lat": 39.904116,
    "lng": 116.598428
  },
  {
    "title": "整租·管庄新村 2室1厅 南",
    "community": "管庄新村",
    "area": "80.00",
    "rooms": "2室1厅",
    "direction": "南",
    "floor": "",
    "price": "4200",
    "tags": "",
    "source": "",
    "url": "https://bj.lianjia.com/zufang/BJ2027373012872855552.html",
    "rent_type": "整租",
    "location": "朝阳区-双桥-管庄新村",
    "scraped_at": "2026-05-02 21:04:34",
    "region": "shuangqiao",
    "unit_price": 52.5,
    "lat": 39.901209,
    "lng": 116.593592
  },
  {
    "title": "整租·金隅康惠园2号院 2室1厅 西",
    "community": "金隅康惠园2号院",
    "area": "73.28",
    "rooms": "2室1厅",
    "direction": "西",
    "floor": "",
    "price": "4600",
    "tags": "",
    "source": "",
    "url": "https://bj.lianjia.com/zufang/BJ2155169335771922432.html",
    "rent_type": "整租",
    "location": "朝阳区-双桥-金隅康惠园",
    "scraped_at": "2026-05-02 21:03:28",
    "region": "shuangqiao",
    "unit_price": 62.8,
    "lat": 39.902629,
    "lng": 116.570385
  },
  {
    "title": "整租·万合辛悦家园C区 1室0厅 南",
    "community": "万合辛悦家园C区",
    "area": "50.00",
    "rooms": "1室0厅",
    "direction": "南",
    "floor": "",
    "price": "3100",
    "tags": "",
    "source": "",
    "url": "https://bj.lianjia.com/zufang/BJ2142215181516668928.html",
    "rent_type": "整租",
    "location": "朝阳区-双桥-万合辛悦家园",
    "scraped_at": "2026-05-02 21:03:11",
    "region": "shuangqiao",
    "unit_price": 62.0,
    "lat": 40.023775,
    "lng": 116.426746
  },
  {
    "title": "整租·玲珑山 1房间 西",
    "community": "玲珑山 1房间 西",
    "area": "48.17",
    "rooms": "",
    "direction": "",
    "floor": "",
    "price": "4000",
    "tags": "",
    "source": "",
    "url": "https://bj.lianjia.com/zufang/BJ2155254983241498624.html",
    "rent_type": "整租",
    "location": "朝阳区-双桥-玲珑山",
    "scraped_at": "2026-05-02 21:04:15",
    "region": "shuangqiao",
    "unit_price": 83.0,
    "lat": 39.907713,
    "lng": 116.572868
  },
  {
    "title": "整租·康城别墅二期 3室2厅 南/北",
    "community": "康城别墅二期",
    "area": "240.29",
    "rooms": "3室2厅",
    "direction": "南/北",
    "floor": "",
    "price": "13500",
    "tags": "",
    "source": "",
    "url": "https://bj.lianjia.com/zufang/BJ2106978519769677824.html",
    "rent_type": "整租",
    "location": "朝阳区-双桥-康城别墅二期",
    "scraped_at": "2026-05-02 21:03:11",
    "region": "shuangqiao",
    "unit_price": 56.2,
    "lat": 39.885616,
    "lng": 116.601418
  },
  {
    "title": "整租·朝阳旺角 3室1厅 南/北",
    "community": "朝阳旺角",
    "area": "139.20",
    "rooms": "3室1厅",
    "direction": "南/北",
    "floor": "",
    "price": "7200",
    "tags": "",
    "source": "",
    "url": "https://bj.lianjia.com/zufang/BJ2154205072806903808.html",
    "rent_type": "整租",
    "location": "朝阳区-双桥-朝阳旺角",
    "scraped_at": "2026-05-02 21:03:11",
    "region": "shuangqiao",
    "unit_price": 51.7,
    "lat": 39.903703,
    "lng": 116.580949
  },
  {
    "title": "整租·双桥六号井 2室1厅 南/北",
    "community": "双桥六号井",
    "area": "57.55",
    "rooms": "2室1厅",
    "direction": "南/北",
    "floor": "",
    "price": "3200",
    "tags": "",
    "source": "",
    "url": "https://bj.lianjia.com/zufang/BJ2147239029710520320.html",
    "rent_type": "整租",
    "location": "朝阳区-双桥-双桥六号井",
    "scraped_at": "2026-05-02 21:04:39",
    "region": "shuangqiao",
    "unit_price": 55.6,
    "lat": 39.88828,
    "lng": 116.597891
  },
  {
    "title": "整租·水郡长安 1室0厅 北",
    "community": "水郡长安",
    "area": "57.00",
    "rooms": "1室0厅",
    "direction": "北",
    "floor": "",
    "price": "4000",
    "tags": "",
    "source": "",
    "url": "https://bj.lianjia.com/zufang/BJ2121147698638749696.html",
    "rent_type": "整租",
    "location": "朝阳区-双桥-水郡长安",
    "scraped_at": "2026-05-02 21:03:11",
    "region": "shuangqiao",
    "unit_price": 70.2,
    "lat": 39.907713,
    "lng": 116.572868
  },
  {
    "title": "整租·玲珑山 5房间 南/北",
    "community": "玲珑山 5房间 南/北",
    "area": "138.56",
    "rooms": "",
    "direction": "",
    "floor": "",
    "price": "9000",
    "tags": "",
    "source": "",
    "url": "https://bj.lianjia.com/zufang/BJ2146514168935612416.html",
    "rent_type": "整租",
    "location": "朝阳区-双桥-玲珑山",
    "scraped_at": "2026-05-02 21:03:11",
    "region": "shuangqiao",
    "unit_price": 65.0,
    "lat": 39.907713,
    "lng": 116.572868
  },
  {
    "title": "整租·玲珑山 2房间 东",
    "community": "玲珑山 2房间 东",
    "area": "62.32",
    "rooms": "",
    "direction": "",
    "floor": "",
    "price": "4600",
    "tags": "",
    "source": "",
    "url": "https://bj.lianjia.com/zufang/BJ2150449597258924032.html",
    "rent_type": "整租",
    "location": "朝阳区-双桥-玲珑山",
    "scraped_at": "2026-05-02 21:04:20",
    "region": "shuangqiao",
    "unit_price": 73.8,
    "lat": 39.898564,
    "lng": 116.476279
  },
  {
    "title": "整租·远洋一方溪语苑 3室2厅 南/北",
    "community": "远洋一方溪语苑",
    "area": "128.41",
    "rooms": "3室2厅",
    "direction": "南/北",
    "floor": "",
    "price": "7200",
    "tags": "",
    "source": "",
    "url": "https://bj.lianjia.com/zufang/BJ2059993497154355200.html",
    "rent_type": "整租",
    "location": "朝阳区-双桥-远洋一方溪语苑",
    "scraped_at": "2026-05-02 21:03:11",
    "region": "shuangqiao",
    "unit_price": 56.1,
    "lat": 39.907713,
    "lng": 116.572868
  },
  {
    "title": "整租·金隅可乐 2房间 东南/西南",
    "community": "金隅可乐 2房间 东南/西南",
    "area": "60.00",
    "rooms": "",
    "direction": "",
    "floor": "",
    "price": "3800",
    "tags": "",
    "source": "",
    "url": "https://bj.lianjia.com/zufang/BJ2138128156781969408.html",
    "rent_type": "整租",
    "location": "朝阳区-双桥-金隅可乐",
    "scraped_at": "2026-05-02 21:03:28",
    "region": "shuangqiao",
    "unit_price": 63.3,
    "lat": 39.902629,
    "lng": 116.570385
  },
  {
    "title": "整租·寺锦苑 2室1厅 南",
    "community": "寺锦苑",
    "area": "86.23",
    "rooms": "2室1厅",
    "direction": "南",
    "floor": "",
    "price": "4800",
    "tags": "",
    "source": "",
    "url": "https://bj.lianjia.com/zufang/BJ2146568023257907200.html",
    "rent_type": "整租",
    "location": "朝阳区-双桥-寺锦苑",
    "scraped_at": "2026-05-02 21:04:39",
    "region": "shuangqiao",
    "unit_price": 55.7,
    "lat": 39.899486,
    "lng": 116.572118
  },
  {
    "title": "整租·管庄新村 2室1厅 南/北",
    "community": "管庄新村",
    "area": "80.00",
    "rooms": "2室1厅",
    "direction": "南/北",
    "floor": "",
    "price": "4300",
    "tags": "",
    "source": "",
    "url": "https://bj.lianjia.com/zufang/BJ2144382546505367552.html",
    "rent_type": "整租",
    "location": "朝阳区-双桥-管庄新村",
    "scraped_at": "2026-05-02 21:03:11",
    "region": "shuangqiao",
    "unit_price": 53.8,
    "lat": 39.901209,
    "lng": 116.593592
  },
  {
    "title": "独栋·1349轻社区 传媒大学店 采光好，包网络，无中介，欢迎咨询 2室1厅",
    "community": "1349轻社区 传媒大学店 采光好，包网络，无中介，欢迎咨询",
    "area": "80.00",
    "rooms": "2室1厅",
    "direction": "",
    "floor": "",
    "price": "5600",
    "tags": "",
    "source": "",
    "url": "https://bj.lianjia.com/apartment/99670.html",
    "rent_type": "独栋",
    "location": "",
    "scraped_at": "2026-05-02 21:03:11",
    "region": "shuangqiao",
    "unit_price": 70.0,
    "lat": 39.915984,
    "lng": 116.548511
  },
  {
    "title": "整租·东一时区 2室1厅 南/北",
    "community": "东一时区",
    "area": "85.69",
    "rooms": "2室1厅",
    "direction": "南/北",
    "floor": "",
    "price": "4700",
    "tags": "",
    "source": "",
    "url": "https://bj.lianjia.com/zufang/BJ2009452767239733248.html",
    "rent_type": "整租",
    "location": "朝阳区-双桥-东一时区",
    "scraped_at": "2026-05-02 21:03:11",
    "region": "shuangqiao",
    "unit_price": 54.8,
    "lat": 39.898547,
    "lng": 116.599195
  },
  {
    "title": "整租·水郡长安 3室2厅 南/西南",
    "community": "水郡长安",
    "area": "148.34",
    "rooms": "3室2厅",
    "direction": "南/西南",
    "floor": "",
    "price": "9000",
    "tags": "",
    "source": "",
    "url": "https://bj.lianjia.com/zufang/BJ2146826087890419712.html",
    "rent_type": "整租",
    "location": "朝阳区-双桥-水郡长安",
    "scraped_at": "2026-05-02 21:03:34",
    "region": "shuangqiao",
    "unit_price": 60.7,
    "lat": 39.907713,
    "lng": 116.572868
  },
  {
    "title": "整租·远洋一方林语苑 2室1厅 东南",
    "community": "远洋一方林语苑",
    "area": "91.40",
    "rooms": "2室1厅",
    "direction": "东南",
    "floor": "",
    "price": "5000",
    "tags": "",
    "source": "",
    "url": "https://bj.lianjia.com/zufang/BJ2128486170399604736.html",
    "rent_type": "整租",
    "location": "朝阳区-双桥-远洋一方林语苑",
    "scraped_at": "2026-05-02 21:03:15",
    "region": "shuangqiao",
    "unit_price": 54.7,
    "lat": 39.907713,
    "lng": 116.572868
  },
  {
    "title": "整租·双桥六号井 1室1厅 南",
    "community": "双桥六号井",
    "area": "56.62",
    "rooms": "1室1厅",
    "direction": "南",
    "floor": "",
    "price": "3200",
    "tags": "",
    "source": "",
    "url": "https://bj.lianjia.com/zufang/BJ2148060517300699136.html",
    "rent_type": "整租",
    "location": "朝阳区-双桥-双桥六号井",
    "scraped_at": "2026-05-02 21:04:20",
    "region": "shuangqiao",
    "unit_price": 56.5,
    "lat": 39.88828,
    "lng": 116.597891
  },
  {
    "title": "整租·北花园小区1号院 1室0厅 南",
    "community": "北花园小区1号院",
    "area": "52.00",
    "rooms": "1室0厅",
    "direction": "南",
    "floor": "",
    "price": "3800",
    "tags": "",
    "source": "",
    "url": "https://bj.lianjia.com/zufang/BJ2153145963626102784.html",
    "rent_type": "整租",
    "location": "朝阳区-双桥-北花园小区",
    "scraped_at": "2026-05-02 21:03:15",
    "region": "shuangqiao",
    "unit_price": 73.1,
    "lat": 39.902383,
    "lng": 116.553643
  },
  {
    "title": "整租·东一时区 3室2厅 南/西北",
    "community": "东一时区",
    "area": "122.24",
    "rooms": "3室2厅",
    "direction": "南/西北",
    "floor": "",
    "price": "6000",
    "tags": "",
    "source": "",
    "url": "https://bj.lianjia.com/zufang/BJ2003000991334531072.html",
    "rent_type": "整租",
    "location": "朝阳区-双桥-东一时区",
    "scraped_at": "2026-05-02 21:03:15",
    "region": "shuangqiao",
    "unit_price": 49.1,
    "lat": 39.898547,
    "lng": 116.599195
  },
  {
    "title": "整租·双桥五号井 2室1厅 南/北",
    "community": "双桥五号井",
    "area": "74.83",
    "rooms": "2室1厅",
    "direction": "南/北",
    "floor": "",
    "price": "3700",
    "tags": "",
    "source": "",
    "url": "https://bj.lianjia.com/zufang/BJ2158129617762779136.html",
    "rent_type": "整租",
    "location": "朝阳区-双桥-双桥五号井",
    "scraped_at": "2026-05-02 21:04:28",
    "region": "shuangqiao",
    "unit_price": 49.4,
    "lat": 39.88828,
    "lng": 116.597891
  },
  {
    "title": "整租·朝阳旺角 1室1厅 西南",
    "community": "朝阳旺角",
    "area": "70.65",
    "rooms": "1室1厅",
    "direction": "西南",
    "floor": "",
    "price": "4500",
    "tags": "",
    "source": "",
    "url": "https://bj.lianjia.com/zufang/BJ2157729142735372288.html",
    "rent_type": "整租",
    "location": "朝阳区-双桥-朝阳旺角",
    "scraped_at": "2026-05-02 21:03:15",
    "region": "shuangqiao",
    "unit_price": 63.7,
    "lat": 39.903703,
    "lng": 116.580949
  },
  {
    "title": "整租·远洋一方润园3号院 2室1厅 南/北",
    "community": "远洋一方润园3号院",
    "area": "74.57",
    "rooms": "2室1厅",
    "direction": "南/北",
    "floor": "",
    "price": "4800",
    "tags": "",
    "source": "",
    "url": "https://bj.lianjia.com/zufang/BJ2156622090634002432.html",
    "rent_type": "整租",
    "location": "朝阳区-双桥-远洋一方润园",
    "scraped_at": "2026-05-02 21:03:28",
    "region": "shuangqiao",
    "unit_price": 64.4,
    "lat": 39.907713,
    "lng": 116.572868
  },
  {
    "title": "整租·双桥嘉园 2室1厅 南/西/北",
    "community": "双桥嘉园",
    "area": "68.00",
    "rooms": "2室1厅",
    "direction": "南/西/北",
    "floor": "",
    "price": "3500",
    "tags": "",
    "source": "",
    "url": "https://bj.lianjia.com/zufang/BJ2140381225775267840.html",
    "rent_type": "整租",
    "location": "朝阳区-双桥-双桥嘉园",
    "scraped_at": "2026-05-02 21:04:39",
    "region": "shuangqiao",
    "unit_price": 51.5,
    "lat": 39.88828,
    "lng": 116.597891
  },
  {
    "title": "整租·玲珑山 2房间 西",
    "community": "玲珑山 2房间 西",
    "area": "68.05",
    "rooms": "",
    "direction": "",
    "floor": "",
    "price": "4700",
    "tags": "",
    "source": "",
    "url": "https://bj.lianjia.com/zufang/BJ2151643698662735872.html",
    "rent_type": "整租",
    "location": "朝阳区-双桥-玲珑山",
    "scraped_at": "2026-05-02 21:03:15",
    "region": "shuangqiao",
    "unit_price": 69.1,
    "lat": 39.907713,
    "lng": 116.572868
  },
  {
    "title": "整租·华美橡树岭 2室1厅 南",
    "community": "华美橡树岭",
    "area": "77.91",
    "rooms": "2室1厅",
    "direction": "南",
    "floor": "",
    "price": "4200",
    "tags": "",
    "source": "",
    "url": "https://bj.lianjia.com/zufang/BJ2151891446397927424.html",
    "rent_type": "整租",
    "location": "朝阳区-双桥-华美橡树岭",
    "scraped_at": "2026-05-02 21:03:15",
    "region": "shuangqiao",
    "unit_price": 53.9,
    "lat": 39.88582,
    "lng": 116.59339
  },
  {
    "title": "整租·乐栋300 2房间 西",
    "community": "乐栋300 2房间 西",
    "area": "51.93",
    "rooms": "",
    "direction": "",
    "floor": "",
    "price": "4000",
    "tags": "",
    "source": "",
    "url": "https://bj.lianjia.com/zufang/BJ1992589761486782464.html",
    "rent_type": "整租",
    "location": "朝阳区-双桥-乐栋",
    "scraped_at": "2026-05-02 21:04:24",
    "region": "shuangqiao",
    "unit_price": 77.0,
    "lat": 39.889406,
    "lng": 116.596945
  },
  {
    "title": "整租·玲珑山 2房间 南",
    "community": "玲珑山 2房间 南",
    "area": "68.00",
    "rooms": "",
    "direction": "",
    "floor": "",
    "price": "5200",
    "tags": "",
    "source": "",
    "url": "https://bj.lianjia.com/zufang/BJ2153879361160216576.html",
    "rent_type": "整租",
    "location": "朝阳区-双桥-玲珑山",
    "scraped_at": "2026-05-02 21:03:15",
    "region": "shuangqiao",
    "unit_price": 76.5,
    "lat": 39.907713,
    "lng": 116.572868
  },
  {
    "title": "整租·珠江绿洲 2室1厅 南/北",
    "community": "珠江绿洲",
    "area": "102.48",
    "rooms": "2室1厅",
    "direction": "南/北",
    "floor": "",
    "price": "6500",
    "tags": "",
    "source": "",
    "url": "https://bj.lianjia.com/zufang/BJ2160006463949373440.html",
    "rent_type": "整租",
    "location": "朝阳区-双桥-珠江绿洲",
    "scraped_at": "2026-05-02 21:03:15",
    "region": "shuangqiao",
    "unit_price": 63.4,
    "lat": 39.907713,
    "lng": 116.572868
  },
  {
    "title": "整租·北花园小区3号院 1室1厅 南",
    "community": "北花园小区3号院",
    "area": "51.98",
    "rooms": "1室1厅",
    "direction": "南",
    "floor": "",
    "price": "3780",
    "tags": "",
    "source": "",
    "url": "https://bj.lianjia.com/zufang/BJ1973311174359384064.html",
    "rent_type": "整租",
    "location": "朝阳区-双桥-北花园小区",
    "scraped_at": "2026-05-02 21:03:15",
    "region": "shuangqiao",
    "unit_price": 72.7,
    "lat": 39.902383,
    "lng": 116.553643
  },
  {
    "title": "整租·艺水芳园 1室1厅 西",
    "community": "艺水芳园",
    "area": "58.48",
    "rooms": "1室1厅",
    "direction": "西",
    "floor": "",
    "price": "4300",
    "tags": "",
    "source": "",
    "url": "https://bj.lianjia.com/zufang/BJ2159204291762454528.html",
    "rent_type": "整租",
    "location": "朝阳区-双桥-艺水芳园",
    "scraped_at": "2026-05-02 21:03:15",
    "region": "shuangqiao",
    "unit_price": 73.5,
    "lat": 39.907713,
    "lng": 116.572868
  },
  {
    "title": "整租·玲珑山 2房间 东",
    "community": "玲珑山 2房间 东",
    "area": "62.32",
    "rooms": "",
    "direction": "",
    "floor": "",
    "price": "5000",
    "tags": "",
    "source": "",
    "url": "https://bj.lianjia.com/zufang/BJ2151299724240486400.html",
    "rent_type": "整租",
    "location": "朝阳区-双桥-玲珑山",
    "scraped_at": "2026-05-02 21:03:30",
    "region": "shuangqiao",
    "unit_price": 80.2,
    "lat": 39.898564,
    "lng": 116.476279
  },
  {
    "title": "整租·金隅康惠园2号院 2室1厅 西南",
    "community": "金隅康惠园2号院",
    "area": "70.00",
    "rooms": "2室1厅",
    "direction": "西南",
    "floor": "",
    "price": "4800",
    "tags": "",
    "source": "",
    "url": "https://bj.lianjia.com/zufang/BJ1903393376447758336.html",
    "rent_type": "整租",
    "location": "朝阳区-双桥-金隅康惠园",
    "scraped_at": "2026-05-02 21:03:15",
    "region": "shuangqiao",
    "unit_price": 68.6,
    "lat": 39.902629,
    "lng": 116.570385
  },
  {
    "title": "整租·东一时区 5室2厅 南/北",
    "community": "东一时区",
    "area": "188.00",
    "rooms": "5室2厅",
    "direction": "南/北",
    "floor": "",
    "price": "12800",
    "tags": "",
    "source": "",
    "url": "https://bj.lianjia.com/zufang/BJ2151301971506626560.html",
    "rent_type": "整租",
    "location": "朝阳区-双桥-东一时区",
    "scraped_at": "2026-05-02 21:03:30",
    "region": "shuangqiao",
    "unit_price": 68.1,
    "lat": 39.898547,
    "lng": 116.599195
  },
  {
    "title": "整租·远洋一方润园2号院 3室2厅 南/北",
    "community": "远洋一方润园2号院",
    "area": "120.00",
    "rooms": "3室2厅",
    "direction": "南/北",
    "floor": "",
    "price": "7800",
    "tags": "",
    "source": "",
    "url": "https://bj.lianjia.com/zufang/BJ2151559655153729536.html",
    "rent_type": "整租",
    "location": "朝阳区-双桥-远洋一方润园",
    "scraped_at": "2026-05-02 21:03:15",
    "region": "shuangqiao",
    "unit_price": 65.0,
    "lat": 39.907713,
    "lng": 116.572868
  },
  {
    "title": "整租·双桥小区 2室1厅 南",
    "community": "双桥小区",
    "area": "87.79",
    "rooms": "2室1厅",
    "direction": "南",
    "floor": "",
    "price": "4300",
    "tags": "",
    "source": "",
    "url": "https://bj.lianjia.com/zufang/BJ2143371652027645952.html",
    "rent_type": "整租",
    "location": "朝阳区-双桥-双桥小区",
    "scraped_at": "2026-05-02 21:04:39",
    "region": "shuangqiao",
    "unit_price": 49.0,
    "lat": 39.88828,
    "lng": 116.597891
  },
  {
    "title": "整租·东一时区 1室0厅 北",
    "community": "东一时区",
    "area": "42.30",
    "rooms": "1室0厅",
    "direction": "北",
    "floor": "",
    "price": "3500",
    "tags": "",
    "source": "",
    "url": "https://bj.lianjia.com/zufang/BJ2153400623704309760.html",
    "rent_type": "整租",
    "location": "朝阳区-双桥-东一时区",
    "scraped_at": "2026-05-02 21:03:15",
    "region": "shuangqiao",
    "unit_price": 82.7,
    "lat": 39.898547,
    "lng": 116.599195
  },
  {
    "title": "整租·玲珑山 1房间 东",
    "community": "玲珑山 1房间 东",
    "area": "48.41",
    "rooms": "",
    "direction": "",
    "floor": "",
    "price": "4200",
    "tags": "",
    "source": "",
    "url": "https://bj.lianjia.com/zufang/BJ2153682093815627776.html",
    "rent_type": "整租",
    "location": "朝阳区-双桥-玲珑山",
    "scraped_at": "2026-05-02 21:03:15",
    "region": "shuangqiao",
    "unit_price": 86.8,
    "lat": 39.898564,
    "lng": 116.476279
  },
  {
    "title": "整租·双桥六号井 3室1厅 南/北",
    "community": "双桥六号井",
    "area": "73.94",
    "rooms": "3室1厅",
    "direction": "南/北",
    "floor": "",
    "price": "4200",
    "tags": "",
    "source": "",
    "url": "https://bj.lianjia.com/zufang/BJ2150115177637347328.html",
    "rent_type": "整租",
    "location": "朝阳区-双桥-双桥六号井",
    "scraped_at": "2026-05-02 21:04:39",
    "region": "shuangqiao",
    "unit_price": 56.8,
    "lat": 39.88828,
    "lng": 116.597891
  },
  {
    "title": "整租·双惠苑6号院 1室1厅 南/北",
    "community": "双惠苑6号院",
    "area": "63.72",
    "rooms": "1室1厅",
    "direction": "南/北",
    "floor": "",
    "price": "4500",
    "tags": "",
    "source": "",
    "url": "https://bj.lianjia.com/zufang/BJ2150073021128245248.html",
    "rent_type": "整租",
    "location": "朝阳区-双桥-双惠苑",
    "scraped_at": "2026-05-02 21:03:30",
    "region": "shuangqiao",
    "unit_price": 70.6,
    "lat": 39.902678,
    "lng": 116.567803
  },
  {
    "title": "整租·玲珑山 2房间 南",
    "community": "玲珑山 2房间 南",
    "area": "69.91",
    "rooms": "",
    "direction": "",
    "floor": "",
    "price": "4800",
    "tags": "",
    "source": "",
    "url": "https://bj.lianjia.com/zufang/BJ2034888694833348608.html",
    "rent_type": "整租",
    "location": "朝阳区-双桥-玲珑山",
    "scraped_at": "2026-05-02 21:04:34",
    "region": "shuangqiao",
    "unit_price": 68.7,
    "lat": 39.907713,
    "lng": 116.572868
  },
  {
    "title": "整租·玲珑山 2房间 东",
    "community": "玲珑山 2房间 东",
    "area": "64.00",
    "rooms": "",
    "direction": "",
    "floor": "",
    "price": "5000",
    "tags": "",
    "source": "",
    "url": "https://bj.lianjia.com/zufang/BJ2150866760511782912.html",
    "rent_type": "整租",
    "location": "朝阳区-双桥-玲珑山",
    "scraped_at": "2026-05-02 21:03:15",
    "region": "shuangqiao",
    "unit_price": 78.1,
    "lat": 39.898564,
    "lng": 116.476279
  },
  {
    "title": "整租·水郡长安 5室3厅 复式 南/北",
    "community": "水郡长安",
    "area": "285.00",
    "rooms": "5室3厅",
    "direction": "",
    "floor": "",
    "price": "18000",
    "tags": "",
    "source": "",
    "url": "https://bj.lianjia.com/zufang/BJ1952238506617077760.html",
    "rent_type": "整租",
    "location": "朝阳区-双桥-水郡长安",
    "scraped_at": "2026-05-02 21:03:17",
    "region": "shuangqiao",
    "unit_price": 63.2,
    "lat": 39.907713,
    "lng": 116.572868
  },
  {
    "title": "整租·温泉北里 2室1厅 南",
    "community": "温泉北里",
    "area": "67.68",
    "rooms": "2室1厅",
    "direction": "南",
    "floor": "",
    "price": "3255",
    "tags": "",
    "source": "",
    "url": "https://bj.lianjia.com/zufang/BJ2026285498217005056.html",
    "rent_type": "整租",
    "location": "朝阳区-双桥-温泉北里",
    "scraped_at": "2026-05-02 21:03:17",
    "region": "shuangqiao",
    "unit_price": 48.1,
    "lat": 39.89054,
    "lng": 116.60145
  },
  {
    "title": "整租·水郡长安 5室1厅 南/北",
    "community": "水郡长安",
    "area": "305.78",
    "rooms": "5室1厅",
    "direction": "南/北",
    "floor": "",
    "price": "22500",
    "tags": "",
    "source": "",
    "url": "https://bj.lianjia.com/zufang/BJ2092105751051894784.html",
    "rent_type": "整租",
    "location": "朝阳区-双桥-水郡长安",
    "scraped_at": "2026-05-02 21:03:17",
    "region": "shuangqiao",
    "unit_price": 73.6,
    "lat": 39.907713,
    "lng": 116.572868
  },
  {
    "title": "整租·远洋一方林语苑 2室1厅 南",
    "community": "远洋一方林语苑",
    "area": "91.03",
    "rooms": "2室1厅",
    "direction": "南",
    "floor": "",
    "price": "5200",
    "tags": "",
    "source": "",
    "url": "https://bj.lianjia.com/zufang/BJ2108077694372544512.html",
    "rent_type": "整租",
    "location": "朝阳区-双桥-远洋一方林语苑",
    "scraped_at": "2026-05-02 21:03:17",
    "region": "shuangqiao",
    "unit_price": 57.1,
    "lat": 39.907713,
    "lng": 116.572868
  },
  {
    "title": "整租·柳泽湾 2室1厅 南",
    "community": "柳泽湾",
    "area": "88.07",
    "rooms": "2室1厅",
    "direction": "南",
    "floor": "",
    "price": "5460",
    "tags": "",
    "source": "",
    "url": "https://bj.lianjia.com/zufang/BJ2027582943349702656.html",
    "rent_type": "整租",
    "location": "朝阳区-双桥-柳泽湾",
    "scraped_at": "2026-05-02 21:04:34",
    "region": "shuangqiao",
    "unit_price": 62.0,
    "lat": 39.901674,
    "lng": 116.567983
  },
  {
    "title": "整租·乐栋300 2房间 东南",
    "community": "乐栋300 2房间 东南",
    "area": "41.12",
    "rooms": "",
    "direction": "",
    "floor": "",
    "price": "3600",
    "tags": "",
    "source": "",
    "url": "https://bj.lianjia.com/zufang/BJ2109861591632576512.html",
    "rent_type": "整租",
    "location": "朝阳区-双桥-乐栋",
    "scraped_at": "2026-05-02 21:03:17",
    "region": "shuangqiao",
    "unit_price": 87.5,
    "lat": 39.889406,
    "lng": 116.596945
  },
  {
    "title": "整租·朝阳旺角 3室1厅 南/北",
    "community": "朝阳旺角",
    "area": "140.35",
    "rooms": "3室1厅",
    "direction": "南/北",
    "floor": "",
    "price": "7500",
    "tags": "",
    "source": "",
    "url": "https://bj.lianjia.com/zufang/BJ2155219373176913920.html",
    "rent_type": "整租",
    "location": "朝阳区-双桥-朝阳旺角",
    "scraped_at": "2026-05-02 21:03:28",
    "region": "shuangqiao",
    "unit_price": 53.4,
    "lat": 39.903703,
    "lng": 116.580949
  },
  {
    "title": "整租·朝阳旺角 3室1厅 南/北",
    "community": "朝阳旺角",
    "area": "118.83",
    "rooms": "3室1厅",
    "direction": "南/北",
    "floor": "",
    "price": "7200",
    "tags": "",
    "source": "",
    "url": "https://bj.lianjia.com/zufang/BJ2156940747893374976.html",
    "rent_type": "整租",
    "location": "朝阳区-双桥-朝阳旺角",
    "scraped_at": "2026-05-02 21:03:17",
    "region": "shuangqiao",
    "unit_price": 60.6,
    "lat": 39.903703,
    "lng": 116.580949
  },
  {
    "title": "整租·北花园小区6号院 2室1厅 南",
    "community": "北花园小区6号院",
    "area": "86.00",
    "rooms": "2室1厅",
    "direction": "南",
    "floor": "",
    "price": "5200",
    "tags": "",
    "source": "",
    "url": "https://bj.lianjia.com/zufang/BJ2156311498098475008.html",
    "rent_type": "整租",
    "location": "朝阳区-双桥-北花园小区",
    "scraped_at": "2026-05-02 21:03:28",
    "region": "shuangqiao",
    "unit_price": 60.5,
    "lat": 39.902383,
    "lng": 116.553643
  },
  {
    "title": "整租·玲珑山 2房间 西",
    "community": "玲珑山 2房间 西",
    "area": "56.41",
    "rooms": "",
    "direction": "",
    "floor": "",
    "price": "4900",
    "tags": "",
    "source": "",
    "url": "https://bj.lianjia.com/zufang/BJ2156408295311540224.html",
    "rent_type": "整租",
    "location": "朝阳区-双桥-玲珑山",
    "scraped_at": "2026-05-02 21:03:28",
    "region": "shuangqiao",
    "unit_price": 86.9,
    "lat": 39.907713,
    "lng": 116.572868
  },
  {
    "title": "整租·远洋一方北润园 1室1厅 南",
    "community": "远洋一方北润园",
    "area": "63.87",
    "rooms": "1室1厅",
    "direction": "南",
    "floor": "",
    "price": "4500",
    "tags": "",
    "source": "",
    "url": "https://bj.lianjia.com/zufang/BJ2151261353136881664.html",
    "rent_type": "整租",
    "location": "朝阳区-双桥-远洋一方北润园",
    "scraped_at": "2026-05-02 21:03:17",
    "region": "shuangqiao",
    "unit_price": 70.5,
    "lat": 39.907713,
    "lng": 116.572868
  },
  {
    "title": "整租·玲珑山 2房间 东",
    "community": "玲珑山 2房间 东",
    "area": "64.04",
    "rooms": "",
    "direction": "",
    "floor": "",
    "price": "4700",
    "tags": "",
    "source": "",
    "url": "https://bj.lianjia.com/zufang/BJ2157735059036045312.html",
    "rent_type": "整租",
    "location": "朝阳区-双桥-玲珑山",
    "scraped_at": "2026-05-02 21:03:17",
    "region": "shuangqiao",
    "unit_price": 73.4,
    "lat": 39.898564,
    "lng": 116.476279
  },
  {
    "title": "整租·乐栋300 2房间 南",
    "community": "乐栋300 2房间 南",
    "area": "41.46",
    "rooms": "",
    "direction": "",
    "floor": "",
    "price": "4000",
    "tags": "",
    "source": "",
    "url": "https://bj.lianjia.com/zufang/BJ2158152476656664576.html",
    "rent_type": "整租",
    "location": "朝阳区-双桥-乐栋",
    "scraped_at": "2026-05-02 21:03:30",
    "region": "shuangqiao",
    "unit_price": 96.5,
    "lat": 39.889406,
    "lng": 116.596945
  },
  {
    "title": "整租·双桥嘉园 3室2厅 南/北",
    "community": "双桥嘉园",
    "area": "90.10",
    "rooms": "3室2厅",
    "direction": "南/北",
    "floor": "",
    "price": "4000",
    "tags": "",
    "source": "",
    "url": "https://bj.lianjia.com/zufang/BJ2011735146973102080.html",
    "rent_type": "整租",
    "location": "朝阳区-双桥-双桥嘉园",
    "scraped_at": "2026-05-02 21:03:17",
    "region": "shuangqiao",
    "unit_price": 44.4,
    "lat": 39.88828,
    "lng": 116.597891
  },
  {
    "title": "整租·远洋一方林语苑 2室1厅 东南",
    "community": "远洋一方林语苑",
    "area": "91.40",
    "rooms": "2室1厅",
    "direction": "东南",
    "floor": "",
    "price": "5000",
    "tags": "",
    "source": "",
    "url": "https://bj.lianjia.com/zufang/BJ2158493190871580672.html",
    "rent_type": "整租",
    "location": "朝阳区-双桥-远洋一方林语苑",
    "scraped_at": "2026-05-02 21:03:30",
    "region": "shuangqiao",
    "unit_price": 54.7,
    "lat": 39.907713,
    "lng": 116.572868
  },
  {
    "title": "整租·金隅可乐 1房间 东南",
    "community": "金隅可乐 1房间 东南",
    "area": "55.00",
    "rooms": "",
    "direction": "",
    "floor": "",
    "price": "3600",
    "tags": "",
    "source": "",
    "url": "https://bj.lianjia.com/zufang/BJ2144088928750141440.html",
    "rent_type": "整租",
    "location": "朝阳区-双桥-金隅可乐",
    "scraped_at": "2026-05-02 21:03:17",
    "region": "shuangqiao",
    "unit_price": 65.5,
    "lat": 39.902629,
    "lng": 116.570385
  },
  {
    "title": "整租·柳泽湾 2室1厅 南/北",
    "community": "柳泽湾",
    "area": "87.00",
    "rooms": "2室1厅",
    "direction": "南/北",
    "floor": "",
    "price": "5500",
    "tags": "",
    "source": "",
    "url": "https://bj.lianjia.com/zufang/BJ2159179630379008000.html",
    "rent_type": "整租",
    "location": "朝阳区-双桥-柳泽湾",
    "scraped_at": "2026-05-02 21:04:20",
    "region": "shuangqiao",
    "unit_price": 63.2,
    "lat": 39.901674,
    "lng": 116.567983
  },
  {
    "title": "整租·双惠苑1号院 4室1厅 南",
    "community": "双惠苑1号院",
    "area": "112.05",
    "rooms": "4室1厅",
    "direction": "南",
    "floor": "",
    "price": "7900",
    "tags": "",
    "source": "",
    "url": "https://bj.lianjia.com/zufang/BJ2145027569605410816.html",
    "rent_type": "整租",
    "location": "朝阳区-双桥-双惠苑",
    "scraped_at": "2026-05-02 21:03:17",
    "region": "shuangqiao",
    "unit_price": 70.5,
    "lat": 39.902678,
    "lng": 116.567803
  },
  {
    "title": "整租·金隅康惠园3号院 2室1厅 南",
    "community": "金隅康惠园3号院",
    "area": "68.00",
    "rooms": "2室1厅",
    "direction": "南",
    "floor": "",
    "price": "4500",
    "tags": "",
    "source": "",
    "url": "https://bj.lianjia.com/zufang/BJ2161001919454117888.html",
    "rent_type": "整租",
    "location": "朝阳区-双桥-金隅康惠园",
    "scraped_at": "2026-05-02 21:04:06",
    "region": "shuangqiao",
    "unit_price": 66.2,
    "lat": 39.902629,
    "lng": 116.570385
  },
  {
    "title": "整租·康泉小区 2室1厅 东南",
    "community": "康泉小区",
    "area": "76.69",
    "rooms": "2室1厅",
    "direction": "东南",
    "floor": "",
    "price": "3880",
    "tags": "",
    "source": "",
    "url": "https://bj.lianjia.com/zufang/BJ2002415558204588032.html",
    "rent_type": "整租",
    "location": "朝阳区-双桥-康泉小区",
    "scraped_at": "2026-05-02 21:04:24",
    "region": "shuangqiao",
    "unit_price": 50.6,
    "lat": 39.905367,
    "lng": 116.573816
  },
  {
    "title": "整租·远洋一方北润园 2室1厅 南",
    "community": "远洋一方北润园",
    "area": "86.02",
    "rooms": "2室1厅",
    "direction": "南",
    "floor": "",
    "price": "5000",
    "tags": "",
    "source": "",
    "url": "https://bj.lianjia.com/zufang/BJ2157437462765371392.html",
    "rent_type": "整租",
    "location": "朝阳区-双桥-远洋一方北润园",
    "scraped_at": "2026-05-02 21:04:06",
    "region": "shuangqiao",
    "unit_price": 58.1,
    "lat": 39.907713,
    "lng": 116.572868
  },
  {
    "title": "整租·玲珑山 2房间 南",
    "community": "玲珑山 2房间 南",
    "area": "69.91",
    "rooms": "",
    "direction": "",
    "floor": "",
    "price": "4850",
    "tags": "",
    "source": "",
    "url": "https://bj.lianjia.com/zufang/BJ2151212055326097408.html",
    "rent_type": "整租",
    "location": "朝阳区-双桥-玲珑山",
    "scraped_at": "2026-05-02 21:03:17",
    "region": "shuangqiao",
    "unit_price": 69.4,
    "lat": 39.907713,
    "lng": 116.572868
  },
  {
    "title": "整租·金隅康惠园1号院 1室1厅 东南",
    "community": "金隅康惠园1号院",
    "area": "58.75",
    "rooms": "1室1厅",
    "direction": "东南",
    "floor": "",
    "price": "4400",
    "tags": "",
    "source": "",
    "url": "https://bj.lianjia.com/zufang/BJ1893988307558203392.html",
    "rent_type": "整租",
    "location": "朝阳区-双桥-金隅康惠园",
    "scraped_at": "2026-05-02 21:04:28",
    "region": "shuangqiao",
    "unit_price": 74.9,
    "lat": 39.902629,
    "lng": 116.570385
  },
  {
    "title": "整租·水郡长安 2室2厅 北",
    "community": "水郡长安",
    "area": "112.70",
    "rooms": "2室2厅",
    "direction": "北",
    "floor": "",
    "price": "6000",
    "tags": "",
    "source": "",
    "url": "https://bj.lianjia.com/zufang/BJ2156623713506689024.html",
    "rent_type": "整租",
    "location": "朝阳区-双桥-水郡长安",
    "scraped_at": "2026-05-02 21:04:15",
    "region": "shuangqiao",
    "unit_price": 53.2,
    "lat": 39.907713,
    "lng": 116.572868
  },
  {
    "title": "整租·金隅康惠园3号院 2室1厅 东/南/北",
    "community": "金隅康惠园3号院",
    "area": "72.43",
    "rooms": "2室1厅",
    "direction": "东/南/北",
    "floor": "",
    "price": "4500",
    "tags": "",
    "source": "",
    "url": "https://bj.lianjia.com/zufang/BJ2150232661090631680.html",
    "rent_type": "整租",
    "location": "朝阳区-双桥-金隅康惠园",
    "scraped_at": "2026-05-02 21:04:39",
    "region": "shuangqiao",
    "unit_price": 62.1,
    "lat": 39.902629,
    "lng": 116.570385
  },
  {
    "title": "整租·金隅康惠园3号院 2室1厅 西",
    "community": "金隅康惠园3号院",
    "area": "62.00",
    "rooms": "2室1厅",
    "direction": "西",
    "floor": "",
    "price": "5000",
    "tags": "",
    "source": "",
    "url": "https://bj.lianjia.com/zufang/BJ2160618784212123648.html",
    "rent_type": "整租",
    "location": "朝阳区-双桥-金隅康惠园",
    "scraped_at": "2026-05-02 21:03:34",
    "region": "shuangqiao",
    "unit_price": 80.6,
    "lat": 39.902629,
    "lng": 116.570385
  },
  {
    "title": "整租·金隅康惠园2号院 2室1厅 东南",
    "community": "金隅康惠园2号院",
    "area": "70.00",
    "rooms": "2室1厅",
    "direction": "东南",
    "floor": "",
    "price": "4500",
    "tags": "",
    "source": "",
    "url": "https://bj.lianjia.com/zufang/BJ2141886479394144256.html",
    "rent_type": "整租",
    "location": "朝阳区-双桥-金隅康惠园",
    "scraped_at": "2026-05-02 21:04:06",
    "region": "shuangqiao",
    "unit_price": 64.3,
    "lat": 39.902629,
    "lng": 116.570385
  },
  {
    "title": "整租·远洋一方润园3号院 2室1厅 东/西",
    "community": "远洋一方润园3号院",
    "area": "72.49",
    "rooms": "2室1厅",
    "direction": "东/西",
    "floor": "",
    "price": "4500",
    "tags": "",
    "source": "",
    "url": "https://bj.lianjia.com/zufang/BJ1891388034411134976.html",
    "rent_type": "整租",
    "location": "朝阳区-双桥-远洋一方润园",
    "scraped_at": "2026-05-02 21:04:28",
    "region": "shuangqiao",
    "unit_price": 62.1,
    "lat": 39.907713,
    "lng": 116.572868
  },
  {
    "title": "整租·双惠苑1号院 2室1厅 南/北",
    "community": "双惠苑1号院",
    "area": "82.96",
    "rooms": "2室1厅",
    "direction": "南/北",
    "floor": "",
    "price": "5000",
    "tags": "",
    "source": "",
    "url": "https://bj.lianjia.com/zufang/BJ2151240715596726272.html",
    "rent_type": "整租",
    "location": "朝阳区-双桥-双惠苑",
    "scraped_at": "2026-05-02 21:03:30",
    "region": "shuangqiao",
    "unit_price": 60.3,
    "lat": 39.902678,
    "lng": 116.567803
  },
  {
    "title": "整租·远洋一方新悦一期 2室1厅 西南",
    "community": "远洋一方新悦一期",
    "area": "89.00",
    "rooms": "2室1厅",
    "direction": "西南",
    "floor": "",
    "price": "5500",
    "tags": "",
    "source": "",
    "url": "https://bj.lianjia.com/zufang/BJ2146228742387662848.html",
    "rent_type": "整租",
    "location": "朝阳区-双桥-远洋一方新悦一期",
    "scraped_at": "2026-05-02 21:03:20",
    "region": "shuangqiao",
    "unit_price": 61.8,
    "lat": 39.896552,
    "lng": 116.597119
  },
  {
    "title": "整租·远洋一方润园6号院 1室1厅 南",
    "community": "远洋一方润园6号院",
    "area": "53.82",
    "rooms": "1室1厅",
    "direction": "南",
    "floor": "",
    "price": "4000",
    "tags": "",
    "source": "",
    "url": "https://bj.lianjia.com/zufang/BJ1623553779733364736.html",
    "rent_type": "整租",
    "location": "朝阳区-双桥-远洋一方润园",
    "scraped_at": "2026-05-02 21:04:24",
    "region": "shuangqiao",
    "unit_price": 74.3,
    "lat": 39.907713,
    "lng": 116.572868
  },
  {
    "title": "整租·珠江绿洲 3室1厅 南/北",
    "community": "珠江绿洲",
    "area": "152.72",
    "rooms": "3室1厅",
    "direction": "南/北",
    "floor": "",
    "price": "9600",
    "tags": "",
    "source": "",
    "url": "https://bj.lianjia.com/zufang/BJ2158038672270688256.html",
    "rent_type": "整租",
    "location": "朝阳区-双桥-珠江绿洲",
    "scraped_at": "2026-05-02 21:04:06",
    "region": "shuangqiao",
    "unit_price": 62.9,
    "lat": 39.907713,
    "lng": 116.572868
  },
  {
    "title": "整租·华美橡树岭 1房间 东",
    "community": "华美橡树岭 1房间 东",
    "area": "39.74",
    "rooms": "",
    "direction": "",
    "floor": "",
    "price": "2800",
    "tags": "",
    "source": "",
    "url": "https://bj.lianjia.com/zufang/BJ2139222890564812800.html",
    "rent_type": "整租",
    "location": "朝阳区-双桥-华美橡树岭",
    "scraped_at": "2026-05-02 21:03:20",
    "region": "shuangqiao",
    "unit_price": 70.5,
    "lat": 39.88582,
    "lng": 116.59339
  },
  {
    "title": "整租·朝阳旺角 1室1厅 北",
    "community": "朝阳旺角",
    "area": "44.06",
    "rooms": "1室1厅",
    "direction": "北",
    "floor": "",
    "price": "3800",
    "tags": "",
    "source": "",
    "url": "https://bj.lianjia.com/zufang/BJ2155214139906064384.html",
    "rent_type": "整租",
    "location": "朝阳区-双桥-朝阳旺角",
    "scraped_at": "2026-05-02 21:04:15",
    "region": "shuangqiao",
    "unit_price": 86.2,
    "lat": 39.903703,
    "lng": 116.580949
  },
  {
    "title": "整租·玲珑山 1房间 西",
    "community": "玲珑山 1房间 西",
    "area": "48.00",
    "rooms": "",
    "direction": "",
    "floor": "",
    "price": "3800",
    "tags": "",
    "source": "",
    "url": "https://bj.lianjia.com/zufang/BJ2152360029783588864.html",
    "rent_type": "整租",
    "location": "朝阳区-双桥-玲珑山",
    "scraped_at": "2026-05-02 21:03:20",
    "region": "shuangqiao",
    "unit_price": 79.2,
    "lat": 39.907713,
    "lng": 116.572868
  },
  {
    "title": "整租·北花园小区3号院 1室0厅 南",
    "community": "北花园小区3号院",
    "area": "55.00",
    "rooms": "1室0厅",
    "direction": "南",
    "floor": "",
    "price": "4300",
    "tags": "",
    "source": "",
    "url": "https://bj.lianjia.com/zufang/BJ2161026186963058688.html",
    "rent_type": "整租",
    "location": "朝阳区-双桥-北花园小区",
    "scraped_at": "2026-05-02 21:04:06",
    "region": "shuangqiao",
    "unit_price": 78.2,
    "lat": 39.902383,
    "lng": 116.553643
  },
  {
    "title": "整租·金隅康惠园3号院 2室1厅 南",
    "community": "金隅康惠园3号院",
    "area": "76.00",
    "rooms": "2室1厅",
    "direction": "南",
    "floor": "",
    "price": "4600",
    "tags": "",
    "source": "",
    "url": "https://bj.lianjia.com/zufang/BJ1629731683458613248.html",
    "rent_type": "整租",
    "location": "朝阳区-双桥-金隅康惠园",
    "scraped_at": "2026-05-02 21:04:24",
    "region": "shuangqiao",
    "unit_price": 60.5,
    "lat": 39.902629,
    "lng": 116.570385
  },
  {
    "title": "整租·远洋一方润园2号院 1室1厅 南",
    "community": "远洋一方润园2号院",
    "area": "64.48",
    "rooms": "1室1厅",
    "direction": "南",
    "floor": "",
    "price": "4500",
    "tags": "",
    "source": "",
    "url": "https://bj.lianjia.com/zufang/BJ2147543247503753216.html",
    "rent_type": "整租",
    "location": "朝阳区-双桥-远洋一方润园",
    "scraped_at": "2026-05-02 21:04:15",
    "region": "shuangqiao",
    "unit_price": 69.8,
    "lat": 39.907713,
    "lng": 116.572868
  },
  {
    "title": "整租·玲珑山 1房间 西",
    "community": "玲珑山 1房间 西",
    "area": "48.00",
    "rooms": "",
    "direction": "",
    "floor": "",
    "price": "3850",
    "tags": "",
    "source": "",
    "url": "https://bj.lianjia.com/zufang/BJ2150550994642010112.html",
    "rent_type": "整租",
    "location": "朝阳区-双桥-玲珑山",
    "scraped_at": "2026-05-02 21:03:30",
    "region": "shuangqiao",
    "unit_price": 80.2,
    "lat": 39.907713,
    "lng": 116.572868
  },
  {
    "title": "整租·东一时区 3室1厅 南/北",
    "community": "东一时区",
    "area": "120.00",
    "rooms": "3室1厅",
    "direction": "南/北",
    "floor": "",
    "price": "6500",
    "tags": "",
    "source": "",
    "url": "https://bj.lianjia.com/zufang/BJ2152424392489959424.html",
    "rent_type": "整租",
    "location": "朝阳区-双桥-东一时区",
    "scraped_at": "2026-05-02 21:03:20",
    "region": "shuangqiao",
    "unit_price": 54.2,
    "lat": 39.898547,
    "lng": 116.599195
  },
  {
    "title": "整租·天泰新房苑 2室1厅 南/北",
    "community": "天泰新房苑",
    "area": "102.84",
    "rooms": "2室1厅",
    "direction": "南/北",
    "floor": "",
    "price": "4500",
    "tags": "",
    "source": "",
    "url": "https://bj.lianjia.com/zufang/BJ2087874443681464320.html",
    "rent_type": "整租",
    "location": "朝阳区-双桥-天泰新房苑",
    "scraped_at": "2026-05-02 21:03:34",
    "region": "shuangqiao",
    "unit_price": 43.8,
    "lat": 39.907713,
    "lng": 116.572868
  },
  {
    "title": "整租·远洋一方润园2号院 1室1厅 南",
    "community": "远洋一方润园2号院",
    "area": "64.79",
    "rooms": "1室1厅",
    "direction": "南",
    "floor": "",
    "price": "4500",
    "tags": "",
    "source": "",
    "url": "https://bj.lianjia.com/zufang/BJ2157772131381805056.html",
    "rent_type": "整租",
    "location": "朝阳区-双桥-远洋一方润园",
    "scraped_at": "2026-05-02 21:03:34",
    "region": "shuangqiao",
    "unit_price": 69.5,
    "lat": 39.907713,
    "lng": 116.572868
  },
  {
    "title": "整租·管庄新村 2室1厅 南",
    "community": "管庄新村",
    "area": "80.84",
    "rooms": "2室1厅",
    "direction": "南",
    "floor": "",
    "price": "4500",
    "tags": "",
    "source": "",
    "url": "https://bj.lianjia.com/zufang/BJ2149491617310965760.html",
    "rent_type": "整租",
    "location": "朝阳区-双桥-管庄新村",
    "scraped_at": "2026-05-02 21:04:34",
    "region": "shuangqiao",
    "unit_price": 55.7,
    "lat": 39.901209,
    "lng": 116.593592
  },
  {
    "title": "整租·远洋一方北润园 3室1厅 南/北",
    "community": "远洋一方北润园",
    "area": "114.99",
    "rooms": "3室1厅",
    "direction": "南/北",
    "floor": "",
    "price": "7300",
    "tags": "",
    "source": "",
    "url": "https://bj.lianjia.com/zufang/BJ2145751496698888192.html",
    "rent_type": "整租",
    "location": "朝阳区-双桥-远洋一方北润园",
    "scraped_at": "2026-05-02 21:03:20",
    "region": "shuangqiao",
    "unit_price": 63.5,
    "lat": 39.907713,
    "lng": 116.572868
  },
  {
    "title": "整租·东一时区 1室1厅 东南",
    "community": "东一时区",
    "area": "62.90",
    "rooms": "1室1厅",
    "direction": "东南",
    "floor": "",
    "price": "3600",
    "tags": "",
    "source": "",
    "url": "https://bj.lianjia.com/zufang/BJ2138165593059098624.html",
    "rent_type": "整租",
    "location": "朝阳区-双桥-东一时区",
    "scraped_at": "2026-05-02 21:03:20",
    "region": "shuangqiao",
    "unit_price": 57.2,
    "lat": 39.898547,
    "lng": 116.599195
  },
  {
    "title": "整租·管庄新村 1室1厅 南",
    "community": "管庄新村",
    "area": "56.58",
    "rooms": "1室1厅",
    "direction": "南",
    "floor": "",
    "price": "3800",
    "tags": "",
    "source": "",
    "url": "https://bj.lianjia.com/zufang/BJ2011057232837345280.html",
    "rent_type": "整租",
    "location": "朝阳区-双桥-管庄新村",
    "scraped_at": "2026-05-02 21:03:20",
    "region": "shuangqiao",
    "unit_price": 67.2,
    "lat": 39.901209,
    "lng": 116.593592
  },
  {
    "title": "整租·北花园小区2号院 3室1厅 南/北",
    "community": "北花园小区2号院",
    "area": "85.00",
    "rooms": "3室1厅",
    "direction": "南/北",
    "floor": "",
    "price": "5200",
    "tags": "",
    "source": "",
    "url": "https://bj.lianjia.com/zufang/BJ2151302867770671104.html",
    "rent_type": "整租",
    "location": "朝阳区-双桥-北花园小区",
    "scraped_at": "2026-05-02 21:03:30",
    "region": "shuangqiao",
    "unit_price": 61.2,
    "lat": 39.902383,
    "lng": 116.553643
  },
  {
    "title": "整租·远洋一方花语苑 2室1厅 南/北",
    "community": "远洋一方花语苑",
    "area": "88.92",
    "rooms": "2室1厅",
    "direction": "南/北",
    "floor": "",
    "price": "5300",
    "tags": "",
    "source": "",
    "url": "https://bj.lianjia.com/zufang/BJ2085612629404942336.html",
    "rent_type": "整租",
    "location": "朝阳区-双桥-远洋一方花语苑",
    "scraped_at": "2026-05-02 21:03:20",
    "region": "shuangqiao",
    "unit_price": 59.6,
    "lat": 39.907713,
    "lng": 116.572868
  },
  {
    "title": "整租·远洋一方林语苑 2室2厅 南/北",
    "community": "远洋一方林语苑",
    "area": "89.98",
    "rooms": "2室2厅",
    "direction": "南/北",
    "floor": "",
    "price": "5300",
    "tags": "",
    "source": "",
    "url": "https://bj.lianjia.com/zufang/BJ1772553257562931200.html",
    "rent_type": "整租",
    "location": "朝阳区-双桥-远洋一方林语苑",
    "scraped_at": "2026-05-02 21:04:24",
    "region": "shuangqiao",
    "unit_price": 58.9,
    "lat": 39.907713,
    "lng": 116.572868
  },
  {
    "title": "整租·天泰北双苑 1室1厅 南",
    "community": "天泰北双苑",
    "area": "68.30",
    "rooms": "1室1厅",
    "direction": "南",
    "floor": "",
    "price": "4800",
    "tags": "",
    "source": "",
    "url": "https://bj.lianjia.com/zufang/BJ2144110958698561536.html",
    "rent_type": "整租",
    "location": "朝阳区-双桥-天泰北双苑",
    "scraped_at": "2026-05-02 21:03:20",
    "region": "shuangqiao",
    "unit_price": 70.3,
    "lat": 39.907713,
    "lng": 116.572868
  },
  {
    "title": "整租·柳泽湾 1室1厅 南",
    "community": "柳泽湾",
    "area": "61.76",
    "rooms": "1室1厅",
    "direction": "南",
    "floor": "",
    "price": "3990",
    "tags": "",
    "source": "",
    "url": "https://bj.lianjia.com/zufang/BJ1949035349367848960.html",
    "rent_type": "整租",
    "location": "朝阳区-双桥-柳泽湾",
    "scraped_at": "2026-05-02 21:04:39",
    "region": "shuangqiao",
    "unit_price": 64.6,
    "lat": 39.901674,
    "lng": 116.567983
  },
  {
    "title": "整租·天泰北双苑 1室1厅 南/北",
    "community": "天泰北双苑",
    "area": "58.00",
    "rooms": "1室1厅",
    "direction": "南/北",
    "floor": "",
    "price": "4000",
    "tags": "",
    "source": "",
    "url": "https://bj.lianjia.com/zufang/BJ2158555751151304704.html",
    "rent_type": "整租",
    "location": "朝阳区-双桥-天泰北双苑",
    "scraped_at": "2026-05-02 21:03:34",
    "region": "shuangqiao",
    "unit_price": 69.0,
    "lat": 39.907713,
    "lng": 116.572868
  },
  {
    "title": "整租·远洋一方北润园 2室1厅 南",
    "community": "远洋一方北润园",
    "area": "89.00",
    "rooms": "2室1厅",
    "direction": "南",
    "floor": "",
    "price": "5200",
    "tags": "",
    "source": "",
    "url": "https://bj.lianjia.com/zufang/BJ2068690270936891392.html",
    "rent_type": "整租",
    "location": "朝阳区-双桥-远洋一方北润园",
    "scraped_at": "2026-05-02 21:03:22",
    "region": "shuangqiao",
    "unit_price": 58.4,
    "lat": 39.907713,
    "lng": 116.572868
  },
  {
    "title": "整租·珠江绿洲 1室1厅 东北",
    "community": "珠江绿洲",
    "area": "75.54",
    "rooms": "1室1厅",
    "direction": "东北",
    "floor": "",
    "price": "5200",
    "tags": "",
    "source": "",
    "url": "https://bj.lianjia.com/zufang/BJ2139921803458379776.html",
    "rent_type": "整租",
    "location": "朝阳区-双桥-珠江绿洲",
    "scraped_at": "2026-05-02 21:03:22",
    "region": "shuangqiao",
    "unit_price": 68.8,
    "lat": 39.907713,
    "lng": 116.572868
  },
  {
    "title": "整租·康城别墅二期 4室2厅 南/北",
    "community": "康城别墅二期",
    "area": "223.00",
    "rooms": "4室2厅",
    "direction": "南/北",
    "floor": "",
    "price": "12000",
    "tags": "",
    "source": "",
    "url": "https://bj.lianjia.com/zufang/BJ2152733910897786880.html",
    "rent_type": "整租",
    "location": "朝阳区-双桥-康城别墅二期",
    "scraped_at": "2026-05-02 21:03:22",
    "region": "shuangqiao",
    "unit_price": 53.8,
    "lat": 39.885616,
    "lng": 116.601418
  },
  {
    "title": "整租·京能龙湖熙上 2室1厅 东南",
    "community": "京能龙湖熙上",
    "area": "78.17",
    "rooms": "2室1厅",
    "direction": "东南",
    "floor": "",
    "price": "7800",
    "tags": "",
    "source": "",
    "url": "https://bj.lianjia.com/zufang/BJ2153815887696625664.html",
    "rent_type": "整租",
    "location": "朝阳区-双桥-京能龙湖熙上",
    "scraped_at": "2026-05-02 21:03:22",
    "region": "shuangqiao",
    "unit_price": 99.8,
    "lat": 39.904116,
    "lng": 116.598428
  },
  {
    "title": "整租·京能龙湖熙上 2室1厅 南/北",
    "community": "京能龙湖熙上",
    "area": "59.67",
    "rooms": "2室1厅",
    "direction": "南/北",
    "floor": "",
    "price": "5800",
    "tags": "",
    "source": "",
    "url": "https://bj.lianjia.com/zufang/BJ2154564879451684864.html",
    "rent_type": "整租",
    "location": "朝阳区-双桥-京能龙湖熙上",
    "scraped_at": "2026-05-02 21:03:28",
    "region": "shuangqiao",
    "unit_price": 97.2,
    "lat": 39.904116,
    "lng": 116.598428
  },
  {
    "title": "整租·金隅康惠园3号院 2室1厅 南",
    "community": "金隅康惠园3号院",
    "area": "75.00",
    "rooms": "2室1厅",
    "direction": "南",
    "floor": "",
    "price": "4500",
    "tags": "",
    "source": "",
    "url": "https://bj.lianjia.com/zufang/BJ2118922843000406016.html",
    "rent_type": "整租",
    "location": "朝阳区-双桥-金隅康惠园",
    "scraped_at": "2026-05-02 21:03:22",
    "region": "shuangqiao",
    "unit_price": 60.0,
    "lat": 39.902629,
    "lng": 116.570385
  },
  {
    "title": "整租·远洋一方新悦二期 2室1厅 西南",
    "community": "远洋一方新悦二期",
    "area": "89.76",
    "rooms": "2室1厅",
    "direction": "西南",
    "floor": "",
    "price": "5300",
    "tags": "",
    "source": "",
    "url": "https://bj.lianjia.com/zufang/BJ2151608742590808064.html",
    "rent_type": "整租",
    "location": "朝阳区-双桥-远洋一方新悦二期",
    "scraped_at": "2026-05-02 21:03:22",
    "region": "shuangqiao",
    "unit_price": 59.0,
    "lat": 39.896552,
    "lng": 116.597119
  },
  {
    "title": "整租·北花园小区1号院 1室1厅 南",
    "community": "北花园小区1号院",
    "area": "51.57",
    "rooms": "1室1厅",
    "direction": "南",
    "floor": "",
    "price": "3800",
    "tags": "",
    "source": "",
    "url": "https://bj.lianjia.com/zufang/BJ2158884728776687616.html",
    "rent_type": "整租",
    "location": "朝阳区-双桥-北花园小区",
    "scraped_at": "2026-05-02 21:03:30",
    "region": "shuangqiao",
    "unit_price": 73.7,
    "lat": 39.902383,
    "lng": 116.553643
  },
  {
    "title": "整租·康城别墅二期 4室2厅 复式 南/北",
    "community": "康城别墅二期",
    "area": "282.09",
    "rooms": "4室2厅",
    "direction": "",
    "floor": "",
    "price": "14500",
    "tags": "",
    "source": "",
    "url": "https://bj.lianjia.com/zufang/BJ2149882393249447936.html",
    "rent_type": "整租",
    "location": "朝阳区-双桥-康城别墅二期",
    "scraped_at": "2026-05-02 21:03:22",
    "region": "shuangqiao",
    "unit_price": 51.4,
    "lat": 39.885616,
    "lng": 116.601418
  },
  {
    "title": "整租·万合辛悦家园A区 3室1厅 南/北",
    "community": "万合辛悦家园A区",
    "area": "120.00",
    "rooms": "3室1厅",
    "direction": "南/北",
    "floor": "",
    "price": "5300",
    "tags": "",
    "source": "",
    "url": "https://bj.lianjia.com/zufang/BJ2139885606904266752.html",
    "rent_type": "整租",
    "location": "朝阳区-双桥-万合辛悦家园",
    "scraped_at": "2026-05-02 21:04:15",
    "region": "shuangqiao",
    "unit_price": 44.2,
    "lat": 40.023775,
    "lng": 116.426746
  },
  {
    "title": "整租·远洋一方润园3号院 2室1厅 东/西",
    "community": "远洋一方润园3号院",
    "area": "72.47",
    "rooms": "2室1厅",
    "direction": "东/西",
    "floor": "",
    "price": "5000",
    "tags": "",
    "source": "",
    "url": "https://bj.lianjia.com/zufang/BJ2161432017340727296.html",
    "rent_type": "整租",
    "location": "朝阳区-双桥-远洋一方润园",
    "scraped_at": "2026-05-02 21:04:15",
    "region": "shuangqiao",
    "unit_price": 69.0,
    "lat": 39.907713,
    "lng": 116.572868
  },
  {
    "title": "整租·万合辛悦家园B区 1室0厅 南",
    "community": "万合辛悦家园B区",
    "area": "60.00",
    "rooms": "1室0厅",
    "direction": "南",
    "floor": "",
    "price": "3200",
    "tags": "",
    "source": "",
    "url": "https://bj.lianjia.com/zufang/BJ2161383154374410240.html",
    "rent_type": "整租",
    "location": "朝阳区-双桥-万合辛悦家园",
    "scraped_at": "2026-05-02 21:04:15",
    "region": "shuangqiao",
    "unit_price": 53.3,
    "lat": 40.023775,
    "lng": 116.426746
  },
  {
    "title": "整租·华美橡树岭 1房间 东",
    "community": "华美橡树岭 1房间 东",
    "area": "42.15",
    "rooms": "",
    "direction": "",
    "floor": "",
    "price": "2583",
    "tags": "",
    "source": "",
    "url": "https://bj.lianjia.com/zufang/BJ2108075574038626304.html",
    "rent_type": "整租",
    "location": "朝阳区-双桥-华美橡树岭",
    "scraped_at": "2026-05-02 21:03:22",
    "region": "shuangqiao",
    "unit_price": 61.3,
    "lat": 39.88582,
    "lng": 116.59339
  },
  {
    "title": "整租·华美橡树岭 1房间 西",
    "community": "华美橡树岭 1房间 西",
    "area": "35.56",
    "rooms": "",
    "direction": "",
    "floor": "",
    "price": "2300",
    "tags": "",
    "source": "",
    "url": "https://bj.lianjia.com/zufang/BJ2125813986317303808.html",
    "rent_type": "整租",
    "location": "朝阳区-双桥-华美橡树岭",
    "scraped_at": "2026-05-02 21:03:22",
    "region": "shuangqiao",
    "unit_price": 64.7,
    "lat": 39.88582,
    "lng": 116.59339
  },
  {
    "title": "整租·远洋一方溪语苑 2室1厅 西南",
    "community": "远洋一方溪语苑",
    "area": "89.00",
    "rooms": "2室1厅",
    "direction": "西南",
    "floor": "",
    "price": "5200",
    "tags": "",
    "source": "",
    "url": "https://bj.lianjia.com/zufang/BJ2127325052268445696.html",
    "rent_type": "整租",
    "location": "朝阳区-双桥-远洋一方溪语苑",
    "scraped_at": "2026-05-02 21:03:22",
    "region": "shuangqiao",
    "unit_price": 58.4,
    "lat": 39.907713,
    "lng": 116.572868
  },
  {
    "title": "整租·远洋一方北润园 2室1厅 南",
    "community": "远洋一方北润园",
    "area": "85.73",
    "rooms": "2室1厅",
    "direction": "南",
    "floor": "",
    "price": "5400",
    "tags": "",
    "source": "",
    "url": "https://bj.lianjia.com/zufang/BJ2149876748827754496.html",
    "rent_type": "整租",
    "location": "朝阳区-双桥-远洋一方北润园",
    "scraped_at": "2026-05-02 21:03:22",
    "region": "shuangqiao",
    "unit_price": 63.0,
    "lat": 39.907713,
    "lng": 116.572868
  },
  {
    "title": "整租·康城别墅二期 6室2厅 复式 东/南/北",
    "community": "康城别墅二期",
    "area": "315.13",
    "rooms": "6室2厅",
    "direction": "",
    "floor": "",
    "price": "21800",
    "tags": "",
    "source": "",
    "url": "https://bj.lianjia.com/zufang/BJ2052612115360907264.html",
    "rent_type": "整租",
    "location": "朝阳区-双桥-康城别墅二期",
    "scraped_at": "2026-05-02 21:03:22",
    "region": "shuangqiao",
    "unit_price": 69.2,
    "lat": 39.885616,
    "lng": 116.601418
  },
  {
    "title": "整租·定南嘉园 1室1厅 东",
    "community": "定南嘉园",
    "area": "66.00",
    "rooms": "1室1厅",
    "direction": "东",
    "floor": "",
    "price": "3700",
    "tags": "",
    "source": "",
    "url": "https://bj.lianjia.com/zufang/BJ2122239879088701440.html",
    "rent_type": "整租",
    "location": "朝阳区-双桥-定南嘉园",
    "scraped_at": "2026-05-02 21:03:22",
    "region": "shuangqiao",
    "unit_price": 56.1,
    "lat": 39.907713,
    "lng": 116.572868
  },
  {
    "title": "整租·远洋一方北润园 2室1厅 南",
    "community": "远洋一方北润园",
    "area": "85.57",
    "rooms": "2室1厅",
    "direction": "南",
    "floor": "",
    "price": "5200",
    "tags": "",
    "source": "",
    "url": "https://bj.lianjia.com/zufang/BJ2157114888395161600.html",
    "rent_type": "整租",
    "location": "朝阳区-双桥-远洋一方北润园",
    "scraped_at": "2026-05-02 21:03:28",
    "region": "shuangqiao",
    "unit_price": 60.8,
    "lat": 39.907713,
    "lng": 116.572868
  },
  {
    "title": "整租·天泰北双苑 1室1厅 南/北",
    "community": "天泰北双苑",
    "area": "68.30",
    "rooms": "1室1厅",
    "direction": "南/北",
    "floor": "",
    "price": "4500",
    "tags": "",
    "source": "",
    "url": "https://bj.lianjia.com/zufang/BJ2155204268284444672.html",
    "rent_type": "整租",
    "location": "朝阳区-双桥-天泰北双苑",
    "scraped_at": "2026-05-02 21:03:28",
    "region": "shuangqiao",
    "unit_price": 65.9,
    "lat": 39.907713,
    "lng": 116.572868
  },
  {
    "title": "整租·双柳新居 2室1厅 南/北",
    "community": "双柳新居",
    "area": "82.37",
    "rooms": "2室1厅",
    "direction": "南/北",
    "floor": "",
    "price": "4200",
    "tags": "",
    "source": "",
    "url": "https://bj.lianjia.com/zufang/BJ2150456709691211776.html",
    "rent_type": "整租",
    "location": "朝阳区-双桥-双柳新居",
    "scraped_at": "2026-05-02 21:03:30",
    "region": "shuangqiao",
    "unit_price": 51.0,
    "lat": 39.905856,
    "lng": 116.572857
  },
  {
    "title": "整租·康泉小区 2室1厅 东南",
    "community": "康泉小区",
    "area": "76.00",
    "rooms": "2室1厅",
    "direction": "东南",
    "floor": "",
    "price": "4500",
    "tags": "",
    "source": "",
    "url": "https://bj.lianjia.com/zufang/BJ2156368472223776768.html",
    "rent_type": "整租",
    "location": "朝阳区-双桥-康泉小区",
    "scraped_at": "2026-05-02 21:03:28",
    "region": "shuangqiao",
    "unit_price": 59.2,
    "lat": 39.905367,
    "lng": 116.573816
  },
  {
    "title": "整租·水郡长安 3室2厅 南/西南",
    "community": "水郡长安",
    "area": "148.45",
    "rooms": "3室2厅",
    "direction": "南/西南",
    "floor": "",
    "price": "8300",
    "tags": "",
    "source": "",
    "url": "https://bj.lianjia.com/zufang/BJ2150805249600782336.html",
    "rent_type": "整租",
    "location": "朝阳区-双桥-水郡长安",
    "scraped_at": "2026-05-02 21:03:25",
    "region": "shuangqiao",
    "unit_price": 55.9,
    "lat": 39.907713,
    "lng": 116.572868
  },
  {
    "title": "整租·双桥温泉东里小区 2室1厅 南/北",
    "community": "双桥温泉东里小区",
    "area": "71.88",
    "rooms": "2室1厅",
    "direction": "南/北",
    "floor": "",
    "price": "3600",
    "tags": "",
    "source": "",
    "url": "https://bj.lianjia.com/zufang/BJ2148383037602136064.html",
    "rent_type": "整租",
    "location": "朝阳区-双桥-双桥温泉东里小区",
    "scraped_at": "2026-05-02 21:03:25",
    "region": "shuangqiao",
    "unit_price": 50.1,
    "lat": 39.88828,
    "lng": 116.597891
  },
  {
    "title": "整租·金隅康惠园3号院 2室1厅 东/东南/南",
    "community": "金隅康惠园3号院",
    "area": "70.40",
    "rooms": "2室1厅",
    "direction": "东/东南/南",
    "floor": "",
    "price": "4600",
    "tags": "",
    "source": "",
    "url": "https://bj.lianjia.com/zufang/BJ2153002583667507200.html",
    "rent_type": "整租",
    "location": "朝阳区-双桥-金隅康惠园",
    "scraped_at": "2026-05-02 21:03:25",
    "region": "shuangqiao",
    "unit_price": 65.3,
    "lat": 39.902629,
    "lng": 116.570385
  },
  {
    "title": "整租·水郡长安 3室1厅 西南",
    "community": "水郡长安",
    "area": "148.34",
    "rooms": "3室1厅",
    "direction": "西南",
    "floor": "",
    "price": "8000",
    "tags": "",
    "source": "",
    "url": "https://bj.lianjia.com/zufang/BJ2144800314539114496.html",
    "rent_type": "整租",
    "location": "朝阳区-双桥-水郡长安",
    "scraped_at": "2026-05-02 21:03:25",
    "region": "shuangqiao",
    "unit_price": 53.9,
    "lat": 39.907713,
    "lng": 116.572868
  },
  {
    "title": "整租·寺锦苑 1室1厅 南",
    "community": "寺锦苑",
    "area": "53.57",
    "rooms": "1室1厅",
    "direction": "南",
    "floor": "",
    "price": "3780",
    "tags": "",
    "source": "",
    "url": "https://bj.lianjia.com/zufang/BJ1920093669625430016.html",
    "rent_type": "整租",
    "location": "朝阳区-双桥-寺锦苑",
    "scraped_at": "2026-05-02 21:04:24",
    "region": "shuangqiao",
    "unit_price": 70.6,
    "lat": 39.899486,
    "lng": 116.572118
  },
  {
    "title": "整租·北花园小区2号院 2室1厅 南/北",
    "community": "北花园小区2号院",
    "area": "86.61",
    "rooms": "2室1厅",
    "direction": "南/北",
    "floor": "",
    "price": "5000",
    "tags": "",
    "source": "",
    "url": "https://bj.lianjia.com/zufang/BJ2090779645271080960.html",
    "rent_type": "整租",
    "location": "朝阳区-双桥-北花园小区",
    "scraped_at": "2026-05-02 21:04:20",
    "region": "shuangqiao",
    "unit_price": 57.7,
    "lat": 39.902383,
    "lng": 116.553643
  },
  {
    "title": "独栋·远亲近邻 轻遇HOME（服仓店） 特价特价传媒大学南服仓整租公寓百花KASO 黑光教育吉里文创园旁入住立减房租 免费停车 包取暖 1室1厅",
    "community": "远亲近邻 轻遇HOME（服仓店） 特价特价传媒大学南服仓整租公寓百花KASO 黑光教育吉里文创园旁入住立减房租 免费停车 包取暖",
    "area": "30.00",
    "rooms": "1室1厅",
    "direction": "",
    "floor": "",
    "price": "2300",
    "tags": "",
    "source": "",
    "url": "https://bj.lianjia.com/apartment/71604.html",
    "rent_type": "独栋",
    "location": "",
    "scraped_at": "2026-05-02 21:03:25",
    "region": "shuangqiao",
    "unit_price": 76.7,
    "lat": null,
    "lng": null
  },
  {
    "title": "整租·水郡长安 3室1厅 南",
    "community": "水郡长安",
    "area": "148.00",
    "rooms": "3室1厅",
    "direction": "南",
    "floor": "",
    "price": "8700",
    "tags": "",
    "source": "",
    "url": "https://bj.lianjia.com/zufang/BJ2144266841084657664.html",
    "rent_type": "整租",
    "location": "朝阳区-双桥-水郡长安",
    "scraped_at": "2026-05-02 21:03:25",
    "region": "shuangqiao",
    "unit_price": 58.8,
    "lat": 39.907713,
    "lng": 116.572868
  },
  {
    "title": "整租·双柳巷 2室1厅 南/北",
    "community": "双柳巷",
    "area": "54.00",
    "rooms": "2室1厅",
    "direction": "南/北",
    "floor": "",
    "price": "4000",
    "tags": "",
    "source": "",
    "url": "https://bj.lianjia.com/zufang/BJ2112873308914450432.html",
    "rent_type": "整租",
    "location": "朝阳区-双桥-双柳巷",
    "scraped_at": "2026-05-02 21:03:25",
    "region": "shuangqiao",
    "unit_price": 74.1,
    "lat": 39.905856,
    "lng": 116.572857
  },
  {
    "title": "整租·定南嘉园 3室1厅 南/北",
    "community": "定南嘉园",
    "area": "124.00",
    "rooms": "3室1厅",
    "direction": "南/北",
    "floor": "",
    "price": "5300",
    "tags": "",
    "source": "",
    "url": "https://bj.lianjia.com/zufang/BJ2139395142128238592.html",
    "rent_type": "整租",
    "location": "朝阳区-双桥-定南嘉园",
    "scraped_at": "2026-05-02 21:03:34",
    "region": "shuangqiao",
    "unit_price": 42.7,
    "lat": 39.907713,
    "lng": 116.572868
  },
  {
    "title": "整租·朝阳旺角 2室1厅 东/西",
    "community": "朝阳旺角",
    "area": "102.00",
    "rooms": "2室1厅",
    "direction": "东/西",
    "floor": "",
    "price": "5500",
    "tags": "",
    "source": "",
    "url": "https://bj.lianjia.com/zufang/BJ2149145357278248960.html",
    "rent_type": "整租",
    "location": "朝阳区-双桥-朝阳旺角",
    "scraped_at": "2026-05-02 21:03:30",
    "region": "shuangqiao",
    "unit_price": 53.9,
    "lat": 39.903703,
    "lng": 116.580949
  },
  {
    "title": "独栋·远亲近邻 轻遇HOME 大地文苑店 朝阳区一号线租房 传媒大学地铁 大地文苑 近万达 1室1厅",
    "community": "远亲近邻 轻遇HOME 大地文苑店 朝阳区一号线租房 传媒大学地铁 大地文苑 近万达",
    "area": "55.00",
    "rooms": "1室1厅",
    "direction": "",
    "floor": "",
    "price": "3550-3900",
    "tags": "",
    "source": "",
    "url": "https://bj.lianjia.com/apartment/71603.html",
    "rent_type": "独栋",
    "location": "",
    "scraped_at": "2026-05-02 21:03:25",
    "region": "shuangqiao",
    "unit_price": "",
    "lat": 39.908076,
    "lng": 116.488738
  },
  {
    "title": "整租·艺水芳园 3室1厅 南/北",
    "community": "艺水芳园",
    "area": "124.59",
    "rooms": "3室1厅",
    "direction": "南/北",
    "floor": "",
    "price": "6900",
    "tags": "",
    "source": "",
    "url": "https://bj.lianjia.com/zufang/BJ2128787342918418432.html",
    "rent_type": "整租",
    "location": "朝阳区-双桥-艺水芳园",
    "scraped_at": "2026-05-02 21:04:15",
    "region": "shuangqiao",
    "unit_price": 55.4,
    "lat": 39.907713,
    "lng": 116.572868
  },
  {
    "title": "整租·北花园小区1号院 1室1厅 南",
    "community": "北花园小区1号院",
    "area": "52.00",
    "rooms": "1室1厅",
    "direction": "南",
    "floor": "",
    "price": "3800",
    "tags": "",
    "source": "",
    "url": "https://bj.lianjia.com/zufang/BJ2145055678719328256.html",
    "rent_type": "整租",
    "location": "朝阳区-双桥-北花园小区",
    "scraped_at": "2026-05-02 21:03:25",
    "region": "shuangqiao",
    "unit_price": 73.1,
    "lat": 39.902383,
    "lng": 116.553643
  },
  {
    "title": "整租·恭和家园 1室1厅 南",
    "community": "恭和家园",
    "area": "88.00",
    "rooms": "1室1厅",
    "direction": "南",
    "floor": "",
    "price": "10000",
    "tags": "",
    "source": "",
    "url": "https://bj.lianjia.com/zufang/BJ2147923582309629952.html",
    "rent_type": "整租",
    "location": "朝阳区-双桥-恭和家园",
    "scraped_at": "2026-05-02 21:03:25",
    "region": "shuangqiao",
    "unit_price": 113.6,
    "lat": 39.907713,
    "lng": 116.572868
  },
  {
    "title": "整租·康城别墅二期 3室2厅 南/北",
    "community": "康城别墅二期",
    "area": "223.38",
    "rooms": "3室2厅",
    "direction": "南/北",
    "floor": "",
    "price": "13500",
    "tags": "",
    "source": "",
    "url": "https://bj.lianjia.com/zufang/BJ2091101220088315904.html",
    "rent_type": "整租",
    "location": "朝阳区-双桥-康城别墅二期",
    "scraped_at": "2026-05-02 21:03:25",
    "region": "shuangqiao",
    "unit_price": 60.4,
    "lat": 39.885616,
    "lng": 116.601418
  },
  {
    "title": "整租·朝阳旺角 2室1厅 南/北",
    "community": "朝阳旺角",
    "area": "100.92",
    "rooms": "2室1厅",
    "direction": "南/北",
    "floor": "",
    "price": "4700",
    "tags": "",
    "source": "",
    "url": "https://bj.lianjia.com/zufang/BJ2053106156687065088.html",
    "rent_type": "整租",
    "location": "朝阳区-双桥-朝阳旺角",
    "scraped_at": "2026-05-02 21:03:25",
    "region": "shuangqiao",
    "unit_price": 46.6,
    "lat": 39.903703,
    "lng": 116.580949
  },
  {
    "title": "整租·金隅康惠园3号院 2室1厅 西南",
    "community": "金隅康惠园3号院",
    "area": "70.08",
    "rooms": "2室1厅",
    "direction": "西南",
    "floor": "",
    "price": "4800",
    "tags": "",
    "source": "",
    "url": "https://bj.lianjia.com/zufang/BJ2154199415219290112.html",
    "rent_type": "整租",
    "location": "朝阳区-双桥-金隅康惠园",
    "scraped_at": "2026-05-02 21:03:25",
    "region": "shuangqiao",
    "unit_price": 68.5,
    "lat": 39.902629,
    "lng": 116.570385
  },
  {
    "title": "整租·双桥嘉园 2室1厅 南",
    "community": "双桥嘉园",
    "area": "53.42",
    "rooms": "2室1厅",
    "direction": "南",
    "floor": "",
    "price": "3100",
    "tags": "",
    "source": "",
    "url": "https://bj.lianjia.com/zufang/BJ2150228982811852800.html",
    "rent_type": "整租",
    "location": "朝阳区-双桥-双桥嘉园",
    "scraped_at": "2026-05-02 21:03:30",
    "region": "shuangqiao",
    "unit_price": 58.0,
    "lat": 39.88828,
    "lng": 116.597891
  },
  {
    "title": "整租·康泉小区 2室1厅 南/北",
    "community": "康泉小区",
    "area": "95.69",
    "rooms": "2室1厅",
    "direction": "南/北",
    "floor": "",
    "price": "5000",
    "tags": "",
    "source": "",
    "url": "https://bj.lianjia.com/zufang/BJ2161362744081645568.html",
    "rent_type": "整租",
    "location": "朝阳区-双桥-康泉小区",
    "scraped_at": "2026-05-02 21:04:15",
    "region": "shuangqiao",
    "unit_price": 52.3,
    "lat": 39.905367,
    "lng": 116.573816
  },
  {
    "title": "整租·玲珑山 2房间 南",
    "community": "玲珑山 2房间 南",
    "area": "60.00",
    "rooms": "",
    "direction": "",
    "floor": "",
    "price": "4200",
    "tags": "",
    "source": "",
    "url": "https://bj.lianjia.com/zufang/BJ2146867592428519424.html",
    "rent_type": "整租",
    "location": "朝阳区-双桥-玲珑山",
    "scraped_at": "2026-05-02 21:03:25",
    "region": "shuangqiao",
    "unit_price": 70.0,
    "lat": 39.907713,
    "lng": 116.572868
  },
  {
    "title": "独栋·远亲近邻 轻遇HOME 星空文娱店 传媒大学一居月租月付 1室1厅",
    "community": "远亲近邻 轻遇HOME 星空文娱店 传媒大学一居月租月付",
    "area": "35.00",
    "rooms": "1室1厅",
    "direction": "",
    "floor": "",
    "price": "3600",
    "tags": "",
    "source": "",
    "url": "https://bj.lianjia.com/apartment/71606.html",
    "rent_type": "独栋",
    "location": "",
    "scraped_at": "2026-05-02 21:03:25",
    "region": "shuangqiao",
    "unit_price": 102.9,
    "lat": 39.909006,
    "lng": 116.553702
  },
  {
    "title": "独栋·远亲近邻 轻遇HOME 艺水旗舰店 一室一厅可养宠物免费停车可短租无中介 1室1厅",
    "community": "远亲近邻 轻遇HOME 艺水旗舰店 一室一厅可养宠物免费停车可短租无中介",
    "area": "65.00",
    "rooms": "1室1厅",
    "direction": "",
    "floor": "",
    "price": "4200-4500",
    "tags": "",
    "source": "",
    "url": "https://bj.lianjia.com/apartment/98869.html",
    "rent_type": "独栋",
    "location": "",
    "scraped_at": "2026-05-02 21:03:25",
    "region": "shuangqiao",
    "unit_price": "",
    "lat": 39.958907,
    "lng": 116.28209
  },
  {
    "title": "整租·北花园小区1号院 1室0厅 南",
    "community": "北花园小区1号院",
    "area": "51.00",
    "rooms": "1室0厅",
    "direction": "南",
    "floor": "",
    "price": "4500",
    "tags": "",
    "source": "",
    "url": "https://bj.lianjia.com/zufang/BJ2137895480250597376.html",
    "rent_type": "整租",
    "location": "朝阳区-双桥-北花园小区",
    "scraped_at": "2026-05-02 21:03:28",
    "region": "shuangqiao",
    "unit_price": 88.2,
    "lat": 39.902383,
    "lng": 116.553643
  },
  {
    "title": "整租·乐栋300 3房间 东",
    "community": "乐栋300 3房间 东",
    "area": "58.89",
    "rooms": "",
    "direction": "",
    "floor": "",
    "price": "4800",
    "tags": "",
    "source": "",
    "url": "https://bj.lianjia.com/zufang/BJ2137891516138389504.html",
    "rent_type": "整租",
    "location": "朝阳区-双桥-乐栋",
    "scraped_at": "2026-05-02 21:03:28",
    "region": "shuangqiao",
    "unit_price": 81.5,
    "lat": 39.889406,
    "lng": 116.596945
  },
  {
    "title": "整租·东会新村 2室1厅 南/北",
    "community": "东会新村",
    "area": "68.00",
    "rooms": "2室1厅",
    "direction": "南/北",
    "floor": "",
    "price": "5000",
    "tags": "",
    "source": "",
    "url": "https://bj.lianjia.com/zufang/BJ2154845557904900096.html",
    "rent_type": "整租",
    "location": "朝阳区-双桥-东会新村",
    "scraped_at": "2026-05-02 21:03:28",
    "region": "shuangqiao",
    "unit_price": 73.5,
    "lat": 39.906747,
    "lng": 116.594005
  },
  {
    "title": "整租·远洋一方北润园 3室1厅 南/北",
    "community": "远洋一方北润园",
    "area": "115.27",
    "rooms": "3室1厅",
    "direction": "南/北",
    "floor": "",
    "price": "7200",
    "tags": "",
    "source": "",
    "url": "https://bj.lianjia.com/zufang/BJ2155289503449743360.html",
    "rent_type": "整租",
    "location": "朝阳区-双桥-远洋一方北润园",
    "scraped_at": "2026-05-02 21:03:28",
    "region": "shuangqiao",
    "unit_price": 62.5,
    "lat": 39.907713,
    "lng": 116.572868
  },
  {
    "title": "整租·珠江绿洲 2室2厅 西南",
    "community": "珠江绿洲",
    "area": "102.00",
    "rooms": "2室2厅",
    "direction": "西南",
    "floor": "",
    "price": "7800",
    "tags": "",
    "source": "",
    "url": "https://bj.lianjia.com/zufang/BJ2155543772341993472.html",
    "rent_type": "整租",
    "location": "朝阳区-双桥-珠江绿洲",
    "scraped_at": "2026-05-02 21:03:28",
    "region": "shuangqiao",
    "unit_price": 76.5,
    "lat": 39.907713,
    "lng": 116.572868
  },
  {
    "title": "整租·玲珑山 2房间 东",
    "community": "玲珑山 2房间 东",
    "area": "66.15",
    "rooms": "",
    "direction": "",
    "floor": "",
    "price": "5200",
    "tags": "",
    "source": "",
    "url": "https://bj.lianjia.com/zufang/BJ2155671573200109568.html",
    "rent_type": "整租",
    "location": "朝阳区-双桥-玲珑山",
    "scraped_at": "2026-05-02 21:03:28",
    "region": "shuangqiao",
    "unit_price": 78.6,
    "lat": 39.898564,
    "lng": 116.476279
  },
  {
    "title": "整租·天泰新房苑 2室1厅 南/北",
    "community": "天泰新房苑",
    "area": "88.55",
    "rooms": "2室1厅",
    "direction": "南/北",
    "floor": "",
    "price": "4700",
    "tags": "",
    "source": "",
    "url": "https://bj.lianjia.com/zufang/BJ2155873690338721792.html",
    "rent_type": "整租",
    "location": "朝阳区-双桥-天泰新房苑",
    "scraped_at": "2026-05-02 21:03:28",
    "region": "shuangqiao",
    "unit_price": 53.1,
    "lat": 39.907713,
    "lng": 116.572868
  },
  {
    "title": "整租·金隅可乐 1房间 西北",
    "community": "金隅可乐 1房间 西北",
    "area": "54.50",
    "rooms": "",
    "direction": "",
    "floor": "",
    "price": "3800",
    "tags": "",
    "source": "",
    "url": "https://bj.lianjia.com/zufang/BJ2155997822195859456.html",
    "rent_type": "整租",
    "location": "朝阳区-双桥-金隅可乐",
    "scraped_at": "2026-05-02 21:03:28",
    "region": "shuangqiao",
    "unit_price": 69.7,
    "lat": 39.902629,
    "lng": 116.570385
  },
  {
    "title": "整租·玲珑山 1房间 西",
    "community": "玲珑山 1房间 西",
    "area": "48.17",
    "rooms": "",
    "direction": "",
    "floor": "",
    "price": "3580",
    "tags": "",
    "source": "",
    "url": "https://bj.lianjia.com/zufang/BJ2156040483619471360.html",
    "rent_type": "整租",
    "location": "朝阳区-双桥-玲珑山",
    "scraped_at": "2026-05-02 21:03:28",
    "region": "shuangqiao",
    "unit_price": 74.3,
    "lat": 39.907713,
    "lng": 116.572868
  },
  {
    "title": "整租·双惠苑2号院 1室1厅 南/北",
    "community": "双惠苑2号院",
    "area": "78.00",
    "rooms": "1室1厅",
    "direction": "南/北",
    "floor": "",
    "price": "4600",
    "tags": "",
    "source": "",
    "url": "https://bj.lianjia.com/zufang/BJ2156262140984426496.html",
    "rent_type": "整租",
    "location": "朝阳区-双桥-双惠苑",
    "scraped_at": "2026-05-02 21:03:28",
    "region": "shuangqiao",
    "unit_price": 59.0,
    "lat": 39.902678,
    "lng": 116.567803
  },
  {
    "title": "整租·北花园小区1号院 1室0厅 南",
    "community": "北花园小区1号院",
    "area": "51.84",
    "rooms": "1室0厅",
    "direction": "南",
    "floor": "",
    "price": "4000",
    "tags": "",
    "source": "",
    "url": "https://bj.lianjia.com/zufang/BJ2156715196314288128.html",
    "rent_type": "整租",
    "location": "朝阳区-双桥-北花园小区",
    "scraped_at": "2026-05-02 21:03:28",
    "region": "shuangqiao",
    "unit_price": 77.2,
    "lat": 39.902383,
    "lng": 116.553643
  },
  {
    "title": "整租·天泰北双苑 3室1厅 南",
    "community": "天泰北双苑",
    "area": "87.68",
    "rooms": "3室1厅",
    "direction": "南",
    "floor": "",
    "price": "5500",
    "tags": "",
    "source": "",
    "url": "https://bj.lianjia.com/zufang/BJ2156945597943250944.html",
    "rent_type": "整租",
    "location": "朝阳区-双桥-天泰北双苑",
    "scraped_at": "2026-05-02 21:03:28",
    "region": "shuangqiao",
    "unit_price": 62.7,
    "lat": 39.907713,
    "lng": 116.572868
  },
  {
    "title": "整租·东柳西里 3室1厅 南/北",
    "community": "东柳西里",
    "area": "52.93",
    "rooms": "3室1厅",
    "direction": "南/北",
    "floor": "",
    "price": "3500",
    "tags": "",
    "source": "",
    "url": "https://bj.lianjia.com/zufang/BJ2156986468709433344.html",
    "rent_type": "整租",
    "location": "朝阳区-双桥-东柳西里",
    "scraped_at": "2026-05-02 21:03:28",
    "region": "shuangqiao",
    "unit_price": 66.1,
    "lat": 39.901674,
    "lng": 116.567983
  },
  {
    "title": "整租·珠江绿洲 3室2厅 南/北",
    "community": "珠江绿洲",
    "area": "139.00",
    "rooms": "3室2厅",
    "direction": "南/北",
    "floor": "",
    "price": "8500",
    "tags": "",
    "source": "",
    "url": "https://bj.lianjia.com/zufang/BJ2157028902940180480.html",
    "rent_type": "整租",
    "location": "朝阳区-双桥-珠江绿洲",
    "scraped_at": "2026-05-02 21:03:28",
    "region": "shuangqiao",
    "unit_price": 61.2,
    "lat": 39.907713,
    "lng": 116.572868
  },
  {
    "title": "整租·远洋一方润园3号院 2室1厅 东/西",
    "community": "远洋一方润园3号院",
    "area": "74.49",
    "rooms": "2室1厅",
    "direction": "东/西",
    "floor": "",
    "price": "5200",
    "tags": "",
    "source": "",
    "url": "https://bj.lianjia.com/zufang/BJ2157110393602834432.html",
    "rent_type": "整租",
    "location": "朝阳区-双桥-远洋一方润园",
    "scraped_at": "2026-05-02 21:03:28",
    "region": "shuangqiao",
    "unit_price": 69.8,
    "lat": 39.907713,
    "lng": 116.572868
  },
  {
    "title": "整租·华美橡树岭 1房间 西",
    "community": "华美橡树岭 1房间 西",
    "area": "37.43",
    "rooms": "",
    "direction": "",
    "floor": "",
    "price": "2500",
    "tags": "",
    "source": "",
    "url": "https://bj.lianjia.com/zufang/BJ2157376308877721600.html",
    "rent_type": "整租",
    "location": "朝阳区-双桥-华美橡树岭",
    "scraped_at": "2026-05-02 21:03:28",
    "region": "shuangqiao",
    "unit_price": 66.8,
    "lat": 39.88582,
    "lng": 116.59339
  },
  {
    "title": "整租·玲珑山 5房间 南/北",
    "community": "玲珑山 5房间 南/北",
    "area": "112.86",
    "rooms": "",
    "direction": "",
    "floor": "",
    "price": "7200",
    "tags": "",
    "source": "",
    "url": "https://bj.lianjia.com/zufang/BJ2157387098330497024.html",
    "rent_type": "整租",
    "location": "朝阳区-双桥-玲珑山",
    "scraped_at": "2026-05-02 21:03:28",
    "region": "shuangqiao",
    "unit_price": 63.8,
    "lat": 39.907713,
    "lng": 116.572868
  },
  {
    "title": "整租·康城别墅一期 5室2厅 南/北",
    "community": "康城别墅一期",
    "area": "342.72",
    "rooms": "5室2厅",
    "direction": "南/北",
    "floor": "",
    "price": "25000",
    "tags": "",
    "source": "",
    "url": "https://bj.lianjia.com/zufang/BJ2157427763638697984.html",
    "rent_type": "整租",
    "location": "朝阳区-双桥-康城别墅一期",
    "scraped_at": "2026-05-02 21:03:28",
    "region": "shuangqiao",
    "unit_price": 72.9,
    "lat": 39.885616,
    "lng": 116.601418
  },
  {
    "title": "整租·远洋一方润园2号院 3室2厅 南/北",
    "community": "远洋一方润园2号院",
    "area": "140.00",
    "rooms": "3室2厅",
    "direction": "南/北",
    "floor": "",
    "price": "8500",
    "tags": "",
    "source": "",
    "url": "https://bj.lianjia.com/zufang/BJ2158112030215634944.html",
    "rent_type": "整租",
    "location": "朝阳区-双桥-远洋一方润园",
    "scraped_at": "2026-05-02 21:03:30",
    "region": "shuangqiao",
    "unit_price": 60.7,
    "lat": 39.907713,
    "lng": 116.572868
  },
  {
    "title": "整租·双桥小区 2室2厅 南/北",
    "community": "双桥小区",
    "area": "74.03",
    "rooms": "2室2厅",
    "direction": "南/北",
    "floor": "",
    "price": "4700",
    "tags": "",
    "source": "",
    "url": "https://bj.lianjia.com/zufang/BJ2158529459425116160.html",
    "rent_type": "整租",
    "location": "朝阳区-双桥-双桥小区",
    "scraped_at": "2026-05-02 21:03:30",
    "region": "shuangqiao",
    "unit_price": 63.5,
    "lat": 39.88828,
    "lng": 116.597891
  },
  {
    "title": "整租·管庄新村 1室1厅 西北",
    "community": "管庄新村",
    "area": "54.00",
    "rooms": "1室1厅",
    "direction": "西北",
    "floor": "",
    "price": "3900",
    "tags": "",
    "source": "",
    "url": "https://bj.lianjia.com/zufang/BJ2158795020503613440.html",
    "rent_type": "整租",
    "location": "朝阳区-双桥-管庄新村",
    "scraped_at": "2026-05-02 21:03:30",
    "region": "shuangqiao",
    "unit_price": 72.2,
    "lat": 39.901209,
    "lng": 116.593592
  },
  {
    "title": "整租·管庄新村 1室1厅 南",
    "community": "管庄新村",
    "area": "55.00",
    "rooms": "1室1厅",
    "direction": "南",
    "floor": "",
    "price": "4000",
    "tags": "",
    "source": "",
    "url": "https://bj.lianjia.com/zufang/BJ2159204098287599616.html",
    "rent_type": "整租",
    "location": "朝阳区-双桥-管庄新村",
    "scraped_at": "2026-05-02 21:03:30",
    "region": "shuangqiao",
    "unit_price": 72.7,
    "lat": 39.901209,
    "lng": 116.593592
  },
  {
    "title": "整租·北花园小区1号院 1室0厅 南",
    "community": "北花园小区1号院",
    "area": "51.84",
    "rooms": "1室0厅",
    "direction": "南",
    "floor": "",
    "price": "4000",
    "tags": "",
    "source": "",
    "url": "https://bj.lianjia.com/zufang/BJ2159523076893573120.html",
    "rent_type": "整租",
    "location": "朝阳区-双桥-北花园小区",
    "scraped_at": "2026-05-02 21:03:30",
    "region": "shuangqiao",
    "unit_price": 77.2,
    "lat": 39.902383,
    "lng": 116.553643
  },
  {
    "title": "整租·远洋一方林语苑 2室1厅 南",
    "community": "远洋一方林语苑",
    "area": "88.98",
    "rooms": "2室1厅",
    "direction": "南",
    "floor": "",
    "price": "5700",
    "tags": "",
    "source": "",
    "url": "https://bj.lianjia.com/zufang/BJ2159573451080204288.html",
    "rent_type": "整租",
    "location": "朝阳区-双桥-远洋一方林语苑",
    "scraped_at": "2026-05-02 21:03:30",
    "region": "shuangqiao",
    "unit_price": 64.1,
    "lat": 39.907713,
    "lng": 116.572868
  },
  {
    "title": "整租·远洋一方林语苑 2室2厅 南/北",
    "community": "远洋一方林语苑",
    "area": "88.66",
    "rooms": "2室2厅",
    "direction": "南/北",
    "floor": "",
    "price": "5600",
    "tags": "",
    "source": "",
    "url": "https://bj.lianjia.com/zufang/BJ2159610414445363200.html",
    "rent_type": "整租",
    "location": "朝阳区-双桥-远洋一方林语苑",
    "scraped_at": "2026-05-02 21:03:30",
    "region": "shuangqiao",
    "unit_price": 63.2,
    "lat": 39.907713,
    "lng": 116.572868
  },
  {
    "title": "整租·北花园小区1号院 1室0厅 南",
    "community": "北花园小区1号院",
    "area": "51.31",
    "rooms": "1室0厅",
    "direction": "南",
    "floor": "",
    "price": "4200",
    "tags": "",
    "source": "",
    "url": "https://bj.lianjia.com/zufang/BJ2149106926284177408.html",
    "rent_type": "整租",
    "location": "朝阳区-双桥-北花园小区",
    "scraped_at": "2026-05-02 21:03:30",
    "region": "shuangqiao",
    "unit_price": 81.9,
    "lat": 39.902383,
    "lng": 116.553643
  },
  {
    "title": "整租·双惠苑1号院 2室1厅 南/北",
    "community": "双惠苑1号院",
    "area": "82.96",
    "rooms": "2室1厅",
    "direction": "南/北",
    "floor": "",
    "price": "5200",
    "tags": "",
    "source": "",
    "url": "https://bj.lianjia.com/zufang/BJ2149338450048843776.html",
    "rent_type": "整租",
    "location": "朝阳区-双桥-双惠苑",
    "scraped_at": "2026-05-02 21:03:30",
    "region": "shuangqiao",
    "unit_price": 62.7,
    "lat": 39.902678,
    "lng": 116.567803
  },
  {
    "title": "整租·北花园小区3号院 2室1厅 南",
    "community": "北花园小区3号院",
    "area": "75.49",
    "rooms": "2室1厅",
    "direction": "南",
    "floor": "",
    "price": "5000",
    "tags": "",
    "source": "",
    "url": "https://bj.lianjia.com/zufang/BJ2149394941711745024.html",
    "rent_type": "整租",
    "location": "朝阳区-双桥-北花园小区",
    "scraped_at": "2026-05-02 21:03:30",
    "region": "shuangqiao",
    "unit_price": 66.2,
    "lat": 39.902383,
    "lng": 116.553643
  },
  {
    "title": "整租·乐栋300 2房间 南",
    "community": "乐栋300 2房间 南",
    "area": "46.00",
    "rooms": "",
    "direction": "",
    "floor": "",
    "price": "4500",
    "tags": "",
    "source": "",
    "url": "https://bj.lianjia.com/zufang/BJ2150081586299666432.html",
    "rent_type": "整租",
    "location": "朝阳区-双桥-乐栋",
    "scraped_at": "2026-05-02 21:03:30",
    "region": "shuangqiao",
    "unit_price": 97.8,
    "lat": 39.889406,
    "lng": 116.596945
  },
  {
    "title": "整租·天泰北双苑 1室1厅 南",
    "community": "天泰北双苑",
    "area": "67.23",
    "rooms": "1室1厅",
    "direction": "南",
    "floor": "",
    "price": "4600",
    "tags": "",
    "source": "",
    "url": "https://bj.lianjia.com/zufang/BJ2149849842157879296.html",
    "rent_type": "整租",
    "location": "朝阳区-双桥-天泰北双苑",
    "scraped_at": "2026-05-02 21:03:30",
    "region": "shuangqiao",
    "unit_price": 68.4,
    "lat": 39.907713,
    "lng": 116.572868
  },
  {
    "title": "整租·远洋一方林语苑 1室1厅 东北",
    "community": "远洋一方林语苑",
    "area": "66.66",
    "rooms": "1室1厅",
    "direction": "东北",
    "floor": "",
    "price": "5800",
    "tags": "",
    "source": "",
    "url": "https://bj.lianjia.com/zufang/BJ2150076195398483968.html",
    "rent_type": "整租",
    "location": "朝阳区-双桥-远洋一方林语苑",
    "scraped_at": "2026-05-02 21:03:30",
    "region": "shuangqiao",
    "unit_price": 87.0,
    "lat": 39.907713,
    "lng": 116.572868
  },
  {
    "title": "整租·艺水芳园 2室1厅 西南",
    "community": "艺水芳园",
    "area": "76.26",
    "rooms": "2室1厅",
    "direction": "西南",
    "floor": "",
    "price": "4700",
    "tags": "",
    "source": "",
    "url": "https://bj.lianjia.com/zufang/BJ2150177688961155072.html",
    "rent_type": "整租",
    "location": "朝阳区-双桥-艺水芳园",
    "scraped_at": "2026-05-02 21:03:30",
    "region": "shuangqiao",
    "unit_price": 61.6,
    "lat": 39.907713,
    "lng": 116.572868
  },
  {
    "title": "整租·华美橡树岭 1房间 东",
    "community": "华美橡树岭 1房间 东",
    "area": "35.30",
    "rooms": "",
    "direction": "",
    "floor": "",
    "price": "3100",
    "tags": "",
    "source": "",
    "url": "https://bj.lianjia.com/zufang/BJ2150462688973553664.html",
    "rent_type": "整租",
    "location": "朝阳区-双桥-华美橡树岭",
    "scraped_at": "2026-05-02 21:03:30",
    "region": "shuangqiao",
    "unit_price": 87.8,
    "lat": 39.88582,
    "lng": 116.59339
  },
  {
    "title": "整租·天泰北双苑 2室1厅 南/北",
    "community": "天泰北双苑",
    "area": "88.41",
    "rooms": "2室1厅",
    "direction": "南/北",
    "floor": "",
    "price": "5000",
    "tags": "",
    "source": "",
    "url": "https://bj.lianjia.com/zufang/BJ2150959202703507456.html",
    "rent_type": "整租",
    "location": "朝阳区-双桥-天泰北双苑",
    "scraped_at": "2026-05-02 21:03:30",
    "region": "shuangqiao",
    "unit_price": 56.6,
    "lat": 39.907713,
    "lng": 116.572868
  },
  {
    "title": "整租·珠江绿洲 3室1厅 西南",
    "community": "珠江绿洲",
    "area": "118.00",
    "rooms": "3室1厅",
    "direction": "西南",
    "floor": "",
    "price": "8800",
    "tags": "",
    "source": "",
    "url": "https://bj.lianjia.com/zufang/BJ2151549435300020224.html",
    "rent_type": "整租",
    "location": "朝阳区-双桥-珠江绿洲",
    "scraped_at": "2026-05-02 21:03:30",
    "region": "shuangqiao",
    "unit_price": 74.6,
    "lat": 39.907713,
    "lng": 116.572868
  },
  {
    "title": "整租·双桥小区 2室1厅 南/北",
    "community": "双桥小区",
    "area": "75.00",
    "rooms": "2室1厅",
    "direction": "南/北",
    "floor": "",
    "price": "4300",
    "tags": "",
    "source": "",
    "url": "https://bj.lianjia.com/zufang/BJ2160641732692148224.html",
    "rent_type": "整租",
    "location": "朝阳区-双桥-双桥小区",
    "scraped_at": "2026-05-02 21:03:34",
    "region": "shuangqiao",
    "unit_price": 57.3,
    "lat": 39.88828,
    "lng": 116.597891
  },
  {
    "title": "整租·远洋一方林语苑 1室1厅 东北",
    "community": "远洋一方林语苑",
    "area": "66.66",
    "rooms": "1室1厅",
    "direction": "东北",
    "floor": "",
    "price": "4600",
    "tags": "",
    "source": "",
    "url": "https://bj.lianjia.com/zufang/BJ2147994656892256256.html",
    "rent_type": "整租",
    "location": "朝阳区-双桥-远洋一方林语苑",
    "scraped_at": "2026-05-02 21:03:34",
    "region": "shuangqiao",
    "unit_price": 69.0,
    "lat": 39.907713,
    "lng": 116.572868
  },
  {
    "title": "整租·定南嘉园 1室1厅 东",
    "community": "定南嘉园",
    "area": "66.00",
    "rooms": "1室1厅",
    "direction": "东",
    "floor": "",
    "price": "3700",
    "tags": "",
    "source": "",
    "url": "https://bj.lianjia.com/zufang/BJ2156685856193118208.html",
    "rent_type": "整租",
    "location": "朝阳区-双桥-定南嘉园",
    "scraped_at": "2026-05-02 21:03:34",
    "region": "shuangqiao",
    "unit_price": 56.1,
    "lat": 39.907713,
    "lng": 116.572868
  },
  {
    "title": "整租·水郡长安 1室1厅 北",
    "community": "水郡长安",
    "area": "60.83",
    "rooms": "1室1厅",
    "direction": "北",
    "floor": "",
    "price": "4800",
    "tags": "",
    "source": "",
    "url": "https://bj.lianjia.com/zufang/BJ2154050251156094976.html",
    "rent_type": "整租",
    "location": "朝阳区-双桥-水郡长安",
    "scraped_at": "2026-05-02 21:03:34",
    "region": "shuangqiao",
    "unit_price": 78.9,
    "lat": 39.907713,
    "lng": 116.572868
  },
  {
    "title": "整租·艺水芳园 3室1厅 南/北",
    "community": "艺水芳园",
    "area": "108.00",
    "rooms": "3室1厅",
    "direction": "南/北",
    "floor": "",
    "price": "6000",
    "tags": "",
    "source": "",
    "url": "https://bj.lianjia.com/zufang/BJ2155327053644169216.html",
    "rent_type": "整租",
    "location": "朝阳区-双桥-艺水芳园",
    "scraped_at": "2026-05-02 21:03:34",
    "region": "shuangqiao",
    "unit_price": 55.6,
    "lat": 39.907713,
    "lng": 116.572868
  },
  {
    "title": "整租·珠江绿洲 3室1厅 南",
    "community": "珠江绿洲",
    "area": "164.00",
    "rooms": "3室1厅",
    "direction": "南",
    "floor": "",
    "price": "9500",
    "tags": "",
    "source": "",
    "url": "https://bj.lianjia.com/zufang/BJ1964544867145089024.html",
    "rent_type": "整租",
    "location": "朝阳区-双桥-珠江绿洲",
    "scraped_at": "2026-05-02 21:03:34",
    "region": "shuangqiao",
    "unit_price": 57.9,
    "lat": 39.907713,
    "lng": 116.572868
  },
  {
    "title": "整租·珠江绿洲 1室1厅 西北",
    "community": "珠江绿洲",
    "area": "73.93",
    "rooms": "1室1厅",
    "direction": "西北",
    "floor": "",
    "price": "7200",
    "tags": "",
    "source": "",
    "url": "https://bj.lianjia.com/zufang/BJ2126232251673870336.html",
    "rent_type": "整租",
    "location": "朝阳区-双桥-珠江绿洲",
    "scraped_at": "2026-05-02 21:03:34",
    "region": "shuangqiao",
    "unit_price": 97.4,
    "lat": 39.907713,
    "lng": 116.572868
  },
  {
    "title": "整租·华美橡树岭 2室1厅 南",
    "community": "华美橡树岭",
    "area": "75.00",
    "rooms": "2室1厅",
    "direction": "南",
    "floor": "",
    "price": "5000",
    "tags": "",
    "source": "",
    "url": "https://bj.lianjia.com/zufang/BJ2147684955860238336.html",
    "rent_type": "整租",
    "location": "朝阳区-双桥-华美橡树岭",
    "scraped_at": "2026-05-02 21:04:06",
    "region": "shuangqiao",
    "unit_price": 66.7,
    "lat": 39.88582,
    "lng": 116.59339
  },
  {
    "title": "整租·双柳巷 2室1厅 南",
    "community": "双柳巷",
    "area": "50.50",
    "rooms": "2室1厅",
    "direction": "南",
    "floor": "",
    "price": "4000",
    "tags": "",
    "source": "",
    "url": "https://bj.lianjia.com/zufang/BJ2154478139009400832.html",
    "rent_type": "整租",
    "location": "朝阳区-双桥-双柳巷",
    "scraped_at": "2026-05-02 21:04:06",
    "region": "shuangqiao",
    "unit_price": 79.2,
    "lat": 39.905856,
    "lng": 116.572857
  },
  {
    "title": "整租·水郡长安 1室1厅 北",
    "community": "水郡长安",
    "area": "60.83",
    "rooms": "1室1厅",
    "direction": "北",
    "floor": "",
    "price": "4900",
    "tags": "",
    "source": "",
    "url": "https://bj.lianjia.com/zufang/BJ2161060467919814656.html",
    "rent_type": "整租",
    "location": "朝阳区-双桥-水郡长安",
    "scraped_at": "2026-05-02 21:03:34",
    "region": "shuangqiao",
    "unit_price": 80.6,
    "lat": 39.907713,
    "lng": 116.572868
  },
  {
    "title": "整租·金隅可乐 2房间 西南",
    "community": "金隅可乐 2房间 西南",
    "area": "81.39",
    "rooms": "",
    "direction": "",
    "floor": "",
    "price": "4500",
    "tags": "",
    "source": "",
    "url": "https://bj.lianjia.com/zufang/BJ2158097661138305024.html",
    "rent_type": "整租",
    "location": "朝阳区-双桥-金隅可乐",
    "scraped_at": "2026-05-02 21:03:34",
    "region": "shuangqiao",
    "unit_price": 55.3,
    "lat": 39.902629,
    "lng": 116.570385
  },
  {
    "title": "整租·双柳巷 2室1厅 南/北",
    "community": "双柳巷",
    "area": "58.97",
    "rooms": "2室1厅",
    "direction": "南/北",
    "floor": "",
    "price": "4500",
    "tags": "",
    "source": "",
    "url": "https://bj.lianjia.com/zufang/BJ2156392097702215680.html",
    "rent_type": "整租",
    "location": "朝阳区-双桥-双柳巷",
    "scraped_at": "2026-05-02 21:03:34",
    "region": "shuangqiao",
    "unit_price": 76.3,
    "lat": 39.905856,
    "lng": 116.572857
  },
  {
    "title": "整租·远洋一方溪语苑 1室1厅 南",
    "community": "远洋一方溪语苑",
    "area": "63.32",
    "rooms": "1室1厅",
    "direction": "南",
    "floor": "",
    "price": "4800",
    "tags": "",
    "source": "",
    "url": "https://bj.lianjia.com/zufang/BJ2150623150679785472.html",
    "rent_type": "整租",
    "location": "朝阳区-双桥-远洋一方溪语苑",
    "scraped_at": "2026-05-02 21:03:34",
    "region": "shuangqiao",
    "unit_price": 75.8,
    "lat": 39.907713,
    "lng": 116.572868
  },
  {
    "title": "整租·远洋一方溪语苑 4室2厅 跃层 南/北",
    "community": "远洋一方溪语苑",
    "area": "214.00",
    "rooms": "4室2厅",
    "direction": "",
    "floor": "",
    "price": "11000",
    "tags": "",
    "source": "",
    "url": "https://bj.lianjia.com/zufang/BJ2142829656141725696.html",
    "rent_type": "整租",
    "location": "朝阳区-双桥-远洋一方溪语苑",
    "scraped_at": "2026-05-02 21:03:34",
    "region": "shuangqiao",
    "unit_price": 51.4,
    "lat": 39.907713,
    "lng": 116.572868
  },
  {
    "title": "整租·康城别墅二期 3室2厅 南/北",
    "community": "康城别墅二期",
    "area": "224.00",
    "rooms": "3室2厅",
    "direction": "南/北",
    "floor": "",
    "price": "15000",
    "tags": "",
    "source": "",
    "url": "https://bj.lianjia.com/zufang/BJ2127703246708408320.html",
    "rent_type": "整租",
    "location": "朝阳区-双桥-康城别墅二期",
    "scraped_at": "2026-05-02 21:03:34",
    "region": "shuangqiao",
    "unit_price": 67.0,
    "lat": 39.885616,
    "lng": 116.601418
  },
  {
    "title": "整租·北花园小区3号院 1室0厅 南",
    "community": "北花园小区3号院",
    "area": "51.00",
    "rooms": "1室0厅",
    "direction": "南",
    "floor": "",
    "price": "3700",
    "tags": "",
    "source": "",
    "url": "https://bj.lianjia.com/zufang/BJ2050197999744712704.html",
    "rent_type": "整租",
    "location": "朝阳区-双桥-北花园小区",
    "scraped_at": "2026-05-02 21:03:34",
    "region": "shuangqiao",
    "unit_price": 72.5,
    "lat": 39.902383,
    "lng": 116.553643
  },
  {
    "title": "整租·东一时区 1室1厅 西南",
    "community": "东一时区",
    "area": "62.28",
    "rooms": "1室1厅",
    "direction": "西南",
    "floor": "",
    "price": "4000",
    "tags": "",
    "source": "",
    "url": "https://bj.lianjia.com/zufang/BJ2151269999245787136.html",
    "rent_type": "整租",
    "location": "朝阳区-双桥-东一时区",
    "scraped_at": "2026-05-02 21:03:34",
    "region": "shuangqiao",
    "unit_price": 64.2,
    "lat": 39.898547,
    "lng": 116.599195
  },
  {
    "title": "整租·乐栋300 3房间 东",
    "community": "乐栋300 3房间 东",
    "area": "59.80",
    "rooms": "",
    "direction": "",
    "floor": "",
    "price": "4500",
    "tags": "",
    "source": "",
    "url": "https://bj.lianjia.com/zufang/BJ2142258766123368448.html",
    "rent_type": "整租",
    "location": "朝阳区-双桥-乐栋",
    "scraped_at": "2026-05-02 21:04:06",
    "region": "shuangqiao",
    "unit_price": 75.3,
    "lat": 39.889406,
    "lng": 116.596945
  },
  {
    "title": "整租·珠江绿洲 2室2厅 西南",
    "community": "珠江绿洲",
    "area": "108.49",
    "rooms": "2室2厅",
    "direction": "西南",
    "floor": "",
    "price": "8000",
    "tags": "",
    "source": "",
    "url": "https://bj.lianjia.com/zufang/BJ2158958454935388160.html",
    "rent_type": "整租",
    "location": "朝阳区-双桥-珠江绿洲",
    "scraped_at": "2026-05-02 21:04:06",
    "region": "shuangqiao",
    "unit_price": 73.7,
    "lat": 39.907713,
    "lng": 116.572868
  },
  {
    "title": "整租·金隅康惠园3号院 3室2厅 东/西",
    "community": "金隅康惠园3号院",
    "area": "128.92",
    "rooms": "3室2厅",
    "direction": "东/西",
    "floor": "",
    "price": "7200",
    "tags": "",
    "source": "",
    "url": "https://bj.lianjia.com/zufang/BJ2143276457944678400.html",
    "rent_type": "整租",
    "location": "朝阳区-双桥-金隅康惠园",
    "scraped_at": "2026-05-02 21:03:34",
    "region": "shuangqiao",
    "unit_price": 55.8,
    "lat": 39.902629,
    "lng": 116.570385
  },
  {
    "title": "整租·朝阳旺角 1室0厅 北",
    "community": "朝阳旺角",
    "area": "44.29",
    "rooms": "1室0厅",
    "direction": "北",
    "floor": "",
    "price": "4100",
    "tags": "",
    "source": "",
    "url": "https://bj.lianjia.com/zufang/BJ2154573236904394752.html",
    "rent_type": "整租",
    "location": "朝阳区-双桥-朝阳旺角",
    "scraped_at": "2026-05-02 21:03:34",
    "region": "shuangqiao",
    "unit_price": 92.6,
    "lat": 39.903703,
    "lng": 116.580949
  },
  {
    "title": "整租·远洋一方润园6号院 2室1厅 南/北",
    "community": "远洋一方润园6号院",
    "area": "75.00",
    "rooms": "2室1厅",
    "direction": "南/北",
    "floor": "",
    "price": "4200",
    "tags": "",
    "source": "",
    "url": "https://bj.lianjia.com/zufang/BJ2127663968246824960.html",
    "rent_type": "整租",
    "location": "朝阳区-双桥-远洋一方润园",
    "scraped_at": "2026-05-02 21:04:15",
    "region": "shuangqiao",
    "unit_price": 56.0,
    "lat": 39.907713,
    "lng": 116.572868
  },
  {
    "title": "整租·金隅可乐 1房间 东",
    "community": "金隅可乐 1房间 东",
    "area": "53.32",
    "rooms": "",
    "direction": "",
    "floor": "",
    "price": "3800",
    "tags": "",
    "source": "",
    "url": "https://bj.lianjia.com/zufang/BJ1986397382564118528.html",
    "rent_type": "整租",
    "location": "朝阳区-双桥-金隅可乐",
    "scraped_at": "2026-05-02 21:04:15",
    "region": "shuangqiao",
    "unit_price": 71.3,
    "lat": 39.902629,
    "lng": 116.570385
  },
  {
    "title": "整租·金隅康惠园2号院 2室1厅 东南",
    "community": "金隅康惠园2号院",
    "area": "69.00",
    "rooms": "2室1厅",
    "direction": "东南",
    "floor": "",
    "price": "4800",
    "tags": "",
    "source": "",
    "url": "https://bj.lianjia.com/zufang/BJ2140794052365254656.html",
    "rent_type": "整租",
    "location": "朝阳区-双桥-金隅康惠园",
    "scraped_at": "2026-05-02 21:04:06",
    "region": "shuangqiao",
    "unit_price": 69.6,
    "lat": 39.902629,
    "lng": 116.570385
  },
  {
    "title": "整租·双惠苑5号院 3室1厅 东/南/西",
    "community": "双惠苑5号院",
    "area": "95.18",
    "rooms": "3室1厅",
    "direction": "东/南/西",
    "floor": "",
    "price": "6000",
    "tags": "",
    "source": "",
    "url": "https://bj.lianjia.com/zufang/BJ2147686051173367808.html",
    "rent_type": "整租",
    "location": "朝阳区-双桥-双惠苑",
    "scraped_at": "2026-05-02 21:04:06",
    "region": "shuangqiao",
    "unit_price": 63.0,
    "lat": 39.902678,
    "lng": 116.567803
  },
  {
    "title": "整租·玲珑山 2房间 东",
    "community": "玲珑山 2房间 东",
    "area": "66.00",
    "rooms": "",
    "direction": "",
    "floor": "",
    "price": "5500",
    "tags": "",
    "source": "",
    "url": "https://bj.lianjia.com/zufang/BJ2159907074203451392.html",
    "rent_type": "整租",
    "location": "朝阳区-双桥-玲珑山",
    "scraped_at": "2026-05-02 21:04:15",
    "region": "shuangqiao",
    "unit_price": 83.3,
    "lat": 39.898564,
    "lng": 116.476279
  },