[
  {
    "title": "整租·新融苑 3室2厅 东/西",
    "community": "新融苑",
    "area": "153.20",
    "rooms": "3室2厅",
    "direction": "东/西",
    "floor": "",
    "price": "32000",
    "tags": "",
    "source": "",
    "url": "https://bj.lianjia.com/zufang/BJ2160767201689206784.html",
    "rent_type": "整租",
    "location": "西城区-金融街-新融苑",
    "scraped_at": "2026-05-02 20:18:09",
    "region": "jinrongjie",
    "unit_price": 208.9,
    "lat": 39.902302,
    "lng": 116.364799
  },
  {
    "title": "整租·长安兴融中心 1室1厅 北",
    "community": "长安兴融中心",
    "area": "54.04",
    "rooms": "1室1厅",
    "direction": "北",
    "floor": "",
    "price": "7600",
    "tags": "",
    "source": "",
    "url": "https://bj.lianjia.com/zufang/BJ2143735182505541632.html",
    "rent_type": "整租",
    "location": "西城区-金融街-长安兴融中心",
    "scraped_at": "2026-05-02 20:17:51",
    "region": "jinrongjie",
    "unit_price": 140.6,
    "lat": 39.903752,
    "lng": 116.355739
  },
  {
    "title": "整租·砖塔胡同78号院 2室1厅 西北",
    "community": "砖塔胡同78号院",
    "area": "62.10",
    "rooms": "2室1厅",
    "direction": "西北",
    "floor": "",
    "price": "9500",
    "tags": "",
    "source": "",
    "url": "https://bj.lianjia.com/zufang/BJ2144298895440609280.html",
    "rent_type": "整租",
    "location": "西城区-金融街-砖塔胡同",
    "scraped_at": "2026-05-02 20:17:51",
    "region": "jinrongjie",
    "unit_price": 153.0,
    "lat": 39.920196,
    "lng": 116.362208
  },
  {
    "title": "整租·北京尊府 2室1厅 西",
    "community": "北京尊府",
    "area": "65.10",
    "rooms": "2室1厅",
    "direction": "西",
    "floor": "",
    "price": "12000",
    "tags": "",
    "source": "",
    "url": "https://bj.lianjia.com/zufang/BJ2156419962837663744.html",
    "rent_type": "整租",
    "location": "西城区-金融街-北京尊府",
    "scraped_at": "2026-05-02 20:17:51",
    "region": "jinrongjie",
    "unit_price": 184.3,
    "lat": 39.901106,
    "lng": 116.355138
  },
  {
    "title": "整租·民康胡同30号院 1室1厅 东",
    "community": "民康胡同30号院",
    "area": "50.10",
    "rooms": "1室1厅",
    "direction": "东",
    "floor": "",
    "price": "7800",
    "tags": "",
    "source": "",
    "url": "https://bj.lianjia.com/zufang/BJ2121195759134048256.html",
    "rent_type": "整租",
    "location": "西城区-金融街-民康胡同",
    "scraped_at": "2026-05-02 20:17:51",
    "region": "jinrongjie",
    "unit_price": 155.7,
    "lat": 39.920606,
    "lng": 116.351448
  },
  {
    "title": "整租·西城晶华 1室1厅 东",
    "community": "西城晶华",
    "area": "54.40",
    "rooms": "1室1厅",
    "direction": "东",
    "floor": "",
    "price": "14500",
    "tags": "",
    "source": "",
    "url": "https://bj.lianjia.com/zufang/BJ1808048215090528256.html",
    "rent_type": "整租",
    "location": "西城区-金融街-西城晶华",
    "scraped_at": "2026-05-02 20:17:51",
    "region": "jinrongjie",
    "unit_price": 266.5,
    "lat": 39.919786,
    "lng": 116.358968
  },
  {
    "title": "整租·北京尊府 1室1厅 西",
    "community": "北京尊府",
    "area": "65.10",
    "rooms": "1室1厅",
    "direction": "西",
    "floor": "",
    "price": "12500",
    "tags": "",
    "source": "",
    "url": "https://bj.lianjia.com/zufang/BJ2155350220286722048.html",
    "rent_type": "整租",
    "location": "西城区-金融街-北京尊府",
    "scraped_at": "2026-05-02 20:17:51",
    "region": "jinrongjie",
    "unit_price": 192.0,
    "lat": 39.901106,
    "lng": 116.355138
  },
  {
    "title": "整租·丰汇园小区 1室1厅 北",
    "community": "丰汇园小区",
    "area": "56.65",
    "rooms": "1室1厅",
    "direction": "北",
    "floor": "",
    "price": "9500",
    "tags": "",
    "source": "",
    "url": "https://bj.lianjia.com/zufang/BJ2157413508570939392.html",
    "rent_type": "整租",
    "location": "西城区-金融街-丰汇园小区",
    "scraped_at": "2026-05-02 20:17:51",
    "region": "jinrongjie",
    "unit_price": 167.7,
    "lat": 39.914837,
    "lng": 116.361597
  },
  {
    "title": "整租·新文化街 3室1厅 南/北",
    "community": "新文化街",
    "area": "73.40",
    "rooms": "3室1厅",
    "direction": "南/北",
    "floor": "",
    "price": "11295",
    "tags": "",
    "source": "",
    "url": "https://bj.lianjia.com/zufang/BJ1851900631288119296.html",
    "rent_type": "整租",
    "location": "西城区-金融街-新文化街",
    "scraped_at": "2026-05-02 20:18:37",
    "region": "jinrongjie",
    "unit_price": 153.9,
    "lat": 39.902746,
    "lng": 116.363818
  },
  {
    "title": "整租·羊肉胡同 2室1厅 南",
    "community": "羊肉胡同",
    "area": "37.78",
    "rooms": "2室1厅",
    "direction": "南",
    "floor": "",
    "price": "7000",
    "tags": "",
    "source": "",
    "url": "https://bj.lianjia.com/zufang/BJ2120807602991398912.html",
    "rent_type": "整租",
    "location": "西城区-金融街-羊肉胡同",
    "scraped_at": "2026-05-02 20:17:51",
    "region": "jinrongjie",
    "unit_price": 185.3,
    "lat": 39.921266,
    "lng": 116.359138
  },
  {
    "title": "整租·丰侨公寓 1室1厅 西",
    "community": "丰侨公寓",
    "area": "89.00",
    "rooms": "1室1厅",
    "direction": "西",
    "floor": "",
    "price": "13500",
    "tags": "",
    "source": "",
    "url": "https://bj.lianjia.com/zufang/BJ2150863599025782784.html",
    "rent_type": "整租",
    "location": "西城区-金融街-丰侨公寓",
    "scraped_at": "2026-05-02 20:17:51",
    "region": "jinrongjie",
    "unit_price": 151.7,
    "lat": 39.915286,
    "lng": 116.359568
  },
  {
    "title": "整租·丰汇园小区 1室1厅 东",
    "community": "丰汇园小区",
    "area": "39.10",
    "rooms": "1室1厅",
    "direction": "东",
    "floor": "",
    "price": "7400",
    "tags": "",
    "source": "",
    "url": "https://bj.lianjia.com/zufang/BJ2149385198058340352.html",
    "rent_type": "整租",
    "location": "西城区-金融街-丰汇园小区",
    "scraped_at": "2026-05-02 20:17:51",
    "region": "jinrongjie",
    "unit_price": 189.3,
    "lat": 39.914837,
    "lng": 116.361597
  },
  {
    "title": "整租·中海凯旋 3室2厅 南/北",
    "community": "中海凯旋",
    "area": "171.00",
    "rooms": "3室2厅",
    "direction": "南/北",
    "floor": "",
    "price": "35000",
    "tags": "",
    "source": "",
    "url": "https://bj.lianjia.com/zufang/BJ2130931452211101696.html",
    "rent_type": "整租",
    "location": "西城区-金融街-中海凯旋",
    "scraped_at": "2026-05-02 20:17:51",
    "region": "jinrongjie",
    "unit_price": 204.7,
    "lat": 39.910856,
    "lng": 116.358038
  },
  {
    "title": "整租·丰汇园小区 4室2厅 南/北",
    "community": "丰汇园小区",
    "area": "137.20",
    "rooms": "4室2厅",
    "direction": "南/北",
    "floor": "",
    "price": "38000",
    "tags": "",
    "source": "",
    "url": "https://bj.lianjia.com/zufang/BJ1965728386194079744.html",
    "rent_type": "整租",
    "location": "西城区-金融街-丰汇园小区",
    "scraped_at": "2026-05-02 20:17:51",
    "region": "jinrongjie",
    "unit_price": 277.0,
    "lat": 39.914837,
    "lng": 116.361597
  },
  {
    "title": "整租·丰侨公寓 1室0厅 南",
    "community": "丰侨公寓",
    "area": "58.74",
    "rooms": "1室0厅",
    "direction": "南",
    "floor": "",
    "price": "10800",
    "tags": "",
    "source": "",
    "url": "https://bj.lianjia.com/zufang/BJ1934610127667593216.html",
    "rent_type": "整租",
    "location": "西城区-金融街-丰侨公寓",
    "scraped_at": "2026-05-02 20:18:48",
    "region": "jinrongjie",
    "unit_price": 183.9,
    "lat": 39.915286,
    "lng": 116.359568
  },
  {
    "title": "整租·丰汇园小区 2室1厅 北",
    "community": "丰汇园小区",
    "area": "122.30",
    "rooms": "2室1厅",
    "direction": "北",
    "floor": "",
    "price": "24000",
    "tags": "",
    "source": "",
    "url": "https://bj.lianjia.com/zufang/BJ1843953523327238144.html",
    "rent_type": "整租",
    "location": "西城区-金融街-丰汇园小区",
    "scraped_at": "2026-05-02 20:17:51",
    "region": "jinrongjie",
    "unit_price": 196.2,
    "lat": 39.914837,
    "lng": 116.361597
  },
  {
    "title": "整租·丰侨公寓 3室2厅 东/西",
    "community": "丰侨公寓",
    "area": "171.79",
    "rooms": "3室2厅",
    "direction": "东/西",
    "floor": "",
    "price": "33000",
    "tags": "",
    "source": "",
    "url": "https://bj.lianjia.com/zufang/BJ2090326532709941248.html",
    "rent_type": "整租",
    "location": "西城区-金融街-丰侨公寓",
    "scraped_at": "2026-05-02 20:17:51",
    "region": "jinrongjie",
    "unit_price": 192.1,
    "lat": 39.915286,
    "lng": 116.359568
  },
  {
    "title": "整租·长安兴融中心 4室2厅 南/北",
    "community": "长安兴融中心",
    "area": "293.00",
    "rooms": "4室2厅",
    "direction": "南/北",
    "floor": "",
    "price": "50000",
    "tags": "",
    "source": "",
    "url": "https://bj.lianjia.com/zufang/BJ2096575412669775872.html",
    "rent_type": "整租",
    "location": "西城区-金融街-长安兴融中心",
    "scraped_at": "2026-05-02 20:17:51",
    "region": "jinrongjie",
    "unit_price": 170.6,
    "lat": 39.903752,
    "lng": 116.355739
  },
  {
    "title": "整租·长安兴融中心 1室1厅 北",
    "community": "长安兴融中心",
    "area": "54.04",
    "rooms": "1室1厅",
    "direction": "北",
    "floor": "",
    "price": "8000",
    "tags": "",
    "source": "",
    "url": "https://bj.lianjia.com/zufang/BJ2138570746891337728.html",
    "rent_type": "整租",
    "location": "西城区-金融街-长安兴融中心",
    "scraped_at": "2026-05-02 20:17:51",
    "region": "jinrongjie",
    "unit_price": 148.0,
    "lat": 39.903752,
    "lng": 116.355739
  },
  {
    "title": "整租·丰汇园小区 2室1厅 西",
    "community": "丰汇园小区",
    "area": "63.80",
    "rooms": "2室1厅",
    "direction": "西",
    "floor": "",
    "price": "11500",
    "tags": "",
    "source": "",
    "url": "https://bj.lianjia.com/zufang/BJ2101523752427716608.html",
    "rent_type": "整租",
    "location": "西城区-金融街-丰汇园小区",
    "scraped_at": "2026-05-02 20:17:51",
    "region": "jinrongjie",
    "unit_price": 180.3,
    "lat": 39.914837,
    "lng": 116.361597
  },
  {
    "title": "整租·丰汇园小区 1室0厅 东",
    "community": "丰汇园小区",
    "area": "48.20",
    "rooms": "1室0厅",
    "direction": "东",
    "floor": "",
    "price": "8500",
    "tags": "",
    "source": "",
    "url": "https://bj.lianjia.com/zufang/BJ2131940388540252160.html",
    "rent_type": "整租",
    "location": "西城区-金融街-丰汇园小区",
    "scraped_at": "2026-05-02 20:17:51",
    "region": "jinrongjie",
    "unit_price": 176.3,
    "lat": 39.914837,
    "lng": 116.361597
  },
  {
    "title": "整租·羊肉胡同120号院 1室1厅 南",
    "community": "羊肉胡同120号院",
    "area": "42.20",
    "rooms": "1室1厅",
    "direction": "南",
    "floor": "",
    "price": "5500",
    "tags": "",
    "source": "",
    "url": "https://bj.lianjia.com/zufang/BJ2153485886531043328.html",
    "rent_type": "整租",
    "location": "西城区-金融街-羊肉胡同",
    "scraped_at": "2026-05-02 20:17:51",
    "region": "jinrongjie",
    "unit_price": 130.3,
    "lat": 39.921115,
    "lng": 116.359587
  },
  {
    "title": "整租·丰侨公寓 1室1厅 东/北",
    "community": "丰侨公寓",
    "area": "61.32",
    "rooms": "1室1厅",
    "direction": "东/北",
    "floor": "",
    "price": "11000",
    "tags": "",
    "source": "",
    "url": "https://bj.lianjia.com/zufang/BJ2157508923387543552.html",
    "rent_type": "整租",
    "location": "西城区-金融街-丰侨公寓",
    "scraped_at": "2026-05-02 20:17:51",
    "region": "jinrongjie",
    "unit_price": 179.4,
    "lat": 39.915286,
    "lng": 116.359568
  },
  {
    "title": "整租·丰汇园小区 4室2厅 南/西/北",
    "community": "丰汇园小区",
    "area": "150.00",
    "rooms": "4室2厅",
    "direction": "南/西/北",
    "floor": "",
    "price": "40000",
    "tags": "",
    "source": "",
    "url": "https://bj.lianjia.com/zufang/BJ2154828088553242624.html",
    "rent_type": "整租",
    "location": "西城区-金融街-丰汇园小区",
    "scraped_at": "2026-05-02 20:17:51",
    "region": "jinrongjie",
    "unit_price": 266.7,
    "lat": 39.914837,
    "lng": 116.361597
  },
  {
    "title": "整租·羊肉胡同120号院 1室0厅 南",
    "community": "羊肉胡同120号院",
    "area": "42.70",
    "rooms": "1室0厅",
    "direction": "南",
    "floor": "",
    "price": "6300",
    "tags": "",
    "source": "",
    "url": "https://bj.lianjia.com/zufang/BJ1997151874494496768.html",
    "rent_type": "整租",
    "location": "西城区-金融街-羊肉胡同",
    "scraped_at": "2026-05-02 20:18:48",
    "region": "jinrongjie",
    "unit_price": 147.5,
    "lat": 39.921115,
    "lng": 116.359587
  },
  {
    "title": "整租·尚座大厦 3室2厅 东",
    "community": "尚座大厦",
    "area": "128.81",
    "rooms": "3室2厅",
    "direction": "东",
    "floor": "",
    "price": "23000",
    "tags": "",
    "source": "",
    "url": "https://bj.lianjia.com/zufang/BJ2154905697941192704.html",
    "rent_type": "整租",
    "location": "西城区-金融街-尚座大厦",
    "scraped_at": "2026-05-02 20:17:51",
    "region": "jinrongjie",
    "unit_price": 178.6,
    "lat": 39.899122,
    "lng": 116.36203
  },
  {
    "title": "整租·中海凯旋 3室1厅 西南",
    "community": "中海凯旋",
    "area": "154.34",
    "rooms": "3室1厅",
    "direction": "西南",
    "floor": "",
    "price": "39000",
    "tags": "",
    "source": "",
    "url": "https://bj.lianjia.com/zufang/BJ1808047592978776064.html",
    "rent_type": "整租",
    "location": "西城区-金融街-中海凯旋",
    "scraped_at": "2026-05-02 20:17:51",
    "region": "jinrongjie",
    "unit_price": 252.7,
    "lat": 39.910856,
    "lng": 116.358038
  },
  {
    "title": "整租·羊肉胡同120号院 3室1厅 南/北",
    "community": "羊肉胡同120号院",
    "area": "81.70",
    "rooms": "3室1厅",
    "direction": "南/北",
    "floor": "",
    "price": "10000",
    "tags": "",
    "source": "",
    "url": "https://bj.lianjia.com/zufang/BJ2151666417932435456.html",
    "rent_type": "整租",
    "location": "西城区-金融街-羊肉胡同",
    "scraped_at": "2026-05-02 20:17:53",
    "region": "jinrongjie",
    "unit_price": 122.4,
    "lat": 39.921115,
    "lng": 116.359587
  },
  {
    "title": "整租·丰侨公寓 1室1厅 北",
    "community": "丰侨公寓",
    "area": "57.08",
    "rooms": "1室1厅",
    "direction": "北",
    "floor": "",
    "price": "10000",
    "tags": "",
    "source": "",
    "url": "https://bj.lianjia.com/zufang/BJ2159935390025252864.html",
    "rent_type": "整租",
    "location": "西城区-金融街-丰侨公寓",
    "scraped_at": "2026-05-02 20:18:09",
    "region": "jinrongjie",
    "unit_price": 175.2,
    "lat": 39.915286,
    "lng": 116.359568
  },
  {
    "title": "整租·西城晶华 2室1厅 西",
    "community": "西城晶华",
    "area": "102.65",
    "rooms": "2室1厅",
    "direction": "西",
    "floor": "",
    "price": "21500",
    "tags": "",
    "source": "",
    "url": "https://bj.lianjia.com/zufang/BJ1967555851581390848.html",
    "rent_type": "整租",
    "location": "西城区-金融街-西城晶华",
    "scraped_at": "2026-05-02 20:17:51",
    "region": "jinrongjie",
    "unit_price": 209.4,
    "lat": 39.919786,
    "lng": 116.358968
  },
  {
    "title": "整租·新文化街 3室0厅 东/东南",
    "community": "新文化街",
    "area": "69.00",
    "rooms": "3室0厅",
    "direction": "东/东南",
    "floor": "",
    "price": "12300",
    "tags": "",
    "source": "",
    "url": "https://bj.lianjia.com/zufang/BJ2154098257544871936.html",
    "rent_type": "整租",
    "location": "西城区-金融街-新文化街",
    "scraped_at": "2026-05-02 20:18:15",
    "region": "jinrongjie",
    "unit_price": 178.3,
    "lat": 39.902746,
    "lng": 116.363818
  },
  {
    "title": "整租·砖塔胡同78号院 2室1厅 东",
    "community": "砖塔胡同78号院",
    "area": "65.40",
    "rooms": "2室1厅",
    "direction": "东",
    "floor": "",
    "price": "9000",
    "tags": "",
    "source": "",
    "url": "https://bj.lianjia.com/zufang/BJ2149075270043172864.html",
    "rent_type": "整租",
    "location": "西城区-金融街-砖塔胡同",
    "scraped_at": "2026-05-02 20:17:53",
    "region": "jinrongjie",
    "unit_price": 137.6,
    "lat": 39.920196,
    "lng": 116.362208
  },
  {
    "title": "整租·石灯胡同6号院 3室1厅 南/北",
    "community": "石灯胡同6号院",
    "area": "86.00",
    "rooms": "3室1厅",
    "direction": "南/北",
    "floor": "",
    "price": "14500",
    "tags": "",
    "source": "",
    "url": "https://bj.lianjia.com/zufang/BJ2141887453722574848.html",
    "rent_type": "整租",
    "location": "西城区-金融街-石灯胡同",
    "scraped_at": "2026-05-02 20:17:53",
    "region": "jinrongjie",
    "unit_price": 168.6,
    "lat": 39.900035,
    "lng": 116.359712
  },
  {
    "title": "整租·羊肉胡同120号院 2室1厅 南/北",
    "community": "羊肉胡同120号院",
    "area": "61.00",
    "rooms": "2室1厅",
    "direction": "南/北",
    "floor": "",
    "price": "7800",
    "tags": "",
    "source": "",
    "url": "https://bj.lianjia.com/zufang/BJ2125803837192142848.html",
    "rent_type": "整租",
    "location": "西城区-金融街-羊肉胡同",
    "scraped_at": "2026-05-02 20:18:09",
    "region": "jinrongjie",
    "unit_price": 127.9,
    "lat": 39.921115,
    "lng": 116.359587
  },
  {
    "title": "整租·石灯胡同6号院 3室1厅 东",
    "community": "石灯胡同6号院",
    "area": "69.10",
    "rooms": "3室1厅",
    "direction": "东",
    "floor": "",
    "price": "9500",
    "tags": "",
    "source": "",
    "url": "https://bj.lianjia.com/zufang/BJ2149449868655984640.html",
    "rent_type": "整租",
    "location": "西城区-金融街-石灯胡同",
    "scraped_at": "2026-05-02 20:17:53",
    "region": "jinrongjie",
    "unit_price": 137.5,
    "lat": 39.900035,
    "lng": 116.359712
  },
  {
    "title": "整租·丰汇园小区 3室1厅 南",
    "community": "丰汇园小区",
    "area": "182.20",
    "rooms": "3室1厅",
    "direction": "南",
    "floor": "",
    "price": "25990",
    "tags": "",
    "source": "",
    "url": "https://bj.lianjia.com/zufang/BJ1914014684231499776.html",
    "rent_type": "整租",
    "location": "西城区-金融街-丰汇园小区",
    "scraped_at": "2026-05-02 20:17:53",
    "region": "jinrongjie",
    "unit_price": 142.6,
    "lat": 39.914837,
    "lng": 116.361597
  },
  {
    "title": "整租·丰侨公寓 1室1厅 北",
    "community": "丰侨公寓",
    "area": "57.08",
    "rooms": "1室1厅",
    "direction": "北",
    "floor": "",
    "price": "10000",
    "tags": "",
    "source": "",
    "url": "https://bj.lianjia.com/zufang/BJ2155900475377975296.html",
    "rent_type": "整租",
    "location": "西城区-金融街-丰侨公寓",
    "scraped_at": "2026-05-02 20:17:53",
    "region": "jinrongjie",
    "unit_price": 175.2,
    "lat": 39.915286,
    "lng": 116.359568
  },
  {
    "title": "整租·丰融园 4室2厅 南/北",
    "community": "丰融园",
    "area": "166.40",
    "rooms": "4室2厅",
    "direction": "南/北",
    "floor": "",
    "price": "37000",
    "tags": "",
    "source": "",
    "url": "https://bj.lianjia.com/zufang/BJ2121846919213875200.html",
    "rent_type": "整租",
    "location": "西城区-金融街-丰融园",
    "scraped_at": "2026-05-02 20:17:53",
    "region": "jinrongjie",
    "unit_price": 222.4,
    "lat": 39.915286,
    "lng": 116.359568
  },
  {
    "title": "整租·新文化街 2室1厅 南",
    "community": "新文化街",
    "area": "65.20",
    "rooms": "2室1厅",
    "direction": "南",
    "floor": "",
    "price": "11000",
    "tags": "",
    "source": "",
    "url": "https://bj.lianjia.com/zufang/BJ2151618702754185216.html",
    "rent_type": "整租",
    "location": "西城区-金融街-新文化街",
    "scraped_at": "2026-05-02 20:17:53",
    "region": "jinrongjie",
    "unit_price": 168.7,
    "lat": 39.902746,
    "lng": 116.363818
  },
  {
    "title": "整租·长安兴融中心 2室1厅 南",
    "community": "长安兴融中心",
    "area": "121.89",
    "rooms": "2室1厅",
    "direction": "南",
    "floor": "",
    "price": "17000",
    "tags": "",
    "source": "",
    "url": "https://bj.lianjia.com/zufang/BJ2118926992161112064.html",
    "rent_type": "整租",
    "location": "西城区-金融街-长安兴融中心",
    "scraped_at": "2026-05-02 20:18:12",
    "region": "jinrongjie",
    "unit_price": 139.5,
    "lat": 39.903752,
    "lng": 116.355739
  },
  {
    "title": "整租·丰融园 3室2厅 南/北",
    "community": "丰融园",
    "area": "166.90",
    "rooms": "3室2厅",
    "direction": "南/北",
    "floor": "",
    "price": "33600",
    "tags": "",
    "source": "",
    "url": "https://bj.lianjia.com/zufang/BJ2157437055297126400.html",
    "rent_type": "整租",
    "location": "西城区-金融街-丰融园",
    "scraped_at": "2026-05-02 20:17:53",
    "region": "jinrongjie",
    "unit_price": 201.3,
    "lat": 39.915286,
    "lng": 116.359568
  },
  {
    "title": "整租·丰汇园小区 1室1厅 东",
    "community": "丰汇园小区",
    "area": "48.20",
    "rooms": "1室1厅",
    "direction": "东",
    "floor": "",
    "price": "8300",
    "tags": "",
    "source": "",
    "url": "https://bj.lianjia.com/zufang/BJ2138647628362022912.html",
    "rent_type": "整租",
    "location": "西城区-金融街-丰汇园小区",
    "scraped_at": "2026-05-02 20:17:53",
    "region": "jinrongjie",
    "unit_price": 172.2,
    "lat": 39.914837,
    "lng": 116.361597
  },
  {
    "title": "整租·宏汇园小区 1室1厅 南/北",
    "community": "宏汇园小区",
    "area": "46.70",
    "rooms": "1室1厅",
    "direction": "南/北",
    "floor": "",
    "price": "8100",
    "tags": "",
    "source": "",
    "url": "https://bj.lianjia.com/zufang/BJ2139179648838270976.html",
    "rent_type": "整租",
    "location": "西城区-金融街-宏汇园小区",
    "scraped_at": "2026-05-02 20:17:53",
    "region": "jinrongjie",
    "unit_price": 173.4,
    "lat": 39.9133,
    "lng": 116.364453
  },
  {
    "title": "整租·丰侨公寓 1室1厅 东",
    "community": "丰侨公寓",
    "area": "57.08",
    "rooms": "1室1厅",
    "direction": "东",
    "floor": "",
    "price": "9975",
    "tags": "",
    "source": "",
    "url": "https://bj.lianjia.com/zufang/BJ2159565291682529280.html",
    "rent_type": "整租",
    "location": "西城区-金融街-丰侨公寓",
    "scraped_at": "2026-05-02 20:18:48",
    "region": "jinrongjie",
    "unit_price": 174.8,
    "lat": 39.915286,
    "lng": 116.359568
  },
  {
    "title": "整租·西城晶华 1室1厅 西",
    "community": "西城晶华",
    "area": "73.27",
    "rooms": "1室1厅",
    "direction": "西",
    "floor": "",
    "price": "10430",
    "tags": "",
    "source": "",
    "url": "https://bj.lianjia.com/zufang/BJ1846602959287222272.html",
    "rent_type": "整租",
    "location": "西城区-金融街-西城晶华",
    "scraped_at": "2026-05-02 20:17:53",
    "region": "jinrongjie",
    "unit_price": 142.4,
    "lat": 39.919786,
    "lng": 116.358968
  },
  {
    "title": "整租·长安兴融中心 1室1厅 北",
    "community": "长安兴融中心",
    "area": "54.04",
    "rooms": "1室1厅",
    "direction": "北",
    "floor": "",
    "price": "8500",
    "tags": "",
    "source": "",
    "url": "https://bj.lianjia.com/zufang/BJ2131065208469192704.html",
    "rent_type": "整租",
    "location": "西城区-金融街-长安兴融中心",
    "scraped_at": "2026-05-02 20:17:53",
    "region": "jinrongjie",
    "unit_price": 157.3,
    "lat": 39.903752,
    "lng": 116.355739
  },
  {
    "title": "整租·北京尊府 3室2厅 南/北",
    "community": "北京尊府",
    "area": "187.90",
    "rooms": "3室2厅",
    "direction": "南/北",
    "floor": "",
    "price": "48000",
    "tags": "",
    "source": "",
    "url": "https://bj.lianjia.com/zufang/BJ2157466464553009152.html",
    "rent_type": "整租",
    "location": "西城区-金融街-北京尊府",
    "scraped_at": "2026-05-02 20:17:53",
    "region": "jinrongjie",
    "unit_price": 255.5,
    "lat": 39.901106,
    "lng": 116.355138
  },
  {
    "title": "整租·金宸国际公寓 3室2厅 西南",
    "community": "金宸国际公寓",
    "area": "133.08",
    "rooms": "3室2厅",
    "direction": "西南",
    "floor": "",
    "price": "27000",
    "tags": "",
    "source": "",
    "url": "https://bj.lianjia.com/zufang/BJ2125824383460048896.html",
    "rent_type": "整租",
    "location": "西城区-金融街-金宸国际公寓",
    "scraped_at": "2026-05-02 20:18:12",
    "region": "jinrongjie",
    "unit_price": 202.9,
    "lat": 39.910896,
    "lng": 116.355848
  },
  {
    "title": "整租·丰侨公寓 1室1厅 西",
    "community": "丰侨公寓",
    "area": "57.66",
    "rooms": "1室1厅",
    "direction": "西",
    "floor": "",
    "price": "12000",
    "tags": "",
    "source": "",
    "url": "https://bj.lianjia.com/zufang/BJ2151219984280322048.html",
    "rent_type": "整租",
    "location": "西城区-金融街-丰侨公寓",
    "scraped_at": "2026-05-02 20:17:53",
    "region": "jinrongjie",
    "unit_price": 208.1,
    "lat": 39.915286,
    "lng": 116.359568
  },
  {
    "title": "整租·羊肉胡同120号院 2室1厅 南/北",
    "community": "羊肉胡同120号院",
    "area": "58.70",
    "rooms": "2室1厅",
    "direction": "南/北",
    "floor": "",
    "price": "6700",
    "tags": "",
    "source": "",
    "url": "https://bj.lianjia.com/zufang/BJ2150067750834274304.html",
    "rent_type": "整租",
    "location": "西城区-金融街-羊肉胡同",
    "scraped_at": "2026-05-02 20:18:52",
    "region": "jinrongjie",
    "unit_price": 114.1,
    "lat": 39.921115,
    "lng": 116.359587
  },
  {
    "title": "整租·宏汇园小区 2室0厅 西",
    "community": "宏汇园小区",
    "area": "58.10",
    "rooms": "2室0厅",
    "direction": "西",
    "floor": "",
    "price": "8200",
    "tags": "",
    "source": "",
    "url": "https://bj.lianjia.com/zufang/BJ2138641146841137152.html",
    "rent_type": "整租",
    "location": "西城区-金融街-宏汇园小区",
    "scraped_at": "2026-05-02 20:17:53",
    "region": "jinrongjie",
    "unit_price": 141.1,
    "lat": 39.9133,
    "lng": 116.364453
  },
  {
    "title": "整租·丰汇园小区 4室2厅 南/西",
    "community": "丰汇园小区",
    "area": "191.00",
    "rooms": "4室2厅",
    "direction": "南/西",
    "floor": "",
    "price": "42000",
    "tags": "",
    "source": "",
    "url": "https://bj.lianjia.com/zufang/BJ1823015777536573440.html",
    "rent_type": "整租",
    "location": "西城区-金融街-丰汇园小区",
    "scraped_at": "2026-05-02 20:17:53",
    "region": "jinrongjie",
    "unit_price": 219.9,
    "lat": 39.914837,
    "lng": 116.361597
  },
  {
    "title": "整租·新文化街 1室1厅 东",
    "community": "新文化街",
    "area": "51.40",
    "rooms": "1室1厅",
    "direction": "东",
    "floor": "",
    "price": "7400",
    "tags": "",
    "source": "",
    "url": "https://bj.lianjia.com/zufang/BJ2005933767335608320.html",
    "rent_type": "整租",
    "location": "西城区-金融街-新文化街",
    "scraped_at": "2026-05-02 20:18:48",
    "region": "jinrongjie",
    "unit_price": 144.0,
    "lat": 39.902746,
    "lng": 116.363818
  },
  {
    "title": "整租·太平桥大街6号 1室1厅 东",
    "community": "太平桥大街6号",
    "area": "44.50",
    "rooms": "1室1厅",
    "direction": "东",
    "floor": "",
    "price": "8000",
    "tags": "",
    "source": "",
    "url": "https://bj.lianjia.com/zufang/BJ2139234374850183168.html",
    "rent_type": "整租",
    "location": "西城区-金融街-太平桥大街",
    "scraped_at": "2026-05-02 20:18:15",
    "region": "jinrongjie",
    "unit_price": 179.8,
    "lat": 39.920562,
    "lng": 116.359643
  },
  {
    "title": "整租·丰盛胡同 3室1厅 南",
    "community": "丰盛胡同",
    "area": "65.00",
    "rooms": "3室1厅",
    "direction": "南",
    "floor": "",
    "price": "11890",
    "tags": "",
    "source": "",
    "url": "https://bj.lianjia.com/zufang/BJ2113690864730505216.html",
    "rent_type": "整租",
    "location": "西城区-金融街-丰盛胡同",
    "scraped_at": "2026-05-02 20:17:53",
    "region": "jinrongjie",
    "unit_price": 182.9,
    "lat": 39.91679,
    "lng": 116.36191
  },
  {
    "title": "整租·温家街2号院 2室1厅 东/西",
    "community": "温家街2号院",
    "area": "61.90",
    "rooms": "2室1厅",
    "direction": "东/西",
    "floor": "",
    "price": "7700",
    "tags": "",
    "source": "",
    "url": "https://bj.lianjia.com/zufang/BJ2008550582796681216.html",
    "rent_type": "整租",
    "location": "西城区-金融街-温家街",
    "scraped_at": "2026-05-02 20:18:48",
    "region": "jinrongjie",
    "unit_price": 124.4,
    "lat": 39.899419,
    "lng": 116.36092
  },
  {
    "title": "整租·佟麟阁路62号院 2室1厅 南/北",
    "community": "佟麟阁路62号院",
    "area": "70.00",
    "rooms": "2室1厅",
    "direction": "南/北",
    "floor": "",
    "price": "13200",
    "tags": "",
    "source": "",
    "url": "https://bj.lianjia.com/zufang/BJ2142084687948939264.html",
    "rent_type": "整租",
    "location": "西城区-金融街-佟麟阁路",
    "scraped_at": "2026-05-02 20:18:15",
    "region": "jinrongjie",
    "unit_price": 188.6,
    "lat": 39.899992,
    "lng": 116.364027
  },
  {
    "title": "整租·民康胡同30号院 2室1厅 南",
    "community": "民康胡同30号院",
    "area": "53.30",
    "rooms": "2室1厅",
    "direction": "南",
    "floor": "",
    "price": "9860",
    "tags": "",
    "source": "",
    "url": "https://bj.lianjia.com/zufang/BJ1931926859553964032.html",
    "rent_type": "整租",
    "location": "西城区-金融街-民康胡同",
    "scraped_at": "2026-05-02 20:17:53",
    "region": "jinrongjie",
    "unit_price": 185.0,
    "lat": 39.920606,
    "lng": 116.351448
  },
  {
    "title": "整租·丰侨公寓 7室2厅 东南/西",
    "community": "丰侨公寓",
    "area": "312.08",
    "rooms": "7室2厅",
    "direction": "东南/西",
    "floor": "",
    "price": "70000",
    "tags": "",
    "source": "",
    "url": "https://bj.lianjia.com/zufang/BJ2047593840767926272.html",
    "rent_type": "整租",
    "location": "西城区-金融街-丰侨公寓",
    "scraped_at": "2026-05-02 20:18:15",
    "region": "jinrongjie",
    "unit_price": 224.3,
    "lat": 39.915286,
    "lng": 116.359568
  },
  {
    "title": "整租·佟麟阁路62号院 1室1厅 西南",
    "community": "佟麟阁路62号院",
    "area": "42.80",
    "rooms": "1室1厅",
    "direction": "西南",
    "floor": "",
    "price": "6500",
    "tags": "",
    "source": "",
    "url": "https://bj.lianjia.com/zufang/BJ2092267107721936896.html",
    "rent_type": "整租",
    "location": "西城区-金融街-佟麟阁路",
    "scraped_at": "2026-05-02 20:17:56",
    "region": "jinrongjie",
    "unit_price": 151.9,
    "lat": 39.899992,
    "lng": 116.364027
  },
  {
    "title": "整租·太平桥大街6号 2室1厅 东",
    "community": "太平桥大街6号",
    "area": "61.00",
    "rooms": "2室1厅",
    "direction": "东",
    "floor": "",
    "price": "9000",
    "tags": "",
    "source": "",
    "url": "https://bj.lianjia.com/zufang/BJ2040284812790464512.html",
    "rent_type": "整租",
    "location": "西城区-金融街-太平桥大街",
    "scraped_at": "2026-05-02 20:17:56",
    "region": "jinrongjie",
    "unit_price": 147.5,
    "lat": 39.920562,
    "lng": 116.359643
  },
  {
    "title": "整租·新文化街 1室1厅 东",
    "community": "新文化街",
    "area": "49.90",
    "rooms": "1室1厅",
    "direction": "东",
    "floor": "",
    "price": "7800",
    "tags": "",
    "source": "",
    "url": "https://bj.lianjia.com/zufang/BJ2143717808628826112.html",
    "rent_type": "整租",
    "location": "西城区-金融街-新文化街",
    "scraped_at": "2026-05-02 20:17:56",
    "region": "jinrongjie",
    "unit_price": 156.3,
    "lat": 39.902746,
    "lng": 116.363818
  },
  {
    "title": "整租·宏汇园小区 1室1厅 西",
    "community": "宏汇园小区",
    "area": "58.90",
    "rooms": "1室1厅",
    "direction": "西",
    "floor": "",
    "price": "8000",
    "tags": "",
    "source": "",
    "url": "https://bj.lianjia.com/zufang/BJ2022623773093527552.html",
    "rent_type": "整租",
    "location": "西城区-金融街-宏汇园小区",
    "scraped_at": "2026-05-02 20:18:48",
    "region": "jinrongjie",
    "unit_price": 135.8,
    "lat": 39.9133,
    "lng": 116.364453
  },
  {
    "title": "整租·民康胡同30号院 2室1厅 西",
    "community": "民康胡同30号院",
    "area": "54.60",
    "rooms": "2室1厅",
    "direction": "西",
    "floor": "",
    "price": "9826",
    "tags": "",
    "source": "",
    "url": "https://bj.lianjia.com/zufang/BJ1876368459764334592.html",
    "rent_type": "整租",
    "location": "西城区-金融街-民康胡同",
    "scraped_at": "2026-05-02 20:17:56",
    "region": "jinrongjie",
    "unit_price": 180.0,
    "lat": 39.920606,
    "lng": 116.351448
  },
  {
    "title": "整租·丰汇园小区 1室1厅 东",
    "community": "丰汇园小区",
    "area": "47.00",
    "rooms": "1室1厅",
    "direction": "东",
    "floor": "",
    "price": "8200",
    "tags": "",
    "source": "",
    "url": "https://bj.lianjia.com/zufang/BJ2105942569694265344.html",
    "rent_type": "整租",
    "location": "西城区-金融街-丰汇园小区",
    "scraped_at": "2026-05-02 20:17:56",
    "region": "jinrongjie",
    "unit_price": 174.5,
    "lat": 39.914837,
    "lng": 116.361597
  },
  {
    "title": "整租·丰侨公寓 1室0厅 西",
    "community": "丰侨公寓",
    "area": "56.61",
    "rooms": "1室0厅",
    "direction": "西",
    "floor": "",
    "price": "10800",
    "tags": "",
    "source": "",
    "url": "https://bj.lianjia.com/zufang/BJ2140030200207900672.html",
    "rent_type": "整租",
    "location": "西城区-金融街-丰侨公寓",
    "scraped_at": "2026-05-02 20:17:56",
    "region": "jinrongjie",
    "unit_price": 190.8,
    "lat": 39.915286,
    "lng": 116.359568
  },
  {
    "title": "整租·宏汇园小区 2室1厅 东",
    "community": "宏汇园小区",
    "area": "59.20",
    "rooms": "2室1厅",
    "direction": "东",
    "floor": "",
    "price": "8700",
    "tags": "",
    "source": "",
    "url": "https://bj.lianjia.com/zufang/BJ1814164747352801280.html",
    "rent_type": "整租",
    "location": "西城区-金融街-宏汇园小区",
    "scraped_at": "2026-05-02 20:18:37",
    "region": "jinrongjie",
    "unit_price": 147.0,
    "lat": 39.9133,
    "lng": 116.364453
  },
  {
    "title": "整租·新文化街 2室1厅 东南",
    "community": "新文化街",
    "area": "67.30",
    "rooms": "2室1厅",
    "direction": "东南",
    "floor": "",
    "price": "12000",
    "tags": "",
    "source": "",
    "url": "https://bj.lianjia.com/zufang/BJ2154828016994222080.html",
    "rent_type": "整租",
    "location": "西城区-金融街-新文化街",
    "scraped_at": "2026-05-02 20:17:56",
    "region": "jinrongjie",
    "unit_price": 178.3,
    "lat": 39.902746,
    "lng": 116.363818
  },
  {
    "title": "整租·砖塔胡同78号院 2室1厅 东/北",
    "community": "砖塔胡同78号院",
    "area": "62.10",
    "rooms": "2室1厅",
    "direction": "东/北",
    "floor": "",
    "price": "9500",
    "tags": "",
    "source": "",
    "url": "https://bj.lianjia.com/zufang/BJ2153135894054305792.html",
    "rent_type": "整租",
    "location": "西城区-金融街-砖塔胡同",
    "scraped_at": "2026-05-02 20:17:56",
    "region": "jinrongjie",
    "unit_price": 153.0,
    "lat": 39.920196,
    "lng": 116.362208
  },
  {
    "title": "整租·丰侨公寓 1室0厅 东",
    "community": "丰侨公寓",
    "area": "65.00",
    "rooms": "1室0厅",
    "direction": "东",
    "floor": "",
    "price": "10300",
    "tags": "",
    "source": "",
    "url": "https://bj.lianjia.com/zufang/BJ1886642888230567936.html",
    "rent_type": "整租",
    "location": "西城区-金融街-丰侨公寓",
    "scraped_at": "2026-05-02 20:18:37",
    "region": "jinrongjie",
    "unit_price": 158.5,
    "lat": 39.915286,
    "lng": 116.359568
  },
  {
    "title": "整租·长安兴融中心 1室1厅 北",
    "community": "长安兴融中心",
    "area": "54.00",
    "rooms": "1室1厅",
    "direction": "北",
    "floor": "",
    "price": "9300",
    "tags": "",
    "source": "",
    "url": "https://bj.lianjia.com/zufang/BJ2106638334590713856.html",
    "rent_type": "整租",
    "location": "西城区-金融街-长安兴融中心",
    "scraped_at": "2026-05-02 20:17:56",
    "region": "jinrongjie",
    "unit_price": 172.2,
    "lat": 39.903752,
    "lng": 116.355739
  },
  {
    "title": "整租·新文化街 1室1厅 东南",
    "community": "新文化街",
    "area": "48.80",
    "rooms": "1室1厅",
    "direction": "东南",
    "floor": "",
    "price": "8600",
    "tags": "",
    "source": "",
    "url": "https://bj.lianjia.com/zufang/BJ2139586221012156416.html",
    "rent_type": "整租",
    "location": "西城区-金融街-新文化街",
    "scraped_at": "2026-05-02 20:18:15",
    "region": "jinrongjie",
    "unit_price": 176.2,
    "lat": 39.902746,
    "lng": 116.363818
  },
  {
    "title": "整租·西斜街 2室1厅 南",
    "community": "西斜街",
    "area": "47.90",
    "rooms": "2室1厅",
    "direction": "南",
    "floor": "",
    "price": "6500",
    "tags": "",
    "source": "",
    "url": "https://bj.lianjia.com/zufang/BJ2001490925972357120.html",
    "rent_type": "整租",
    "location": "西城区-金融街-西斜街",
    "scraped_at": "2026-05-02 20:18:48",
    "region": "jinrongjie",
    "unit_price": 135.7,
    "lat": 39.91471,
    "lng": 116.365433
  },
  {
    "title": "整租·丰侨公寓 1室1厅 东",
    "community": "丰侨公寓",
    "area": "70.33",
    "rooms": "1室1厅",
    "direction": "东",
    "floor": "",
    "price": "11190",
    "tags": "",
    "source": "",
    "url": "https://bj.lianjia.com/zufang/BJ1807916203323162624.html",
    "rent_type": "整租",
    "location": "西城区-金融街-丰侨公寓",
    "scraped_at": "2026-05-02 20:17:56",
    "region": "jinrongjie",
    "unit_price": 159.1,
    "lat": 39.915286,
    "lng": 116.359568
  },
  {
    "title": "整租·京畿道 1室1厅 西",
    "community": "京畿道",
    "area": "41.40",
    "rooms": "1室1厅",
    "direction": "西",
    "floor": "",
    "price": "7300",
    "tags": "",
    "source": "",
    "url": "https://bj.lianjia.com/zufang/BJ2126979261947445248.html",
    "rent_type": "整租",
    "location": "西城区-金融街-京畿道",
    "scraped_at": "2026-05-02 20:18:12",
    "region": "jinrongjie",
    "unit_price": 176.3,
    "lat": 39.908476,
    "lng": 116.360878
  },
  {
    "title": "整租·宏汇园小区 2室1厅 南/北",
    "community": "宏汇园小区",
    "area": "73.10",
    "rooms": "2室1厅",
    "direction": "南/北",
    "floor": "",
    "price": "12500",
    "tags": "",
    "source": "",
    "url": "https://bj.lianjia.com/zufang/BJ2131247811830743040.html",
    "rent_type": "整租",
    "location": "西城区-金融街-宏汇园小区",
    "scraped_at": "2026-05-02 20:17:56",
    "region": "jinrongjie",
    "unit_price": 171.0,
    "lat": 39.9133,
    "lng": 116.364453
  },
  {
    "title": "整租·佟麟阁路62号院 1室1厅 西南",
    "community": "佟麟阁路62号院",
    "area": "46.60",
    "rooms": "1室1厅",
    "direction": "西南",
    "floor": "",
    "price": "6500",
    "tags": "",
    "source": "",
    "url": "https://bj.lianjia.com/zufang/BJ1883371425830535168.html",
    "rent_type": "整租",
    "location": "西城区-金融街-佟麟阁路",
    "scraped_at": "2026-05-02 20:18:37",
    "region": "jinrongjie",
    "unit_price": 139.5,
    "lat": 39.899992,
    "lng": 116.364027
  },
  {
    "title": "整租·长安兴融中心 1室1厅 北",
    "community": "长安兴融中心",
    "area": "55.00",
    "rooms": "1室1厅",
    "direction": "北",
    "floor": "",
    "price": "8000",
    "tags": "",
    "source": "",
    "url": "https://bj.lianjia.com/zufang/BJ2116876066210447360.html",
    "rent_type": "整租",
    "location": "西城区-金融街-长安兴融中心",
    "scraped_at": "2026-05-02 20:17:56",
    "region": "jinrongjie",
    "unit_price": 145.5,
    "lat": 39.903752,
    "lng": 116.355739
  },
  {
    "title": "整租·西城晶华 3室2厅 南/北",
    "community": "西城晶华",
    "area": "154.80",
    "rooms": "3室2厅",
    "direction": "南/北",
    "floor": "",
    "price": "33000",
    "tags": "",
    "source": "",
    "url": "https://bj.lianjia.com/zufang/BJ2144473100706643968.html",
    "rent_type": "整租",
    "location": "西城区-金融街-西城晶华",
    "scraped_at": "2026-05-02 20:18:09",
    "region": "jinrongjie",
    "unit_price": 213.2,
    "lat": 39.919786,
    "lng": 116.358968
  },
  {
    "title": "整租·丰汇园小区 2室1厅 东/南/西",
    "community": "丰汇园小区",
    "area": "59.40",
    "rooms": "2室1厅",
    "direction": "东/南/西",
    "floor": "",
    "price": "10500",
    "tags": "",
    "source": "",
    "url": "https://bj.lianjia.com/zufang/BJ1692845039719284736.html",
    "rent_type": "整租",
    "location": "西城区-金融街-丰汇园小区",
    "scraped_at": "2026-05-02 20:18:37",
    "region": "jinrongjie",
    "unit_price": 176.8,
    "lat": 39.914837,
    "lng": 116.361597
  },
  {
    "title": "整租·丰侨公寓 1室0厅 东",
    "community": "丰侨公寓",
    "area": "67.02",
    "rooms": "1室0厅",
    "direction": "东",
    "floor": "",
    "price": "10000",
    "tags": "",
    "source": "",
    "url": "https://bj.lianjia.com/zufang/BJ2139721400754110464.html",
    "rent_type": "整租",
    "location": "西城区-金融街-丰侨公寓",
    "scraped_at": "2026-05-02 20:17:56",
    "region": "jinrongjie",
    "unit_price": 149.2,
    "lat": 39.915286,
    "lng": 116.359568
  },
  {
    "title": "整租·丰汇园小区 1室1厅 南",
    "community": "丰汇园小区",
    "area": "40.10",
    "rooms": "1室1厅",
    "direction": "南",
    "floor": "",
    "price": "8500",
    "tags": "",
    "source": "",
    "url": "https://bj.lianjia.com/zufang/BJ2128693711062695936.html",
    "rent_type": "整租",
    "location": "西城区-金融街-丰汇园小区",
    "scraped_at": "2026-05-02 20:18:12",
    "region": "jinrongjie",
    "unit_price": 212.0,
    "lat": 39.914837,
    "lng": 116.361597
  },
  {
    "title": "整租·西城晶华 2室1厅 南/北",
    "community": "西城晶华",
    "area": "112.84",
    "rooms": "2室1厅",
    "direction": "南/北",
    "floor": "",
    "price": "19950",
    "tags": "",
    "source": "",
    "url": "https://bj.lianjia.com/zufang/BJ2027948130024030208.html",
    "rent_type": "整租",
    "location": "西城区-金融街-西城晶华",
    "scraped_at": "2026-05-02 20:18:48",
    "region": "jinrongjie",
    "unit_price": 176.8,
    "lat": 39.919786,
    "lng": 116.358968
  },
  {
    "title": "整租·鲍家街 3室1厅 南",
    "community": "鲍家街",
    "area": "56.00",
    "rooms": "3室1厅",
    "direction": "南",
    "floor": "",
    "price": "11500",
    "tags": "",
    "source": "",
    "url": "https://bj.lianjia.com/zufang/BJ2102308748121866240.html",
    "rent_type": "整租",
    "location": "西城区-金融街-鲍家街",
    "scraped_at": "2026-05-02 20:17:56",
    "region": "jinrongjie",
    "unit_price": 205.4,
    "lat": 39.901753,
    "lng": 116.354519
  },
  {
    "title": "整租·丰汇园小区 2室1厅 西",
    "community": "丰汇园小区",
    "area": "66.20",
    "rooms": "2室1厅",
    "direction": "西",
    "floor": "",
    "price": "11048",
    "tags": "",
    "source": "",
    "url": "https://bj.lianjia.com/zufang/BJ1994437087679479808.html",
    "rent_type": "整租",
    "location": "西城区-金融街-丰汇园小区",
    "scraped_at": "2026-05-02 20:17:56",
    "region": "jinrongjie",
    "unit_price": 166.9,
    "lat": 39.914837,
    "lng": 116.361597
  },
  {
    "title": "整租·云梯胡同 2室1厅 南/北",
    "community": "云梯胡同",
    "area": "68.50",
    "rooms": "2室1厅",
    "direction": "南/北",
    "floor": "",
    "price": "13000",
    "tags": "",
    "source": "",
    "url": "https://bj.lianjia.com/zufang/BJ1817793693784997888.html",
    "rent_type": "整租",
    "location": "西城区-金融街-云梯胡同",
    "scraped_at": "2026-05-02 20:18:37",
    "region": "jinrongjie",
    "unit_price": 189.8,
    "lat": 39.911802,
    "lng": 116.361294
  },
  {
    "title": "整租·宏汇园小区 3室1厅 南/北",
    "community": "宏汇园小区",
    "area": "77.70",
    "rooms": "3室1厅",
    "direction": "南/北",
    "floor": "",
    "price": "16000",
    "tags": "",
    "source": "",
    "url": "https://bj.lianjia.com/zufang/BJ2033471967885000704.html",
    "rent_type": "整租",
    "location": "西城区-金融街-宏汇园小区",
    "scraped_at": "2026-05-02 20:18:12",
    "region": "jinrongjie",
    "unit_price": 205.9,
    "lat": 39.9133,
    "lng": 116.364453
  },
  {
    "title": "整租·京畿道 2室1厅 南",
    "community": "京畿道",
    "area": "56.70",
    "rooms": "2室1厅",
    "direction": "南",
    "floor": "",
    "price": "12190",
    "tags": "",
    "source": "",
    "url": "https://bj.lianjia.com/zufang/BJ1911632591199404032.html",
    "rent_type": "整租",
    "location": "西城区-金融街-京畿道",
    "scraped_at": "2026-05-02 20:17:56",
    "region": "jinrongjie",
    "unit_price": 215.0,
    "lat": 39.908476,
    "lng": 116.360878
  },
  {
    "title": "整租·丰汇园小区 5室2厅 复式 南/西/北",
    "community": "丰汇园小区",
    "area": "210.71",
    "rooms": "5室2厅",
    "direction": "",
    "floor": "",
    "price": "35000",
    "tags": "",
    "source": "",
    "url": "https://bj.lianjia.com/zufang/BJ2083790848826277888.html",
    "rent_type": "整租",
    "location": "西城区-金融街-丰汇园小区",
    "scraped_at": "2026-05-02 20:17:59",
    "region": "jinrongjie",
    "unit_price": 166.1,
    "lat": 39.914837,
    "lng": 116.361597
  },
  {
    "title": "整租·丰盛胡同 1室1厅 南",
    "community": "丰盛胡同",
    "area": "30.16",
    "rooms": "1室1厅",
    "direction": "南",
    "floor": "",
    "price": "7000",
    "tags": "",
    "source": "",
    "url": "https://bj.lianjia.com/zufang/BJ2007517203045285888.html",
    "rent_type": "整租",
    "location": "西城区-金融街-丰盛胡同",
    "scraped_at": "2026-05-02 20:18:48",
    "region": "jinrongjie",
    "unit_price": 232.1,
    "lat": 39.91679,
    "lng": 116.36191
  },
  {
    "title": "整租·丰汇园小区 2室2厅 南/北",
    "community": "丰汇园小区",
    "area": "104.00",
    "rooms": "2室2厅",
    "direction": "南/北",
    "floor": "",
    "price": "18800",
    "tags": "",
    "source": "",
    "url": "https://bj.lianjia.com/zufang/BJ2141480533580840960.html",
    "rent_type": "整租",
    "location": "西城区-金融街-丰汇园小区",
    "scraped_at": "2026-05-02 20:17:59",
    "region": "jinrongjie",
    "unit_price": 180.8,
    "lat": 39.914837,
    "lng": 116.361597
  },
  {
    "title": "整租·新文化街 1室1厅 西/北",
    "community": "新文化街",
    "area": "49.40",
    "rooms": "1室1厅",
    "direction": "西/北",
    "floor": "",
    "price": "6800",
    "tags": "",
    "source": "",
    "url": "https://bj.lianjia.com/zufang/BJ2075156483464495104.html",
    "rent_type": "整租",
    "location": "西城区-金融街-新文化街",
    "scraped_at": "2026-05-02 20:17:59",
    "region": "jinrongjie",
    "unit_price": 137.7,
    "lat": 39.902746,
    "lng": 116.363818
  },
  {
    "title": "整租·丰汇园小区 1室1厅 西",
    "community": "丰汇园小区",
    "area": "39.80",
    "rooms": "1室1厅",
    "direction": "西",
    "floor": "",
    "price": "8820",
    "tags": "",
    "source": "",
    "url": "https://bj.lianjia.com/zufang/BJ2022268623082487808.html",
    "rent_type": "整租",
    "location": "西城区-金融街-丰汇园小区",
    "scraped_at": "2026-05-02 20:18:48",
    "region": "jinrongjie",
    "unit_price": 221.6,
    "lat": 39.914837,
    "lng": 116.361597
  },
  {
    "title": "整租·新文化街 1室1厅 西",
    "community": "新文化街",
    "area": "43.50",
    "rooms": "1室1厅",
    "direction": "西",
    "floor": "",
    "price": "7060",
    "tags": "",
    "source": "",
    "url": "https://bj.lianjia.com/zufang/BJ1641549850958888960.html",
    "rent_type": "整租",
    "location": "西城区-金融街-新文化街",
    "scraped_at": "2026-05-02 20:17:59",
    "region": "jinrongjie",
    "unit_price": 162.3,
    "lat": 39.902746,
    "lng": 116.363818
  },
  {
    "title": "整租·丰汇园小区 1室0厅 北",
    "community": "丰汇园小区",
    "area": "41.61",
    "rooms": "1室0厅",
    "direction": "北",
    "floor": "",
    "price": "7600",
    "tags": "",
    "source": "",
    "url": "https://bj.lianjia.com/zufang/BJ2115428597404532736.html",
    "rent_type": "整租",
    "location": "西城区-金融街-丰汇园小区",
    "scraped_at": "2026-05-02 20:17:59",
    "region": "jinrongjie",
    "unit_price": 182.6,
    "lat": 39.914837,
    "lng": 116.361597
  },
  {
    "title": "整租·长安兴融中心 3室1厅 南",
    "community": "长安兴融中心",
    "area": "121.89",
    "rooms": "3室1厅",
    "direction": "南",
    "floor": "",
    "price": "19000",
    "tags": "",
    "source": "",
    "url": "https://bj.lianjia.com/zufang/BJ2156337686577676288.html",
    "rent_type": "整租",
    "location": "西城区-金融街-长安兴融中心",
    "scraped_at": "2026-05-02 20:18:09",
    "region": "jinrongjie",
    "unit_price": 155.9,
    "lat": 39.903752,
    "lng": 116.355739
  },
  {
    "title": "整租·大木仓胡同35号 1室1厅 南",
    "community": "大木仓胡同35号",
    "area": "42.00",
    "rooms": "1室1厅",
    "direction": "南",
    "floor": "",
    "price": "9400",
    "tags": "",
    "source": "",
    "url": "https://bj.lianjia.com/zufang/BJ1931919527113654272.html",
    "rent_type": "整租",
    "location": "西城区-金融街-大木仓胡同",
    "scraped_at": "2026-05-02 20:18:48",
    "region": "jinrongjie",
    "unit_price": 223.8,
    "lat": 39.911616,
    "lng": 116.364478
  },
  {
    "title": "整租·宏汇园小区 2室1厅 南/北",
    "community": "宏汇园小区",
    "area": "57.40",
    "rooms": "2室1厅",
    "direction": "南/北",
    "floor": "",
    "price": "9200",
    "tags": "",
    "source": "",
    "url": "https://bj.lianjia.com/zufang/BJ2143678845830561792.html",
    "rent_type": "整租",
    "location": "西城区-金融街-宏汇园小区",
    "scraped_at": "2026-05-02 20:17:59",
    "region": "jinrongjie",
    "unit_price": 160.3,
    "lat": 39.9133,
    "lng": 116.364453
  },
  {
    "title": "整租·长安兴融中心 1室1厅 北",
    "community": "长安兴融中心",
    "area": "54.00",
    "rooms": "1室1厅",
    "direction": "北",
    "floor": "",
    "price": "9000",
    "tags": "",
    "source": "",
    "url": "https://bj.lianjia.com/zufang/BJ2142831992075452416.html",
    "rent_type": "整租",
    "location": "西城区-金融街-长安兴融中心",
    "scraped_at": "2026-05-02 20:17:59",
    "region": "jinrongjie",
    "unit_price": 166.7,
    "lat": 39.903752,
    "lng": 116.355739
  },
  {
    "title": "整租·新文化街 1室1厅 西",
    "community": "新文化街",
    "area": "42.30",
    "rooms": "1室1厅",
    "direction": "西",
    "floor": "",
    "price": "6090",
    "tags": "",
    "source": "",
    "url": "https://bj.lianjia.com/zufang/BJ2034254495856197632.html",
    "rent_type": "整租",
    "location": "西城区-金融街-新文化街",
    "scraped_at": "2026-05-02 20:18:48",
    "region": "jinrongjie",
    "unit_price": 144.0,
    "lat": 39.902746,
    "lng": 116.363818
  },
  {
    "title": "整租·丰侨公寓 7室2厅 东南/西",
    "community": "丰侨公寓",
    "area": "312.08",
    "rooms": "7室2厅",
    "direction": "东南/西",
    "floor": "",
    "price": "70000",
    "tags": "",
    "source": "",
    "url": "https://bj.lianjia.com/zufang/BJ2047594744577523712.html",
    "rent_type": "整租",
    "location": "西城区-金融街-丰侨公寓",
    "scraped_at": "2026-05-02 20:17:59",
    "region": "jinrongjie",
    "unit_price": 224.3,
    "lat": 39.915286,
    "lng": 116.359568
  },
  {
    "title": "整租·新融苑 1室1厅 南/北",
    "community": "新融苑",
    "area": "80.20",
    "rooms": "1室1厅",
    "direction": "南/北",
    "floor": "",
    "price": "15000",
    "tags": "",
    "source": "",
    "url": "https://bj.lianjia.com/zufang/BJ2111065955651026944.html",
    "rent_type": "整租",
    "location": "西城区-金融街-新融苑",
    "scraped_at": "2026-05-02 20:17:59",
    "region": "jinrongjie",
    "unit_price": 187.0,
    "lat": 39.902302,
    "lng": 116.364799
  },
  {
    "title": "整租·京畿道 1室1厅 西",
    "community": "京畿道",
    "area": "41.40",
    "rooms": "1室1厅",
    "direction": "西",
    "floor": "",
    "price": "7800",
    "tags": "",
    "source": "",
    "url": "https://bj.lianjia.com/zufang/BJ2004505306331086848.html",
    "rent_type": "整租",
    "location": "西城区-金融街-京畿道",
    "scraped_at": "2026-05-02 20:18:48",
    "region": "jinrongjie",
    "unit_price": 188.4,
    "lat": 39.908476,
    "lng": 116.360878
  },
  {
    "title": "整租·丰侨公寓 1室1厅 北",
    "community": "丰侨公寓",
    "area": "75.26",
    "rooms": "1室1厅",
    "direction": "北",
    "floor": "",
    "price": "10260",
    "tags": "",
    "source": "",
    "url": "https://bj.lianjia.com/zufang/BJ1902587377306566656.html",
    "rent_type": "整租",
    "location": "西城区-金融街-丰侨公寓",
    "scraped_at": "2026-05-02 20:17:59",
    "region": "jinrongjie",
    "unit_price": 136.3,
    "lat": 39.915286,
    "lng": 116.359568
  },
  {
    "title": "整租·长安兴融中心 3室1厅 南",
    "community": "长安兴融中心",
    "area": "156.00",
    "rooms": "3室1厅",
    "direction": "南",
    "floor": "",
    "price": "25000",
    "tags": "",
    "source": "",
    "url": "https://bj.lianjia.com/zufang/BJ2149781394027446272.html",
    "rent_type": "整租",
    "location": "西城区-金融街-长安兴融中心",
    "scraped_at": "2026-05-02 20:18:12",
    "region": "jinrongjie",
    "unit_price": 160.3,
    "lat": 39.903752,
    "lng": 116.355739
  },
  {
    "title": "整租·宏汇园小区 1室1厅 南/北",
    "community": "宏汇园小区",
    "area": "52.00",
    "rooms": "1室1厅",
    "direction": "南/北",
    "floor": "",
    "price": "10000",
    "tags": "",
    "source": "",
    "url": "https://bj.lianjia.com/zufang/BJ2129096441539330048.html",
    "rent_type": "整租",
    "location": "西城区-金融街-宏汇园小区",
    "scraped_at": "2026-05-02 20:17:59",
    "region": "jinrongjie",
    "unit_price": 192.3,
    "lat": 39.9133,
    "lng": 116.364453
  },
  {
    "title": "整租·丰汇园小区 1室1厅 西",
    "community": "丰汇园小区",
    "area": "46.90",
    "rooms": "1室1厅",
    "direction": "西",
    "floor": "",
    "price": "8150",
    "tags": "",
    "source": "",
    "url": "https://bj.lianjia.com/zufang/BJ2090378406381223936.html",
    "rent_type": "整租",
    "location": "西城区-金融街-丰汇园小区",
    "scraped_at": "2026-05-02 20:17:59",
    "region": "jinrongjie",
    "unit_price": 173.8,
    "lat": 39.914837,
    "lng": 116.361597
  },
  {
    "title": "整租·佟麟阁路62号院 3室1厅 南/西/北",
    "community": "佟麟阁路62号院",
    "area": "81.80",
    "rooms": "3室1厅",
    "direction": "南/西/北",
    "floor": "",
    "price": "18500",
    "tags": "",
    "source": "",
    "url": "https://bj.lianjia.com/zufang/BJ2144815452289761280.html",
    "rent_type": "整租",
    "location": "西城区-金融街-佟麟阁路",
    "scraped_at": "2026-05-02 20:17:59",
    "region": "jinrongjie",
    "unit_price": 226.2,
    "lat": 39.899992,
    "lng": 116.364027
  },
  {
    "title": "整租·二龙路 2室1厅 东/南/北",
    "community": "二龙路",
    "area": "65.50",
    "rooms": "2室1厅",
    "direction": "东/南/北",
    "floor": "",
    "price": "13500",
    "tags": "",
    "source": "",
    "url": "https://bj.lianjia.com/zufang/BJ2133850045701685248.html",
    "rent_type": "整租",
    "location": "西城区-金融街-二龙路",
    "scraped_at": "2026-05-02 20:17:59",
    "region": "jinrongjie",
    "unit_price": 206.1,
    "lat": 39.913746,
    "lng": 116.358468
  },
  {
    "title": "整租·丰侨公寓 1室1厅 南",
    "community": "丰侨公寓",
    "area": "58.00",
    "rooms": "1室1厅",
    "direction": "南",
    "floor": "",
    "price": "12000",
    "tags": "",
    "source": "",
    "url": "https://bj.lianjia.com/zufang/BJ2096508118648225792.html",
    "rent_type": "整租",
    "location": "西城区-金融街-丰侨公寓",
    "scraped_at": "2026-05-02 20:18:12",
    "region": "jinrongjie",
    "unit_price": 206.9,
    "lat": 39.915286,
    "lng": 116.359568
  },
  {
    "title": "整租·北京尊府 1室1厅 西",
    "community": "北京尊府",
    "area": "65.10",
    "rooms": "1室1厅",
    "direction": "西",
    "floor": "",
    "price": "11200",
    "tags": "",
    "source": "",
    "url": "https://bj.lianjia.com/zufang/BJ2112881096566767616.html",
    "rent_type": "整租",
    "location": "西城区-金融街-北京尊府",
    "scraped_at": "2026-05-02 20:17:59",
    "region": "jinrongjie",
    "unit_price": 172.0,
    "lat": 39.901106,
    "lng": 116.355138
  },
  {
    "title": "整租·尚座大厦 3室2厅 东/西",
    "community": "尚座大厦",
    "area": "213.49",
    "rooms": "3室2厅",
    "direction": "东/西",
    "floor": "",
    "price": "32000",
    "tags": "",
    "source": "",
    "url": "https://bj.lianjia.com/zufang/BJ2146135758044397568.html",
    "rent_type": "整租",
    "location": "西城区-金融街-尚座大厦",
    "scraped_at": "2026-05-02 20:17:59",
    "region": "jinrongjie",
    "unit_price": 149.9,
    "lat": 39.899122,
    "lng": 116.36203
  },
  {
    "title": "整租·新文化街 3室1厅 南/北",
    "community": "新文化街",
    "area": "75.00",
    "rooms": "3室1厅",
    "direction": "南/北",
    "floor": "",
    "price": "11500",
    "tags": "",
    "source": "",
    "url": "https://bj.lianjia.com/zufang/BJ2069988089639469056.html",
    "rent_type": "整租",
    "location": "西城区-金融街-新文化街",
    "scraped_at": "2026-05-02 20:18:12",
    "region": "jinrongjie",
    "unit_price": 153.3,
    "lat": 39.902746,
    "lng": 116.363818
  },
  {
    "title": "整租·丰汇园小区 1室1厅 东",
    "community": "丰汇园小区",
    "area": "51.10",
    "rooms": "1室1厅",
    "direction": "东",
    "floor": "",
    "price": "9500",
    "tags": "",
    "source": "",
    "url": "https://bj.lianjia.com/zufang/BJ2141126561351335936.html",
    "rent_type": "整租",
    "location": "西城区-金融街-丰汇园小区",
    "scraped_at": "2026-05-02 20:18:09",
    "region": "jinrongjie",
    "unit_price": 185.9,
    "lat": 39.914837,
    "lng": 116.361597
  },
  {
    "title": "整租·京畿道 1室1厅 南",
    "community": "京畿道",
    "area": "69.40",
    "rooms": "1室1厅",
    "direction": "南",
    "floor": "",
    "price": "8350",
    "tags": "",
    "source": "",
    "url": "https://bj.lianjia.com/zufang/BJ1899799017487859712.html",
    "rent_type": "整租",
    "location": "西城区-金融街-京畿道",
    "scraped_at": "2026-05-02 20:17:59",
    "region": "jinrongjie",
    "unit_price": 120.3,
    "lat": 39.908476,
    "lng": 116.360878
  },
  {
    "title": "整租·新文化街 2室1厅 东",
    "community": "新文化街",
    "area": "55.50",
    "rooms": "2室1厅",
    "direction": "东",
    "floor": "",
    "price": "9000",
    "tags": "",
    "source": "",
    "url": "https://bj.lianjia.com/zufang/BJ2148387757771194368.html",
    "rent_type": "整租",
    "location": "西城区-金融街-新文化街",
    "scraped_at": "2026-05-02 20:18:09",
    "region": "jinrongjie",
    "unit_price": 162.2,
    "lat": 39.902746,
    "lng": 116.363818
  },
  {
    "title": "整租·西斜街 2室1厅 南/北",
    "community": "西斜街",
    "area": "47.50",
    "rooms": "2室1厅",
    "direction": "南/北",
    "floor": "",
    "price": "8200",
    "tags": "",
    "source": "",
    "url": "https://bj.lianjia.com/zufang/BJ2138572757976219648.html",
    "rent_type": "整租",
    "location": "西城区-金融街-西斜街",
    "scraped_at": "2026-05-02 20:18:02",
    "region": "jinrongjie",
    "unit_price": 172.6,
    "lat": 39.91471,
    "lng": 116.365433
  },
  {
    "title": "整租·佟麟阁路62号院 1室1厅 东",
    "community": "佟麟阁路62号院",
    "area": "42.80",
    "rooms": "1室1厅",
    "direction": "东",
    "floor": "",
    "price": "7490",
    "tags": "",
    "source": "",
    "url": "https://bj.lianjia.com/zufang/BJ1891156256865910784.html",
    "rent_type": "整租",
    "location": "西城区-金融街-佟麟阁路",
    "scraped_at": "2026-05-02 20:17:59",
    "region": "jinrongjie",
    "unit_price": 175.0,
    "lat": 39.899992,
    "lng": 116.364027
  },
  {
    "title": "整租·京畿道 2室1厅 东/北",
    "community": "京畿道",
    "area": "73.30",
    "rooms": "2室1厅",
    "direction": "东/北",
    "floor": "",
    "price": "9500",
    "tags": "",
    "source": "",
    "url": "https://bj.lianjia.com/zufang/BJ2161041266958139392.html",
    "rent_type": "整租",
    "location": "西城区-金融街-京畿道",
    "scraped_at": "2026-05-02 20:18:02",
    "region": "jinrongjie",
    "unit_price": 129.6,
    "lat": 39.908476,
    "lng": 116.360878
  },
  {
    "title": "整租·新文化街 2室1厅 西北",
    "community": "新文化街",
    "area": "69.20",
    "rooms": "2室1厅",
    "direction": "西北",
    "floor": "",
    "price": "12800",
    "tags": "",
    "source": "",
    "url": "https://bj.lianjia.com/zufang/BJ2137582569359671296.html",
    "rent_type": "整租",
    "location": "西城区-金融街-新文化街",
    "scraped_at": "2026-05-02 20:18:02",
    "region": "jinrongjie",
    "unit_price": 185.0,
    "lat": 39.902746,
    "lng": 116.363818
  },
  {
    "title": "整租·石灯胡同6号院 2室1厅 南/北",
    "community": "石灯胡同6号院",
    "area": "57.00",
    "rooms": "2室1厅",
    "direction": "南/北",
    "floor": "",
    "price": "8300",
    "tags": "",
    "source": "",
    "url": "https://bj.lianjia.com/zufang/BJ2147006774157246464.html",
    "rent_type": "整租",
    "location": "西城区-金融街-石灯胡同",
    "scraped_at": "2026-05-02 20:18:02",
    "region": "jinrongjie",
    "unit_price": 145.6,
    "lat": 39.900035,
    "lng": 116.359712
  },
  {
    "title": "整租·丰汇园小区 1室1厅 北",
    "community": "丰汇园小区",
    "area": "41.61",
    "rooms": "1室1厅",
    "direction": "北",
    "floor": "",
    "price": "8500",
    "tags": "",
    "source": "",
    "url": "https://bj.lianjia.com/zufang/BJ2154115878805831680.html",
    "rent_type": "整租",
    "location": "西城区-金融街-丰汇园小区",
    "scraped_at": "2026-05-02 20:18:02",
    "region": "jinrongjie",
    "unit_price": 204.3,
    "lat": 39.914837,
    "lng": 116.361597
  },
  {
    "title": "整租·长安兴融中心 2室1厅 南",
    "community": "长安兴融中心",
    "area": "100.20",
    "rooms": "2室1厅",
    "direction": "南",
    "floor": "",
    "price": "15000",
    "tags": "",
    "source": "",
    "url": "https://bj.lianjia.com/zufang/BJ2106669080562892800.html",
    "rent_type": "整租",
    "location": "西城区-金融街-长安兴融中心",
    "scraped_at": "2026-05-02 20:18:02",
    "region": "jinrongjie",
    "unit_price": 149.7,
    "lat": 39.903752,
    "lng": 116.355739
  },
  {
    "title": "整租·新文化街 3室1厅 南/北",
    "community": "新文化街",
    "area": "54.85",
    "rooms": "3室1厅",
    "direction": "南/北",
    "floor": "",
    "price": "7850",
    "tags": "",
    "source": "",
    "url": "https://bj.lianjia.com/zufang/BJ2161044569964150784.html",
    "rent_type": "整租",
    "location": "西城区-金融街-新文化街",
    "scraped_at": "2026-05-02 20:18:15",
    "region": "jinrongjie",
    "unit_price": 143.1,
    "lat": 39.902746,
    "lng": 116.363818
  },
  {
    "title": "整租·丽华苑 车库",
    "community": "丽华苑 车库",
    "area": "11.74",
    "rooms": "",
    "direction": "",
    "floor": "",
    "price": "1300",
    "tags": "",
    "source": "",
    "url": "https://bj.lianjia.com/zufang/BJ2111370432924876800.html",
    "rent_type": "整租",
    "location": "西城区-金融街-丽华苑",
    "scraped_at": "2026-05-02 20:18:02",
    "region": "jinrongjie",
    "unit_price": 110.7,
    "lat": 39.908596,
    "lng": 116.363468
  },
  {
    "title": "整租·丰汇园小区 2室1厅 南/北",
    "community": "丰汇园小区",
    "area": "73.80",
    "rooms": "2室1厅",
    "direction": "南/北",
    "floor": "",
    "price": "15000",
    "tags": "",
    "source": "",
    "url": "https://bj.lianjia.com/zufang/BJ2160980626411356160.html",
    "rent_type": "整租",
    "location": "西城区-金融街-丰汇园小区",
    "scraped_at": "2026-05-02 20:18:15",
    "region": "jinrongjie",
    "unit_price": 203.3,
    "lat": 39.914837,
    "lng": 116.361597
  },
  {
    "title": "整租·民康胡同30号院 2室1厅 东北",
    "community": "民康胡同30号院",
    "area": "58.40",
    "rooms": "2室1厅",
    "direction": "东北",
    "floor": "",
    "price": "13800",
    "tags": "",
    "source": "",
    "url": "https://bj.lianjia.com/zufang/BJ2147707783611416576.html",
    "rent_type": "整租",
    "location": "西城区-金融街-民康胡同",
    "scraped_at": "2026-05-02 20:18:02",
    "region": "jinrongjie",
    "unit_price": 236.3,
    "lat": 39.920606,
    "lng": 116.351448
  },
  {
    "title": "整租·丰侨公寓 1室1厅 东",
    "community": "丰侨公寓",
    "area": "75.00",
    "rooms": "1室1厅",
    "direction": "东",
    "floor": "",
    "price": "15500",
    "tags": "",
    "source": "",
    "url": "https://bj.lianjia.com/zufang/BJ2158855064217714688.html",
    "rent_type": "整租",
    "location": "西城区-金融街-丰侨公寓",
    "scraped_at": "2026-05-02 20:18:02",
    "region": "jinrongjie",
    "unit_price": 206.7,
    "lat": 39.915286,
    "lng": 116.359568
  },
  {
    "title": "整租·金宸国际公寓 2室2厅 东南",
    "community": "金宸国际公寓",
    "area": "134.79",
    "rooms": "2室2厅",
    "direction": "东南",
    "floor": "",
    "price": "28000",
    "tags": "",
    "source": "",
    "url": "https://bj.lianjia.com/zufang/BJ2125823538655920128.html",
    "rent_type": "整租",
    "location": "西城区-金融街-金宸国际公寓",
    "scraped_at": "2026-05-02 20:18:02",
    "region": "jinrongjie",
    "unit_price": 207.7,
    "lat": 39.910896,
    "lng": 116.355848
  },
  {
    "title": "整租·丰汇园小区 2室1厅 南/西",
    "community": "丰汇园小区",
    "area": "63.40",
    "rooms": "2室1厅",
    "direction": "南/西",
    "floor": "",
    "price": "10500",
    "tags": "",
    "source": "",
    "url": "https://bj.lianjia.com/zufang/BJ2155610902991208448.html",
    "rent_type": "整租",
    "location": "西城区-金融街-丰汇园小区",
    "scraped_at": "2026-05-02 20:18:02",
    "region": "jinrongjie",
    "unit_price": 165.6,
    "lat": 39.914837,
    "lng": 116.361597
  },
  {
    "title": "整租·民康胡同30号院 2室1厅 南/西",
    "community": "民康胡同30号院",
    "area": "49.00",
    "rooms": "2室1厅",
    "direction": "南/西",
    "floor": "",
    "price": "9800",
    "tags": "",
    "source": "",
    "url": "https://bj.lianjia.com/zufang/BJ2042927219998720000.html",
    "rent_type": "整租",
    "location": "西城区-金融街-民康胡同",
    "scraped_at": "2026-05-02 20:18:02",
    "region": "jinrongjie",
    "unit_price": 200.0,
    "lat": 39.920606,
    "lng": 116.351448
  },
  {
    "title": "整租·丽华苑 3室1厅 南/西/北",
    "community": "丽华苑",
    "area": "111.10",
    "rooms": "3室1厅",
    "direction": "南/西/北",
    "floor": "",
    "price": "24500",
    "tags": "",
    "source": "",
    "url": "https://bj.lianjia.com/zufang/BJ2156400804053909504.html",
    "rent_type": "整租",
    "location": "西城区-金融街-丽华苑",
    "scraped_at": "2026-05-02 20:18:02",
    "region": "jinrongjie",
    "unit_price": 220.5,
    "lat": 39.908775,
    "lng": 116.36312
  },
  {
    "title": "整租·中海凯旋 3室2厅 南/北",
    "community": "中海凯旋",
    "area": "178.02",
    "rooms": "3室2厅",
    "direction": "南/北",
    "floor": "",
    "price": "36300",
    "tags": "",
    "source": "",
    "url": "https://bj.lianjia.com/zufang/BJ2016443480762482688.html",
    "rent_type": "整租",
    "location": "西城区-金融街-中海凯旋",
    "scraped_at": "2026-05-02 20:18:02",
    "region": "jinrongjie",
    "unit_price": 203.9,
    "lat": 39.910856,
    "lng": 116.358038
  },
  {
    "title": "整租·新文化街 2室1厅 东南",
    "community": "新文化街",
    "area": "74.00",
    "rooms": "2室1厅",
    "direction": "东南",
    "floor": "",
    "price": "11500",
    "tags": "",
    "source": "",
    "url": "https://bj.lianjia.com/zufang/BJ2133062223084388352.html",
    "rent_type": "整租",
    "location": "西城区-金融街-新文化街",
    "scraped_at": "2026-05-02 20:18:02",
    "region": "jinrongjie",
    "unit_price": 155.4,
    "lat": 39.902746,
    "lng": 116.363818
  },
  {
    "title": "整租·宏汇园小区 1室1厅 东",
    "community": "宏汇园小区",
    "area": "52.60",
    "rooms": "1室1厅",
    "direction": "东",
    "floor": "",
    "price": "8800",
    "tags": "",
    "source": "",
    "url": "https://bj.lianjia.com/zufang/BJ2159283765690499072.html",
    "rent_type": "整租",
    "location": "西城区-金融街-宏汇园小区",
    "scraped_at": "2026-05-02 20:18:09",
    "region": "jinrongjie",
    "unit_price": 167.3,
    "lat": 39.9133,
    "lng": 116.364453
  },
  {
    "title": "整租·丰侨公寓 2室1厅 西北",
    "community": "丰侨公寓",
    "area": "96.89",
    "rooms": "2室1厅",
    "direction": "西北",
    "floor": "",
    "price": "23500",
    "tags": "",
    "source": "",
    "url": "https://bj.lianjia.com/zufang/BJ2130510721761411072.html",
    "rent_type": "整租",
    "location": "西城区-金融街-丰侨公寓",
    "scraped_at": "2026-05-02 20:18:02",
    "region": "jinrongjie",
    "unit_price": 242.5,
    "lat": 39.915286,
    "lng": 116.359568
  },
  {
    "title": "整租·大木仓胡同35号 2室1厅 南/北",
    "community": "大木仓胡同35号",
    "area": "62.40",
    "rooms": "2室1厅",
    "direction": "南/北",
    "floor": "",
    "price": "13500",
    "tags": "",
    "source": "",
    "url": "https://bj.lianjia.com/zufang/BJ2146896486263160832.html",
    "rent_type": "整租",
    "location": "西城区-金融街-大木仓胡同",
    "scraped_at": "2026-05-02 20:18:02",
    "region": "jinrongjie",
    "unit_price": 216.3,
    "lat": 39.911616,
    "lng": 116.364478
  },
  {
    "title": "整租·丰汇园小区 2室2厅 东/南/北",
    "community": "丰汇园小区",
    "area": "118.13",
    "rooms": "2室2厅",
    "direction": "东/南/北",
    "floor": "",
    "price": "24000",
    "tags": "",
    "source": "",
    "url": "https://bj.lianjia.com/zufang/BJ2156419702547546112.html",
    "rent_type": "整租",
    "location": "西城区-金融街-丰汇园小区",
    "scraped_at": "2026-05-02 20:18:02",
    "region": "jinrongjie",
    "unit_price": 203.2,
    "lat": 39.914837,
    "lng": 116.361597
  },
  {
    "title": "整租·民康胡同30号院 1室1厅 西",
    "community": "民康胡同30号院",
    "area": "48.40",
    "rooms": "1室1厅",
    "direction": "西",
    "floor": "",
    "price": "9200",
    "tags": "",
    "source": "",
    "url": "https://bj.lianjia.com/zufang/BJ2150184248600952832.html",
    "rent_type": "整租",
    "location": "西城区-金融街-民康胡同",
    "scraped_at": "2026-05-02 20:18:02",
    "region": "jinrongjie",
    "unit_price": 190.1,
    "lat": 39.920606,
    "lng": 116.351448
  },
  {
    "title": "整租·王府仓胡同10号院 3室1厅 南/北",
    "community": "王府仓胡同10号院",
    "area": "125.00",
    "rooms": "3室1厅",
    "direction": "南/北",
    "floor": "",
    "price": "30000",
    "tags": "",
    "source": "",
    "url": "https://bj.lianjia.com/zufang/BJ1669993664643858432.html",
    "rent_type": "整租",
    "location": "西城区-金融街-王府仓胡同",
    "scraped_at": "2026-05-02 20:18:05",
    "region": "jinrongjie",
    "unit_price": 240.0,
    "lat": 39.919993,
    "lng": 116.353497
  },
  {
    "title": "整租·丰汇园小区 2室1厅 西北",
    "community": "丰汇园小区",
    "area": "68.80",
    "rooms": "2室1厅",
    "direction": "西北",
    "floor": "",
    "price": "10800",
    "tags": "",
    "source": "",
    "url": "https://bj.lianjia.com/zufang/BJ2063566173764583424.html",
    "rent_type": "整租",
    "location": "西城区-金融街-丰汇园小区",
    "scraped_at": "2026-05-02 20:18:05",
    "region": "jinrongjie",
    "unit_price": 157.0,
    "lat": 39.914837,
    "lng": 116.361597
  },
  {
    "title": "整租·丰汇园小区 3室2厅 东南/北",
    "community": "丰汇园小区",
    "area": "128.00",
    "rooms": "3室2厅",
    "direction": "东南/北",
    "floor": "",
    "price": "18500",
    "tags": "",
    "source": "",
    "url": "https://bj.lianjia.com/zufang/BJ2151637333496037376.html",
    "rent_type": "整租",
    "location": "西城区-金融街-丰汇园小区",
    "scraped_at": "2026-05-02 20:18:05",
    "region": "jinrongjie",
    "unit_price": 144.5,
    "lat": 39.914837,
    "lng": 116.361597
  },
  {
    "title": "整租·京畿道 1室1厅 南",
    "community": "京畿道",
    "area": "42.30",
    "rooms": "1室1厅",
    "direction": "南",
    "floor": "",
    "price": "8500",
    "tags": "",
    "source": "",
    "url": "https://bj.lianjia.com/zufang/BJ2147294595656974336.html",
    "rent_type": "整租",
    "location": "西城区-金融街-京畿道",
    "scraped_at": "2026-05-02 20:18:05",
    "region": "jinrongjie",
    "unit_price": 200.9,
    "lat": 39.908476,
    "lng": 116.360878
  },
  {
    "title": "整租·佟麟阁路62号院 1室1厅 东南",
    "community": "佟麟阁路62号院",
    "area": "45.00",
    "rooms": "1室1厅",
    "direction": "东南",
    "floor": "",
    "price": "6600",
    "tags": "",
    "source": "",
    "url": "https://bj.lianjia.com/zufang/BJ2132039896620072960.html",
    "rent_type": "整租",
    "location": "西城区-金融街-佟麟阁路",
    "scraped_at": "2026-05-02 20:18:05",
    "region": "jinrongjie",
    "unit_price": 146.7,
    "lat": 39.899992,
    "lng": 116.364027
  },
  {
    "title": "整租·羊肉胡同120号院 2室1厅 南",
    "community": "羊肉胡同120号院",
    "area": "61.30",
    "rooms": "2室1厅",
    "direction": "南",
    "floor": "",
    "price": "9890",
    "tags": "",
    "source": "",
    "url": "https://bj.lianjia.com/zufang/BJ1911038685176922112.html",
    "rent_type": "整租",
    "location": "西城区-金融街-羊肉胡同",
    "scraped_at": "2026-05-02 20:18:05",
    "region": "jinrongjie",
    "unit_price": 161.3,
    "lat": 39.921115,
    "lng": 116.359587
  },
  {
    "title": "整租·丰侨公寓 3室2厅 东/西",
    "community": "丰侨公寓",
    "area": "171.00",
    "rooms": "3室2厅",
    "direction": "东/西",
    "floor": "",
    "price": "28000",
    "tags": "",
    "source": "",
    "url": "https://bj.lianjia.com/zufang/BJ2099460070004752384.html",
    "rent_type": "整租",
    "location": "西城区-金融街-丰侨公寓",
    "scraped_at": "2026-05-02 20:18:05",
    "region": "jinrongjie",
    "unit_price": 163.7,
    "lat": 39.915286,
    "lng": 116.359568
  },
  {
    "title": "整租·二龙路 1室1厅 南",
    "community": "二龙路",
    "area": "43.60",
    "rooms": "1室1厅",
    "direction": "南",
    "floor": "",
    "price": "8200",
    "tags": "",
    "source": "",
    "url": "https://bj.lianjia.com/zufang/BJ2154132899450847232.html",
    "rent_type": "整租",
    "location": "西城区-金融街-二龙路",
    "scraped_at": "2026-05-02 20:18:05",
    "region": "jinrongjie",
    "unit_price": 188.1,
    "lat": 39.913746,
    "lng": 116.358468
  },
  {
    "title": "整租·宏英园小区 2室1厅 东/西",
    "community": "宏英园小区",
    "area": "79.45",
    "rooms": "2室1厅",
    "direction": "东/西",
    "floor": "",
    "price": "13800",
    "tags": "",
    "source": "",
    "url": "https://bj.lianjia.com/zufang/BJ2096003898505428992.html",
    "rent_type": "整租",
    "location": "西城区-金融街-宏英园小区",
    "scraped_at": "2026-05-02 20:18:05",
    "region": "jinrongjie",
    "unit_price": 173.7,
    "lat": 39.916336,
    "lng": 116.362878
  },
  {
    "title": "整租·西城晶华 3室2厅 东/西",
    "community": "西城晶华",
    "area": "154.16",
    "rooms": "3室2厅",
    "direction": "东/西",
    "floor": "",
    "price": "42000",
    "tags": "",
    "source": "",
    "url": "https://bj.lianjia.com/zufang/BJ2140330704469229568.html",
    "rent_type": "整租",
    "location": "西城区-金融街-西城晶华",
    "scraped_at": "2026-05-02 20:18:05",
    "region": "jinrongjie",
    "unit_price": 272.4,
    "lat": 39.919786,
    "lng": 116.358968
  },
  {
    "title": "整租·丰融园 3室2厅 南/北",
    "community": "丰融园",
    "area": "166.00",
    "rooms": "3室2厅",
    "direction": "南/北",
    "floor": "",
    "price": "33000",
    "tags": "",
    "source": "",
    "url": "https://bj.lianjia.com/zufang/BJ2054599818323427328.html",
    "rent_type": "整租",
    "location": "西城区-金融街-丰融园",
    "scraped_at": "2026-05-02 20:18:05",
    "region": "jinrongjie",
    "unit_price": 198.8,
    "lat": 39.915286,
    "lng": 116.359568
  },
  {
    "title": "整租·大木仓胡同35号 3室1厅 南/北",
    "community": "大木仓胡同35号",
    "area": "67.80",
    "rooms": "3室1厅",
    "direction": "南/北",
    "floor": "",
    "price": "15000",
    "tags": "",
    "source": "",
    "url": "https://bj.lianjia.com/zufang/BJ2138544051882819584.html",
    "rent_type": "整租",
    "location": "西城区-金融街-大木仓胡同",
    "scraped_at": "2026-05-02 20:18:15",
    "region": "jinrongjie",
    "unit_price": 221.2,
    "lat": 39.911616,
    "lng": 116.364478
  },
  {
    "title": "整租·丰汇园小区 4室2厅 南/北",
    "community": "丰汇园小区",
    "area": "192.00",
    "rooms": "4室2厅",
    "direction": "南/北",
    "floor": "",
    "price": "43000",
    "tags": "",
    "source": "",
    "url": "https://bj.lianjia.com/zufang/BJ2156419619382886400.html",
    "rent_type": "整租",
    "location": "西城区-金融街-丰汇园小区",
    "scraped_at": "2026-05-02 20:18:05",
    "region": "jinrongjie",
    "unit_price": 224.0,
    "lat": 39.914837,
    "lng": 116.361597
  },
  {
    "title": "整租·西城晶华 3室2厅 东/西",
    "community": "西城晶华",
    "area": "152.00",
    "rooms": "3室2厅",
    "direction": "东/西",
    "floor": "",
    "price": "46000",
    "tags": "",
    "source": "",
    "url": "https://bj.lianjia.com/zufang/BJ2147991920519938048.html",
    "rent_type": "整租",
    "location": "西城区-金融街-西城晶华",
    "scraped_at": "2026-05-02 20:18:05",
    "region": "jinrongjie",
    "unit_price": 302.6,
    "lat": 39.919786,
    "lng": 116.358968
  },
  {
    "title": "整租·中海凯旋 3室2厅 南/北",
    "community": "中海凯旋",
    "area": "155.11",
    "rooms": "3室2厅",
    "direction": "南/北",
    "floor": "",
    "price": "38000",
    "tags": "",
    "source": "",
    "url": "https://bj.lianjia.com/zufang/BJ2152644136723808256.html",
    "rent_type": "整租",
    "location": "西城区-金融街-中海凯旋",
    "scraped_at": "2026-05-02 20:18:05",
    "region": "jinrongjie",
    "unit_price": 245.0,
    "lat": 39.910856,
    "lng": 116.358038
  },
  {
    "title": "整租·京畿道 1室1厅 东",
    "community": "京畿道",
    "area": "39.10",
    "rooms": "1室1厅",
    "direction": "东",
    "floor": "",
    "price": "7530",
    "tags": "",
    "source": "",
    "url": "https://bj.lianjia.com/zufang/BJ1892858684497723392.html",
    "rent_type": "整租",
    "location": "西城区-金融街-京畿道",
    "scraped_at": "2026-05-02 20:18:05",
    "region": "jinrongjie",
    "unit_price": 192.6,
    "lat": 39.908476,
    "lng": 116.360878
  },
  {
    "title": "整租·丰融园 3室2厅 南/北",
    "community": "丰融园",
    "area": "163.90",
    "rooms": "3室2厅",
    "direction": "南/北",
    "floor": "",
    "price": "36000",
    "tags": "",
    "source": "",
    "url": "https://bj.lianjia.com/zufang/BJ2049724073679781888.html",
    "rent_type": "整租",
    "location": "西城区-金融街-丰融园",
    "scraped_at": "2026-05-02 20:18:05",
    "region": "jinrongjie",
    "unit_price": 219.6,
    "lat": 39.915286,
    "lng": 116.359568
  },
  {
    "title": "整租·西城晶华 1室1厅 西",
    "community": "西城晶华",
    "area": "73.23",
    "rooms": "1室1厅",
    "direction": "西",
    "floor": "",
    "price": "17000",
    "tags": "",
    "source": "",
    "url": "https://bj.lianjia.com/zufang/BJ2154216420144054272.html",
    "rent_type": "整租",
    "location": "西城区-金融街-西城晶华",
    "scraped_at": "2026-05-02 20:18:05",
    "region": "jinrongjie",
    "unit_price": 232.1,
    "lat": 39.919786,
    "lng": 116.358968
  },
  {
    "title": "整租·北京尊府 1室2厅 西北",
    "community": "北京尊府",
    "area": "84.44",
    "rooms": "1室2厅",
    "direction": "西北",
    "floor": "",
    "price": "17000",
    "tags": "",
    "source": "",
    "url": "https://bj.lianjia.com/zufang/BJ2033129285685870592.html",
    "rent_type": "整租",
    "location": "西城区-金融街-北京尊府",
    "scraped_at": "2026-05-02 20:18:05",
    "region": "jinrongjie",
    "unit_price": 201.3,
    "lat": 39.901106,
    "lng": 116.355138
  },
  {
    "title": "整租·大木仓胡同35号 2室1厅 南/北",
    "community": "大木仓胡同35号",
    "area": "60.00",
    "rooms": "2室1厅",
    "direction": "南/北",
    "floor": "",
    "price": "14000",
    "tags": "",
    "source": "",
    "url": "https://bj.lianjia.com/zufang/BJ2161124972142002176.html",
    "rent_type": "整租",
    "location": "西城区-金融街-大木仓胡同",
    "scraped_at": "2026-05-02 20:18:15",
    "region": "jinrongjie",
    "unit_price": 233.3,
    "lat": 39.911616,
    "lng": 116.364478
  },
  {
    "title": "整租·大木仓胡同35号 2室1厅 东/北",
    "community": "大木仓胡同35号",
    "area": "56.00",
    "rooms": "2室1厅",
    "direction": "东/北",
    "floor": "",
    "price": "13500",
    "tags": "",
    "source": "",
    "url": "https://bj.lianjia.com/zufang/BJ2159199453171417088.html",
    "rent_type": "整租",
    "location": "西城区-金融街-大木仓胡同",
    "scraped_at": "2026-05-02 20:18:09",
    "region": "jinrongjie",
    "unit_price": 241.1,
    "lat": 39.911616,
    "lng": 116.364478
  },
  {
    "title": "整租·西城晶华 1室1厅 东",
    "community": "西城晶华",
    "area": "76.51",
    "rooms": "1室1厅",
    "direction": "东",
    "floor": "",
    "price": "14000",
    "tags": "",
    "source": "",
    "url": "https://bj.lianjia.com/zufang/BJ2157103915613552640.html",
    "rent_type": "整租",
    "location": "西城区-金融街-西城晶华",
    "scraped_at": "2026-05-02 20:18:05",
    "region": "jinrongjie",
    "unit_price": 183.0,
    "lat": 39.919786,
    "lng": 116.358968
  },
  {
    "title": "整租·鲍家街 3室1厅 南/北",
    "community": "鲍家街",
    "area": "97.50",
    "rooms": "3室1厅",
    "direction": "南/北",
    "floor": "",
    "price": "19500",
    "tags": "",
    "source": "",
    "url": "https://bj.lianjia.com/zufang/BJ2141373787470299136.html",
    "rent_type": "整租",
    "location": "西城区-金融街-鲍家街",
    "scraped_at": "2026-05-02 20:18:05",
    "region": "jinrongjie",
    "unit_price": 200.0,
    "lat": 39.901753,
    "lng": 116.354519
  },
  {
    "title": "整租·京畿道 1室1厅 南",
    "community": "京畿道",
    "area": "41.40",
    "rooms": "1室1厅",
    "direction": "南",
    "floor": "",
    "price": "7990",
    "tags": "",
    "source": "",
    "url": "https://bj.lianjia.com/zufang/BJ2008575584724058112.html",
    "rent_type": "整租",
    "location": "西城区-金融街-京畿道",
    "scraped_at": "2026-05-02 20:18:05",
    "region": "jinrongjie",
    "unit_price": 193.0,
    "lat": 39.908476,
    "lng": 116.360878
  },
  {
    "title": "整租·羊肉胡同120号院 2室1厅 南",
    "community": "羊肉胡同120号院",
    "area": "57.70",
    "rooms": "2室1厅",
    "direction": "南",
    "floor": "",
    "price": "9190",
    "tags": "",
    "source": "",
    "url": "https://bj.lianjia.com/zufang/BJ1849308432285302784.html",
    "rent_type": "整租",
    "location": "西城区-金融街-羊肉胡同",
    "scraped_at": "2026-05-02 20:18:05",
    "region": "jinrongjie",
    "unit_price": 159.3,
    "lat": 39.921115,
    "lng": 116.359587
  },
  {
    "title": "整租·京畿道 1室1厅 东",
    "community": "京畿道",
    "area": "46.00",
    "rooms": "1室1厅",
    "direction": "东",
    "floor": "",
    "price": "8360",
    "tags": "",
    "source": "",
    "url": "https://bj.lianjia.com/zufang/BJ1879551688403058688.html",
    "rent_type": "整租",
    "location": "西城区-金融街-京畿道",
    "scraped_at": "2026-05-02 20:18:05",
    "region": "jinrongjie",
    "unit_price": 181.7,
    "lat": 39.908476,
    "lng": 116.360878
  },
  {
    "title": "整租·丰侨公寓 1室1厅 西",
    "community": "丰侨公寓",
    "area": "57.36",
    "rooms": "1室1厅",
    "direction": "西",
    "floor": "",
    "price": "10690",
    "tags": "",
    "source": "",
    "url": "https://bj.lianjia.com/zufang/BJ1823606972155428864.html",
    "rent_type": "整租",
    "location": "西城区-金融街-丰侨公寓",
    "scraped_at": "2026-05-02 20:18:05",
    "region": "jinrongjie",
    "unit_price": 186.4,
    "lat": 39.915286,
    "lng": 116.359568
  },
  {
    "title": "整租·京畿道 1室1厅 西",
    "community": "京畿道",
    "area": "41.40",
    "rooms": "1室1厅",
    "direction": "西",
    "floor": "",
    "price": "7960",
    "tags": "",
    "source": "",
    "url": "https://bj.lianjia.com/zufang/BJ1851958115260432384.html",
    "rent_type": "整租",
    "location": "西城区-金融街-京畿道",
    "scraped_at": "2026-05-02 20:18:05",
    "region": "jinrongjie",
    "unit_price": 192.3,
    "lat": 39.908476,
    "lng": 116.360878
  },
  {
    "title": "整租·丰汇园小区 1室1厅 南",
    "community": "丰汇园小区",
    "area": "42.10",
    "rooms": "1室1厅",
    "direction": "南",
    "floor": "",
    "price": "9205",
    "tags": "",
    "source": "",
    "url": "https://bj.lianjia.com/zufang/BJ1843643954826838016.html",
    "rent_type": "整租",
    "location": "西城区-金融街-丰汇园小区",
    "scraped_at": "2026-05-02 20:18:05",
    "region": "jinrongjie",
    "unit_price": 218.6,
    "lat": 39.914837,
    "lng": 116.361597
  },
  {
    "title": "整租·丰侨公寓 1室1厅 北",
    "community": "丰侨公寓",
    "area": "57.08",
    "rooms": "1室1厅",
    "direction": "北",
    "floor": "",
    "price": "10490",
    "tags": "",
    "source": "",
    "url": "https://bj.lianjia.com/zufang/BJ1789777333524103168.html",
    "rent_type": "整租",
    "location": "西城区-金融街-丰侨公寓",
    "scraped_at": "2026-05-02 20:18:05",
    "region": "jinrongjie",
    "unit_price": 183.8,
    "lat": 39.915286,
    "lng": 116.359568
  },
  {
    "title": "整租·京畿道 2室1厅 东/西",
    "community": "京畿道",
    "area": "71.00",
    "rooms": "2室1厅",
    "direction": "东/西",
    "floor": "",
    "price": "16500",
    "tags": "",
    "source": "",
    "url": "https://bj.lianjia.com/zufang/BJ2159837913439797248.html",
    "rent_type": "整租",
    "location": "西城区-金融街-京畿道",
    "scraped_at": "2026-05-02 20:18:09",
    "region": "jinrongjie",
    "unit_price": 232.4,
    "lat": 39.908476,
    "lng": 116.360878
  },
  {
    "title": "整租·太平桥大街6号 2室1厅 东/西",
    "community": "太平桥大街6号",
    "area": "66.00",
    "rooms": "2室1厅",
    "direction": "东/西",
    "floor": "",
    "price": "8500",
    "tags": "",
    "source": "",
    "url": "https://bj.lianjia.com/zufang/BJ2062412380217802752.html",
    "rent_type": "整租",
    "location": "西城区-金融街-太平桥大街",
    "scraped_at": "2026-05-02 20:18:09",
    "region": "jinrongjie",
    "unit_price": 128.8,
    "lat": 39.920562,
    "lng": 116.359643
  },
  {
    "title": "整租·丽华苑 3室2厅 南/北",
    "community": "丽华苑",
    "area": "214.72",
    "rooms": "3室2厅",
    "direction": "南/北",
    "floor": "",
    "price": "24000",
    "tags": "",
    "source": "",
    "url": "https://bj.lianjia.com/zufang/BJ2142564311631921152.html",
    "rent_type": "整租",
    "location": "西城区-金融街-丽华苑",
    "scraped_at": "2026-05-02 20:18:09",
    "region": "jinrongjie",
    "unit_price": 111.8,
    "lat": 39.908775,
    "lng": 116.36312
  },
  {
    "title": "整租·三道栅栏胡同 1室1厅 南/北",
    "community": "三道栅栏胡同",
    "area": "12.80",
    "rooms": "1室1厅",
    "direction": "南/北",
    "floor": "",
    "price": "2000",
    "tags": "",
    "source": "",
    "url": "https://bj.lianjia.com/zufang/BJ2149032563795034112.html",
    "rent_type": "整租",
    "location": "西城区-金融街-三道栅栏胡同",
    "scraped_at": "2026-05-02 20:18:09",
    "region": "jinrongjie",
    "unit_price": 156.2,
    "lat": 39.919115,
    "lng": 116.362104
  },
  {
    "title": "整租·丰汇园小区 2室2厅 西北",
    "community": "丰汇园小区",
    "area": "123.00",
    "rooms": "2室2厅",
    "direction": "西北",
    "floor": "",
    "price": "23000",
    "tags": "",
    "source": "",
    "url": "https://bj.lianjia.com/zufang/BJ2160948570268631040.html",
    "rent_type": "整租",
    "location": "西城区-金融街-丰汇园小区",
    "scraped_at": "2026-05-02 20:18:09",
    "region": "jinrongjie",
    "unit_price": 187.0,
    "lat": 39.914837,
    "lng": 116.361597
  },
  {
    "title": "整租·文华胡同 1室1厅 南",
    "community": "文华胡同",
    "area": "15.00",
    "rooms": "1室1厅",
    "direction": "南",
    "floor": "",
    "price": "4000",
    "tags": "",
    "source": "",
    "url": "https://bj.lianjia.com/zufang/BJ2141750657621688320.html",
    "rent_type": "整租",
    "location": "西城区-金融街-文华胡同",
    "scraped_at": "2026-05-02 20:18:09",
    "region": "jinrongjie",
    "unit_price": 266.7,
    "lat": 39.903818,
    "lng": 116.35908
  },
  {
    "title": "整租·西城晶华 4室1厅 南/北",
    "community": "西城晶华",
    "area": "191.00",
    "rooms": "4室1厅",
    "direction": "南/北",
    "floor": "",
    "price": "48000",
    "tags": "",
    "source": "",
    "url": "https://bj.lianjia.com/zufang/BJ2157773307053604864.html",
    "rent_type": "整租",
    "location": "西城区-金融街-西城晶华",
    "scraped_at": "2026-05-02 20:18:09",
    "region": "jinrongjie",
    "unit_price": 251.3,
    "lat": 39.919786,
    "lng": 116.358968
  },
  {
    "title": "整租·二龙路 2室1厅 东",
    "community": "二龙路",
    "area": "39.80",
    "rooms": "2室1厅",
    "direction": "东",
    "floor": "",
    "price": "10000",
    "tags": "",
    "source": "",
    "url": "https://bj.lianjia.com/zufang/BJ2159907992449843200.html",
    "rent_type": "整租",
    "location": "西城区-金融街-二龙路",
    "scraped_at": "2026-05-02 20:18:09",
    "region": "jinrongjie",
    "unit_price": 251.3,
    "lat": 39.913746,
    "lng": 116.358468
  },
  {
    "title": "整租·长安兴融中心 1室1厅 北",
    "community": "长安兴融中心",
    "area": "76.00",
    "rooms": "1室1厅",
    "direction": "北",
    "floor": "",
    "price": "9900",
    "tags": "",
    "source": "",
    "url": "https://bj.lianjia.com/zufang/BJ2156338031450128384.html",
    "rent_type": "整租",
    "location": "西城区-金融街-长安兴融中心",
    "scraped_at": "2026-05-02 20:18:09",
    "region": "jinrongjie",
    "unit_price": 130.3,
    "lat": 39.903752,
    "lng": 116.355739
  },
  {
    "title": "整租·北京尊府 2室1厅 东南",
    "community": "北京尊府",
    "area": "127.00",
    "rooms": "2室1厅",
    "direction": "东南",
    "floor": "",
    "price": "28000",
    "tags": "",
    "source": "",
    "url": "https://bj.lianjia.com/zufang/BJ2156425866349903872.html",
    "rent_type": "整租",
    "location": "西城区-金融街-北京尊府",
    "scraped_at": "2026-05-02 20:18:09",
    "region": "jinrongjie",
    "unit_price": 220.5,
    "lat": 39.901106,
    "lng": 116.355138
  },
  {
    "title": "整租·新文化街 1室1厅 南",
    "community": "新文化街",
    "area": "40.80",
    "rooms": "1室1厅",
    "direction": "南",
    "floor": "",
    "price": "7500",
    "tags": "",
    "source": "",
    "url": "https://bj.lianjia.com/zufang/BJ2067915086873231360.html",
    "rent_type": "整租",
    "location": "西城区-金融街-新文化街",
    "scraped_at": "2026-05-02 20:18:12",
    "region": "jinrongjie",
    "unit_price": 183.8,
    "lat": 39.902746,
    "lng": 116.363818
  },
  {
    "title": "整租·西城晶华 3室2厅 东/西",
    "community": "西城晶华",
    "area": "152.00",
    "rooms": "3室2厅",
    "direction": "东/西",
    "floor": "",
    "price": "30000",
    "tags": "",
    "source": "",
    "url": "https://bj.lianjia.com/zufang/BJ2064228932130963456.html",
    "rent_type": "整租",
    "location": "西城区-金融街-西城晶华",
    "scraped_at": "2026-05-02 20:18:12",
    "region": "jinrongjie",
    "unit_price": 197.4,
    "lat": 39.919786,
    "lng": 116.358968
  },
  {
    "title": "整租·京畿道 1室1厅 西",
    "community": "京畿道",
    "area": "41.40",
    "rooms": "1室1厅",
    "direction": "西",
    "floor": "",
    "price": "8500",
    "tags": "",
    "source": "",
    "url": "https://bj.lianjia.com/zufang/BJ2150404163282927616.html",
    "rent_type": "整租",
    "location": "西城区-金融街-京畿道",
    "scraped_at": "2026-05-02 20:18:12",
    "region": "jinrongjie",
    "unit_price": 205.3,
    "lat": 39.908476,
    "lng": 116.360878
  },
  {
    "title": "整租·金龙公寓 2室2厅 东",
    "community": "金龙公寓",
    "area": "117.00",
    "rooms": "2室2厅",
    "direction": "东",
    "floor": "",
    "price": "29000",
    "tags": "",
    "source": "",
    "url": "https://bj.lianjia.com/zufang/BJ2021558702867218432.html",
    "rent_type": "整租",
    "location": "西城区-金融街-金龙公寓",
    "scraped_at": "2026-05-02 20:18:09",
    "region": "jinrongjie",
    "unit_price": 247.9,
    "lat": 39.91386,
    "lng": 116.357157
  },
  {
    "title": "整租·金龙公寓 3室2厅 西北",
    "community": "金龙公寓",
    "area": "126.47",
    "rooms": "3室2厅",
    "direction": "西北",
    "floor": "",
    "price": "23800",
    "tags": "",
    "source": "",
    "url": "https://bj.lianjia.com/zufang/BJ1941820251859582976.html",
    "rent_type": "整租",
    "location": "西城区-金融街-金龙公寓",
    "scraped_at": "2026-05-02 20:18:09",
    "region": "jinrongjie",
    "unit_price": 188.2,
    "lat": 39.91386,
    "lng": 116.357157
  },
  {
    "title": "整租·丰汇园小区 2室2厅 南/北",
    "community": "丰汇园小区",
    "area": "104.00",
    "rooms": "2室2厅",
    "direction": "南/北",
    "floor": "",
    "price": "22000",
    "tags": "",
    "source": "",
    "url": "https://bj.lianjia.com/zufang/BJ2129794788256382976.html",
    "rent_type": "整租",
    "location": "西城区-金融街-丰汇园小区",
    "scraped_at": "2026-05-02 20:18:09",
    "region": "jinrongjie",
    "unit_price": 211.5,
    "lat": 39.914837,
    "lng": 116.361597
  },
  {
    "title": "整租·丰融园 5室2厅 东/南/北",
    "community": "丰融园",
    "area": "217.00",
    "rooms": "5室2厅",
    "direction": "东/南/北",
    "floor": "",
    "price": "50000",
    "tags": "",
    "source": "",
    "url": "https://bj.lianjia.com/zufang/BJ2154092457002795008.html",
    "rent_type": "整租",
    "location": "西城区-金融街-丰融园",
    "scraped_at": "2026-05-02 20:18:09",
    "region": "jinrongjie",
    "unit_price": 230.4,
    "lat": 39.915286,
    "lng": 116.359568
  },
  {
    "title": "整租·丰侨公寓 1室1厅 西",
    "community": "丰侨公寓",
    "area": "60.94",
    "rooms": "1室1厅",
    "direction": "西",
    "floor": "",
    "price": "11000",
    "tags": "",
    "source": "",
    "url": "https://bj.lianjia.com/zufang/BJ2124417395203244032.html",
    "rent_type": "整租",
    "location": "西城区-金融街-丰侨公寓",
    "scraped_at": "2026-05-02 20:18:09",
    "region": "jinrongjie",
    "unit_price": 180.5,
    "lat": 39.915286,
    "lng": 116.359568
  },
  {
    "title": "整租·宣武门西大街北区 2室1厅 南",
    "community": "宣武门西大街北区",
    "area": "58.90",
    "rooms": "2室1厅",
    "direction": "南",
    "floor": "",
    "price": "9500",
    "tags": "",
    "source": "",
    "url": "https://bj.lianjia.com/zufang/BJ2128403046533693440.html",
    "rent_type": "整租",
    "location": "西城区-金融街-宣武门西大街北区",
    "scraped_at": "2026-05-02 20:18:12",
    "region": "jinrongjie",
    "unit_price": 161.3,
    "lat": 39.896556,
    "lng": 116.353068
  },
  {
    "title": "整租·新文化街 3室1厅 东/南",
    "community": "新文化街",
    "area": "82.60",
    "rooms": "3室1厅",
    "direction": "东/南",
    "floor": "",
    "price": "14500",
    "tags": "",
    "source": "",
    "url": "https://bj.lianjia.com/zufang/BJ2055672955072937984.html",
    "rent_type": "整租",
    "location": "西城区-金融街-新文化街",
    "scraped_at": "2026-05-02 20:18:12",
    "region": "jinrongjie",
    "unit_price": 175.5,
    "lat": 39.902746,
    "lng": 116.363818
  },
  {
    "title": "整租·新融苑 2室2厅 东/西",
    "community": "新融苑",
    "area": "113.00",
    "rooms": "2室2厅",
    "direction": "东/西",
    "floor": "",
    "price": "19000",
    "tags": "",
    "source": "",
    "url": "https://bj.lianjia.com/zufang/BJ2150480844366544896.html",
    "rent_type": "整租",
    "location": "西城区-金融街-新融苑",
    "scraped_at": "2026-05-02 20:18:15",
    "region": "jinrongjie",
    "unit_price": 168.1,
    "lat": 39.902302,
    "lng": 116.364799
  },
  {
    "title": "整租·尚座大厦 3室2厅 东南",
    "community": "尚座大厦",
    "area": "173.70",
    "rooms": "3室2厅",
    "direction": "东南",
    "floor": "",
    "price": "39800",
    "tags": "",
    "source": "",
    "url": "https://bj.lianjia.com/zufang/BJ1909252582837059584.html",
    "rent_type": "整租",
    "location": "西城区-金融街-尚座大厦",
    "scraped_at": "2026-05-02 20:18:12",
    "region": "jinrongjie",
    "unit_price": 229.1,
    "lat": 39.899122,
    "lng": 116.36203
  },
  {
    "title": "整租·丰汇园小区 1室1厅 东",
    "community": "丰汇园小区",
    "area": "50.30",
    "rooms": "1室1厅",
    "direction": "东",
    "floor": "",
    "price": "7900",
    "tags": "",
    "source": "",
    "url": "https://bj.lianjia.com/zufang/BJ2033396679478083584.html",
    "rent_type": "整租",
    "location": "西城区-金融街-丰汇园小区",
    "scraped_at": "2026-05-02 20:18:12",
    "region": "jinrongjie",
    "unit_price": 157.1,
    "lat": 39.914837,
    "lng": 116.361597
  },
  {
    "title": "整租·金宸国际公寓 3室2厅 南/北",
    "community": "金宸国际公寓",
    "area": "191.07",
    "rooms": "3室2厅",
    "direction": "南/北",
    "floor": "",
    "price": "35000",
    "tags": "",
    "source": "",
    "url": "https://bj.lianjia.com/zufang/BJ2059968103927775232.html",
    "rent_type": "整租",
    "location": "西城区-金融街-金宸国际公寓",
    "scraped_at": "2026-05-02 20:18:12",
    "region": "jinrongjie",
    "unit_price": 183.2,
    "lat": 39.910896,
    "lng": 116.355848
  },
  {
    "title": "整租·锦什坊街 3室1厅 南/北",
    "community": "锦什坊街",
    "area": "39.10",
    "rooms": "3室1厅",
    "direction": "南/北",
    "floor": "",
    "price": "5500",
    "tags": "",
    "source": "",
    "url": "https://bj.lianjia.com/zufang/BJ2115408824478203904.html",
    "rent_type": "整租",
    "location": "西城区-金融街-锦什坊街",
    "scraped_at": "2026-05-02 20:18:12",
    "region": "jinrongjie",
    "unit_price": 140.7,
    "lat": 39.919928,
    "lng": 116.356456
  },
  {
    "title": "整租·石灯胡同6号院 2室1厅 南/北",
    "community": "石灯胡同6号院",
    "area": "50.50",
    "rooms": "2室1厅",
    "direction": "南/北",
    "floor": "",
    "price": "8500",
    "tags": "",
    "source": "",
    "url": "https://bj.lianjia.com/zufang/BJ2116416290351480832.html",
    "rent_type": "整租",
    "location": "西城区-金融街-石灯胡同",
    "scraped_at": "2026-05-02 20:18:12",
    "region": "jinrongjie",
    "unit_price": 168.3,
    "lat": 39.900035,
    "lng": 116.359712
  },
  {
    "title": "整租·太平桥大街6号 2室1厅 东/南/西",
    "community": "太平桥大街6号",
    "area": "65.90",
    "rooms": "2室1厅",
    "direction": "东/南/西",
    "floor": "",
    "price": "11800",
    "tags": "",
    "source": "",
    "url": "https://bj.lianjia.com/zufang/BJ2087752518376357888.html",
    "rent_type": "整租",
    "location": "西城区-金融街-太平桥大街",
    "scraped_at": "2026-05-02 20:18:15",
    "region": "jinrongjie",
    "unit_price": 179.1,
    "lat": 39.920562,
    "lng": 116.359643
  },
  {
    "title": "整租·丰融园 3室1厅 南/北",
    "community": "丰融园",
    "area": "165.00",
    "rooms": "3室1厅",
    "direction": "南/北",
    "floor": "",
    "price": "38000",
    "tags": "",
    "source": "",
    "url": "https://bj.lianjia.com/zufang/BJ2154051661373374464.html",
    "rent_type": "整租",
    "location": "西城区-金融街-丰融园",
    "scraped_at": "2026-05-02 20:18:12",
    "region": "jinrongjie",
    "unit_price": 230.3,
    "lat": 39.915286,
    "lng": 116.359568
  },
  {
    "title": "整租·王府仓胡同10号院 2室1厅 南",
    "community": "王府仓胡同10号院",
    "area": "78.00",
    "rooms": "2室1厅",
    "direction": "南",
    "floor": "",
    "price": "21000",
    "tags": "",
    "source": "",
    "url": "https://bj.lianjia.com/zufang/BJ2139757683211763712.html",
    "rent_type": "整租",
    "location": "西城区-金融街-王府仓胡同",
    "scraped_at": "2026-05-02 20:18:12",
    "region": "jinrongjie",
    "unit_price": 269.2,
    "lat": 39.919993,
    "lng": 116.353497
  },
  {
    "title": "整租·西单北大街 1室1厅 南",
    "community": "西单北大街",
    "area": "23.00",
    "rooms": "1室1厅",
    "direction": "南",
    "floor": "",
    "price": "6500",
    "tags": "",
    "source": "",
    "url": "https://bj.lianjia.com/zufang/BJ2151543830183149568.html",
    "rent_type": "整租",
    "location": "西城区-金融街-西单北大街",
    "scraped_at": "2026-05-02 20:18:15",
    "region": "jinrongjie",
    "unit_price": 282.6,
    "lat": 39.908186,
    "lng": 116.367138
  },
  {
    "title": "整租·京畿道 2室1厅 东/西",
    "community": "京畿道",
    "area": "79.40",
    "rooms": "2室1厅",
    "direction": "东/西",
    "floor": "",
    "price": "12900",
    "tags": "",
    "source": "",
    "url": "https://bj.lianjia.com/zufang/BJ1916344583877296128.html",
    "rent_type": "整租",
    "location": "西城区-金融街-京畿道",
    "scraped_at": "2026-05-02 20:18:15",
    "region": "jinrongjie",
    "unit_price": 162.5,
    "lat": 39.908476,
    "lng": 116.360878
  },
  {
    "title": "整租·京畿道 1室1厅 西",
    "community": "京畿道",
    "area": "41.00",
    "rooms": "1室1厅",
    "direction": "西",
    "floor": "",
    "price": "7200",
    "tags": "",
    "source": "",
    "url": "https://bj.lianjia.com/zufang/BJ2121803086996439040.html",
    "rent_type": "整租",
    "location": "西城区-金融街-京畿道",
    "scraped_at": "2026-05-02 20:18:15",
    "region": "jinrongjie",
    "unit_price": 175.6,
    "lat": 39.908476,
    "lng": 116.360878
  },
  {
    "title": "整租·长安兴融中心 3室1厅 南",
    "community": "长安兴融中心",
    "area": "121.89",
    "rooms": "3室1厅",
    "direction": "南",
    "floor": "",
    "price": "19000",
    "tags": "",
    "source": "",
    "url": "https://bj.lianjia.com/zufang/BJ2156335772460908544.html",
    "rent_type": "整租",
    "location": "西城区-金融街-长安兴融中心",
    "scraped_at": "2026-05-02 20:18:15",
    "region": "jinrongjie",
    "unit_price": 155.9,
    "lat": 39.903752,
    "lng": 116.355739
  },
  {
    "title": "整租·新文化街 3室1厅 东北",
    "community": "新文化街",
    "area": "81.30",
    "rooms": "3室1厅",
    "direction": "东北",
    "floor": "",
    "price": "16800",
    "tags": "",
    "source": "",
    "url": "https://bj.lianjia.com/zufang/BJ2150608606553178112.html",
    "rent_type": "整租",
    "location": "西城区-金融街-新文化街",
    "scraped_at": "2026-05-02 20:18:15",
    "region": "jinrongjie",
    "unit_price": 206.6,
    "lat": 39.902746,
    "lng": 116.363818
  },
  {
    "title": "整租·羊肉胡同120号院 1室1厅 南",
    "community": "羊肉胡同120号院",
    "area": "41.70",
    "rooms": "1室1厅",
    "direction": "南",
    "floor": "",
    "price": "7500",
    "tags": "",
    "source": "",
    "url": "https://bj.lianjia.com/zufang/BJ2100200838084427776.html",
    "rent_type": "整租",
    "location": "西城区-金融街-羊肉胡同",
    "scraped_at": "2026-05-02 20:18:15",
    "region": "jinrongjie",
    "unit_price": 179.9,
    "lat": 39.921115,
    "lng": 116.359587
  },
  {
    "title": "整租·新文化街 1室1厅 南",
    "community": "新文化街",
    "area": "42.30",
    "rooms": "1室1厅",
    "direction": "南",
    "floor": "",
    "price": "9000",
    "tags": "",
    "source": "",
    "url": "https://bj.lianjia.com/zufang/BJ2123368376041472000.html",
    "rent_type": "整租",
    "location": "西城区-金融街-新文化街",
    "scraped_at": "2026-05-02 20:18:15",
    "region": "jinrongjie",
    "unit_price": 212.8,
    "lat": 39.902746,
    "lng": 116.363818
  },
  {
    "title": "整租·西城晶华 2室1厅 东/南",
    "community": "西城晶华",
    "area": "117.00",
    "rooms": "2室1厅",
    "direction": "东/南",
    "floor": "",
    "price": "20000",
    "tags": "",
    "source": "",
    "url": "https://bj.lianjia.com/zufang/BJ2128140085135147008.html",
    "rent_type": "整租",
    "location": "西城区-金融街-西城晶华",
    "scraped_at": "2026-05-02 20:18:15",
    "region": "jinrongjie",
    "unit_price": 170.9,
    "lat": 39.919786,
    "lng": 116.358968
  },
  {
    "title": "整租·丰侨公寓 3室2厅 南/北",
    "community": "丰侨公寓",
    "area": "190.00",
    "rooms": "3室2厅",
    "direction": "南/北",
    "floor": "",
    "price": "42000",
    "tags": "",
    "source": "",
    "url": "https://bj.lianjia.com/zufang/BJ2154254319803695104.html",
    "rent_type": "整租",
    "location": "西城区-金融街-丰侨公寓",
    "scraped_at": "2026-05-02 20:18:15",
    "region": "jinrongjie",
    "unit_price": 221.1,
    "lat": 39.915286,
    "lng": 116.359568
  },
  {
    "title": "整租·华荣公寓 3室2厅 南/北",
    "community": "华荣公寓",
    "area": "263.07",
    "rooms": "3室2厅",
    "direction": "南/北",
    "floor": "",
    "price": "60000",
    "tags": "",
    "source": "",
    "url": "https://bj.lianjia.com/zufang/BJ2095498370075328512.html",
    "rent_type": "整租",
    "location": "西城区-金融街-华荣公寓",
    "scraped_at": "2026-05-02 20:18:15",
    "region": "jinrongjie",
    "unit_price": 228.1,
    "lat": 39.908244,
    "lng": 116.355476
  },
  {
    "title": "整租·石灯胡同6号院 2室1厅 东",
    "community": "石灯胡同6号院",
    "area": "50.50",
    "rooms": "2室1厅",
    "direction": "东",
    "floor": "",
    "price": "7200",
    "tags": "",
    "source": "",
    "url": "https://bj.lianjia.com/zufang/BJ2107835924661403648.html",
    "rent_type": "整租",
    "location": "西城区-金融街-石灯胡同",
    "scraped_at": "2026-05-02 20:18:15",
    "region": "jinrongjie",
    "unit_price": 142.6,
    "lat": 39.900035,
    "lng": 116.359712
  },
  {
    "title": "整租·王府仓胡同10号院 2室1厅 南",
    "community": "王府仓胡同10号院",
    "area": "85.00",
    "rooms": "2室1厅",
    "direction": "南",
    "floor": "",
    "price": "22000",
    "tags": "",
    "source": "",
    "url": "https://bj.lianjia.com/zufang/BJ2156041764929011712.html",
    "rent_type": "整租",
    "location": "西城区-金融街-王府仓胡同",
    "scraped_at": "2026-05-02 20:18:15",
    "region": "jinrongjie",
    "unit_price": 258.8,
    "lat": 39.919993,
    "lng": 116.353497
  },
  {
    "title": "整租·长安兴融中心 4室2厅 南/西/北",
    "community": "长安兴融中心",
    "area": "291.00",
    "rooms": "4室2厅",
    "direction": "南/西/北",
    "floor": "",
    "price": "50000",
    "tags": "",
    "source": "",
    "url": "https://bj.lianjia.com/zufang/BJ2041754163087409152.html",
    "rent_type": "整租",
    "location": "西城区-金融街-长安兴融中心",
    "scraped_at": "2026-05-02 20:18:15",
    "region": "jinrongjie",
    "unit_price": 171.8,
    "lat": 39.903752,
    "lng": 116.355739
  },
  {
    "title": "整租·丰汇园小区 2室1厅 南",
    "community": "丰汇园小区",
    "area": "73.60",
    "rooms": "2室1厅",
    "direction": "南",
    "floor": "",
    "price": "13000",
    "tags": "",
    "source": "",
    "url": "https://bj.lianjia.com/zufang/BJ2161089376950419456.html",
    "rent_type": "整租",
    "location": "西城区-金融街-丰汇园小区",
    "scraped_at": "2026-05-02 20:18:15",
    "region": "jinrongjie",
    "unit_price": 176.6,
    "lat": 39.914837,
    "lng": 116.361597
  },