region,title,rent_type,community,location,area,rooms,direction,floor,price,unit_price,tags,source,url,scraped_at,lat,lng
huinan,整租·远洋万和四季 3室1厅 南,整租,远洋万和四季,浦东-惠南-远洋万和四季,90.00,3室1厅,南,,2800,31.1,,,https://sh.lianjia.com/zufang/SH2088644307467632640.html,2026-04-23 00:31:39,31.067505,121.779756
huinan,整租·丽水雅苑 1室1厅 南,整租,丽水雅苑,浦东-惠南-丽水雅苑,51.20,1室1厅,南,,1890,36.9,,,https://sh.lianjia.com/zufang/SH2147283513483722752.html,2026-04-23 00:31:01,31.071816,121.751384
huinan,整租·彩虹雅苑 3室2厅 南/北,整租,彩虹雅苑,浦东-惠南-彩虹雅苑,112.99,3室2厅,南/北,,2800,24.8,,,https://sh.lianjia.com/zufang/SH2142903403200643072.html,2026-04-23 00:29:47,31.05828,121.7325
huinan,独栋·海家公寓 惠南店 B户型 1室1厅,独栋,海家公寓 惠南店 B户型,,28.00,1室1厅,,,1480,52.9,,,https://sh.lianjia.com/apartment/53016.html,2026-04-23 00:29:47,39.788939,116.323232
huinan,整租·博佳花园 3室2厅 南,整租,博佳花园,浦东-惠南-博佳花园,121.00,3室2厅,南,,3000,24.8,,,https://sh.lianjia.com/zufang/SH2152351612033564672.html,2026-04-23 00:31:48,31.0436,121.73998
huinan,独栋·林隐公寓 林隐公寓 一居室外窗户型 南北通透 1室1厅,独栋,林隐公寓 林隐公寓,,29.00,1室1厅,,,1700,58.6,,,https://sh.lianjia.com/apartment/64386.html,2026-04-23 00:29:50,40.454726,115.968618
huinan,整租·文益街7号 1室1厅 西,整租,文益街7号,浦东-惠南-文益街,39.00,1室1厅,西,,1500,38.5,,,https://sh.lianjia.com/zufang/SH2111025964044517376.html,2026-04-23 00:29:47,31.056366,121.760952
huinan,整租·东原逸墅 3室2厅 南/北,整租,东原逸墅,浦东-惠南-东原逸墅,152.00,3室2厅,南/北,,5800,38.2,,,https://sh.lianjia.com/zufang/SH2137971114373021696.html,2026-04-23 00:30:07,31.059646,121.770321
huinan,整租·莎海惠晨苑 2室2厅 南,整租,莎海惠晨苑,浦东-惠南-莎海惠晨苑,95.35,2室2厅,南,,2200,23.1,,,https://sh.lianjia.com/zufang/SH2147297154794782720.html,2026-04-23 00:31:39,31.04306,121.76098
huinan,整租·华钜御庭(一期) 4室2厅 南,整租,华钜御庭(一期),浦东-惠南-华钜御庭(一期),134.73,4室2厅,南,,4700,34.9,,,https://sh.lianjia.com/zufang/SH2149535478997581824.html,2026-04-23 00:31:39,31.055993,121.772918
huinan,整租·惠益新苑南苑 2室1厅 南,整租,惠益新苑南苑,浦东-惠南-惠益新苑南苑,79.00,2室1厅,南,,2200,27.8,,,https://sh.lianjia.com/zufang/SH2085691054643740672.html,2026-04-23 00:31:39,31.0603,121.73547
huinan,独栋·星创公寓 拱北路店 1室0厅（独立厨房） 开间,独栋,星创公寓 拱北路店,,44.30,1室0厅,,,2050,46.3,,,https://sh.lianjia.com/apartment/80517.html,2026-04-23 00:29:47,39.854186,116.286138
huinan,整租·浦东颐景园 3室2厅 南,整租,浦东颐景园,浦东-惠南-浦东颐景园,92.00,3室2厅,南,,4100,44.6,,,https://sh.lianjia.com/zufang/SH2139946847253299200.html,2026-04-23 00:31:39,31.05027,121.75852
huinan,整租·博佳花园 3室2厅 南,整租,博佳花园,浦东-惠南-博佳花园,121.98,3室2厅,南,,2900,23.8,,,https://sh.lianjia.com/zufang/SH2143316018070552576.html,2026-04-23 00:29:47,31.0436,121.73998
huinan,整租·东城花苑一村 2室2厅 南,整租,东城花苑一村,浦东-惠南-东城花苑一村,97.93,2室2厅,南,,2476,25.3,,,https://sh.lianjia.com/zufang/SH2142834207573934080.html,2026-04-23 00:30:35,31.05239,121.7615
huinan,独栋·圣居公寓 惠南店 标间1 开间,独栋,圣居公寓 惠南店 标间1 开间,,18.00,,,,1500,83.3,,,https://sh.lianjia.com/apartment/21019.html,2026-04-23 00:29:47,39.965296,116.474398
huinan,整租·海玥瑄邸 3室1厅 南,整租,海玥瑄邸,浦东-惠南-海玥瑄邸,91.57,3室1厅,南,,3600,39.3,,,https://sh.lianjia.com/zufang/SH2144111250429181952.html,2026-04-23 00:29:47,31.04059,121.75969
huinan,整租·碧桂园天悦 3室2厅 南,整租,碧桂园天悦,浦东-惠南-碧桂园天悦,127.55,3室2厅,南,,3800,29.8,,,https://sh.lianjia.com/zufang/SH2088961242851966976.html,2026-04-23 00:31:04,31.044169,121.755333
huinan,独栋·林隐公寓 拱极路店 林隐安居公寓 精品大户型单间 开间,独栋,林隐公寓 拱极路店 林隐安居公寓,,30.00,,,,2100,70.0,,,https://sh.lianjia.com/apartment/95098.html,2026-04-23 00:29:47,39.84957,116.2176
huinan,整租·远洋万和四季 2室1厅 南/北,整租,远洋万和四季,浦东-惠南-远洋万和四季,90.00,2室1厅,南/北,,2800,31.1,,,https://sh.lianjia.com/zufang/SH2151468505315147776.html,2026-04-23 00:31:48,31.067505,121.779756
huinan,整租·鹏润伊顿公馆 2室1厅 南,整租,鹏润伊顿公馆,浦东-惠南-鹏润伊顿公馆,88.00,2室1厅,南,,3500,39.8,,,https://sh.lianjia.com/zufang/SH2153133501916905472.html,2026-04-23 00:31:48,31.05877,121.77993
huinan,整租·长城珑湾 1室1厅 南,整租,长城珑湾,浦东-惠南-长城珑湾,69.02,1室1厅,南,,2500,36.2,,,https://sh.lianjia.com/zufang/SH2142963106001715200.html,2026-04-23 00:31:01,31.05689,121.77732
huinan,整租·东原逸墅 3室2厅 南,整租,东原逸墅,浦东-惠南-东原逸墅,125.46,3室2厅,南,,4600,36.7,,,https://sh.lianjia.com/zufang/SH2116391079514210304.html,2026-04-23 00:31:01,31.059646,121.770321
huinan,整租·布鲁斯小镇(一期) 3室2厅 南/北,整租,布鲁斯小镇(一期),浦东-惠南-布鲁斯小镇(一期),97.02,3室2厅,南/北,,3500,36.1,,,https://sh.lianjia.com/zufang/SH2144843754652041216.html,2026-04-23 00:29:47,31.03682,121.7592
huinan,整租·东城华都 3室2厅 南,整租,东城华都,浦东-惠南-东城华都,137.00,3室2厅,南,,3600,26.3,,,https://sh.lianjia.com/zufang/SH2128697783681548288.html,2026-04-23 00:29:47,31.05819,121.7623
huinan,整租·远洋万和四季 3室2厅 南/北,整租,远洋万和四季,浦东-惠南-远洋万和四季,118.47,3室2厅,南/北,,3330,28.1,,,https://sh.lianjia.com/zufang/SH2130141461742616576.html,2026-04-23 00:29:50,31.067505,121.779756
huinan,整租·民乐城颐康名苑 2室1厅 南,整租,民乐城颐康名苑,浦东-惠南-民乐城颐康名苑,75.77,2室1厅,南,,2100,27.7,,,https://sh.lianjia.com/zufang/SH2032712865865007104.html,2026-04-23 00:31:48,31.066757,121.744055
huinan,整租·乐源城 1室1厅 南,整租,乐源城,浦东-惠南-乐源城,54.00,1室1厅,南,,2000,37.0,,,https://sh.lianjia.com/zufang/SH1905886403451944960.html,2026-04-23 00:29:50,31.05047,121.7688
huinan,整租·宝业万华城 3室1厅 南,整租,宝业万华城,浦东-惠南-宝业万华城,97.00,3室1厅,南,,3100,32.0,,,https://sh.lianjia.com/zufang/SH1897996086094594048.html,2026-04-23 00:29:50,31.02866,121.73372
huinan,整租·三八新村 3室1厅 南,整租,三八新村,浦东-惠南-三八新村,86.58,3室1厅,南,,2800,32.3,,,https://sh.lianjia.com/zufang/SH2130227073518665728.html,2026-04-23 00:29:50,31.04913,121.7548
huinan,整租·方糖公寓 1室1厅 北,整租,方糖公寓,浦东-惠南-方糖公寓,57.00,1室1厅,北,,1900,33.3,,,https://sh.lianjia.com/zufang/SH1928708232222605312.html,2026-04-23 00:29:50,31.03873,121.73
huinan,整租·鹏润伊顿公馆 2室1厅 南,整租,鹏润伊顿公馆,浦东-惠南-鹏润伊顿公馆,77.00,2室1厅,南,,3350,43.5,,,https://sh.lianjia.com/zufang/SH2065762749777969152.html,2026-04-23 00:31:13,31.05877,121.77993
huinan,整租·丽水雅苑北苑 2室1厅 南,整租,丽水雅苑北苑,浦东-惠南-丽水雅苑北苑,69.00,2室1厅,南,,2200,31.9,,,https://sh.lianjia.com/zufang/SH2143738108833693696.html,2026-04-23 00:29:50,31.0726,121.75086
huinan,整租·彩虹雅苑 2室1厅 南,整租,彩虹雅苑,浦东-惠南-彩虹雅苑,78.00,2室1厅,南,,2800,35.9,,,https://sh.lianjia.com/zufang/SH2060359072577748992.html,2026-04-23 00:29:50,31.05828,121.7325
huinan,整租·良景佳苑 1室1厅 南,整租,良景佳苑,浦东-惠南-良景佳苑,55.00,1室1厅,南,,2000,36.4,,,https://sh.lianjia.com/zufang/SH2143303051841110016.html,2026-04-23 00:29:50,39.728707,116.121686
huinan,整租·德盈佳园 3室2厅 南,整租,德盈佳园,浦东-惠南-德盈佳园,130.00,3室2厅,南,,2900,22.3,,,https://sh.lianjia.com/zufang/SH2080984665258196992.html,2026-04-23 00:29:50,31.0592,121.79468
huinan,整租·艺泰一品花园 5室3厅 南/北,整租,艺泰一品花园,浦东-惠南-艺泰一品花园,354.22,5室3厅,南/北,,7000,19.8,,,https://sh.lianjia.com/zufang/SH2130890751427477504.html,2026-04-23 00:29:50,31.05043,121.72258
huinan,整租·民乐城馨园 1室1厅 南,整租,民乐城馨园,浦东-惠南-民乐城馨园,58.34,1室1厅,南,,2200,37.7,,,https://sh.lianjia.com/zufang/SH2068696630428696576.html,2026-04-23 00:31:13,31.05945,121.74401
huinan,整租·远洋万和四季 3室1厅 南,整租,远洋万和四季,浦东-惠南-远洋万和四季,90.00,3室1厅,南,,3100,34.4,,,https://sh.lianjia.com/zufang/SH2121609809525473280.html,2026-04-23 00:29:50,31.067505,121.779756
huinan,整租·远洋万和四季 3室2厅 南,整租,远洋万和四季,浦东-惠南-远洋万和四季,100.20,3室2厅,南,,2600,25.9,,,https://sh.lianjia.com/zufang/SH2132008942761410560.html,2026-04-23 00:29:50,31.067505,121.779756
huinan,整租·良景佳苑 1室1厅 南,整租,良景佳苑,浦东-惠南-良景佳苑,55.00,1室1厅,南,,2000,36.4,,,https://sh.lianjia.com/zufang/SH2143304618405265408.html,2026-04-23 00:29:50,39.728707,116.121686
huinan,整租·兴东佳苑(一期) 2室2厅 南/北,整租,兴东佳苑(一期),浦东-惠南-兴东佳苑(一期),96.00,2室2厅,南/北,,2900,30.2,,,https://sh.lianjia.com/zufang/SH2039976616041381888.html,2026-04-23 00:31:48,31.05723,121.75514
huinan,整租·听潮民乐苑 2室1厅 南/北,整租,听潮民乐苑,浦东-惠南-听潮民乐苑,75.61,2室1厅,南/北,,2100,27.8,,,https://sh.lianjia.com/zufang/SH2041450859803443200.html,2026-04-23 00:31:48,31.05424,121.73888
huinan,整租·远洋万和四季 3室1厅 南,整租,远洋万和四季,浦东-惠南-远洋万和四季,89.83,3室1厅,南,,2900,32.3,,,https://sh.lianjia.com/zufang/SH2027618504429010944.html,2026-04-23 00:31:39,31.067505,121.779756
huinan,整租·供销三村 1室1厅 南,整租,供销三村,浦东-惠南-供销三村,44.97,1室1厅,南,,2100,46.7,,,https://sh.lianjia.com/zufang/SH2058942602572464128.html,2026-04-23 00:29:50,31.001,121.81254
huinan,整租·康敏苑一期 3室2厅 南,整租,康敏苑一期,浦东-惠南-康敏苑一期,133.00,3室2厅,南,,3000,22.6,,,https://sh.lianjia.com/zufang/SH2138885591339630592.html,2026-04-23 00:29:50,31.03896,121.75962
huinan,整租·民乐城秀园(西苑) 2室1厅 南,整租,民乐城秀园(西苑),浦东-惠南-民乐城秀园(西苑),72.00,2室1厅,南,,2900,40.3,,,https://sh.lianjia.com/zufang/SH2151517472027574272.html,2026-04-23 00:30:51,31.06941,121.74057
huinan,整租·惠康苑西苑 2室1厅 南,整租,惠康苑西苑,浦东-惠南-惠康苑西苑,82.00,2室1厅,南,,2100,25.6,,,https://sh.lianjia.com/zufang/SH2123668908526272512.html,2026-04-23 00:30:04,31.07041,121.73268
huinan,整租·丽水雅苑北苑 1室1厅 南,整租,丽水雅苑北苑,浦东-惠南-丽水雅苑北苑,52.00,1室1厅,南,,2100,40.4,,,https://sh.lianjia.com/zufang/SH2130260571319173120.html,2026-04-23 00:29:50,31.0726,121.75086
huinan,整租·方糖公寓 2室1厅 南,整租,方糖公寓,浦东-惠南-方糖公寓,58.00,2室1厅,南,,1943,33.5,,,https://sh.lianjia.com/zufang/SH1770801638492078080.html,2026-04-23 00:29:52,31.03873,121.73
huinan,整租·文益街7号 1室0厅 南,整租,文益街7号,浦东-惠南-文益街,37.00,1室0厅,南,,1805,48.8,,,https://sh.lianjia.com/zufang/SH1823952334330265600.html,2026-04-23 00:29:52,31.056366,121.760952
huinan,整租·桃源二村 2室1厅 南,整租,桃源二村,浦东-惠南-桃源二村,90.68,2室1厅,南,,2600,28.7,,,https://sh.lianjia.com/zufang/SH1687321889984217088.html,2026-04-23 00:31:09,31.05745,121.75264
huinan,整租·惠益新苑 2室1厅 南,整租,惠益新苑,浦东-惠南-惠益新苑,78.00,2室1厅,南,,1950,25.0,,,https://sh.lianjia.com/zufang/SH1766379930645430272.html,2026-04-23 00:29:52,31.06234,121.73461
huinan,整租·德盈佳园 2室1厅 南,整租,德盈佳园,浦东-惠南-德盈佳园,82.77,2室1厅,南,,2223,26.9,,,https://sh.lianjia.com/zufang/SH1772601627904049152.html,2026-04-23 00:29:52,31.0592,121.79468
huinan,整租·远洋万和四季 3室2厅 南,整租,远洋万和四季,浦东-惠南-远洋万和四季,89.57,3室2厅,南,,2800,31.3,,,https://sh.lianjia.com/zufang/SH2153438335853395968.html,2026-04-23 00:31:48,31.067505,121.779756
huinan,整租·远洋万和四季 2室1厅 南,整租,远洋万和四季,浦东-惠南-远洋万和四季,80.84,2室1厅,南,,2500,30.9,,,https://sh.lianjia.com/zufang/SH2120519501903560704.html,2026-04-23 00:29:52,31.067505,121.779756
huinan,整租·听潮一村 2室1厅 南,整租,听潮一村,浦东-惠南-听潮一村,53.00,2室1厅,南,,2346,44.3,,,https://sh.lianjia.com/zufang/SH1738048751362113536.html,2026-04-23 00:31:09,31.001,121.81254
huinan,整租·惠南一方新城（三期） 2室2厅 南,整租,惠南一方新城（三期）,浦东-惠南-惠南一方新城,95.00,2室2厅,南,,3500,36.8,,,https://sh.lianjia.com/zufang/SH2021954402079735808.html,2026-04-23 00:31:39,31.03798,121.73367
huinan,整租·东城时代华庭 5室2厅 南,整租,东城时代华庭,浦东-惠南-东城时代华庭,220.00,5室2厅,南,,11000,50.0,,,https://sh.lianjia.com/zufang/SH2124372775542980608.html,2026-04-23 00:30:04,31.05366,121.76954
huinan,整租·民乐城玉秀苑西苑 2室1厅 南,整租,民乐城玉秀苑西苑,浦东-惠南-民乐城玉秀苑西苑,83.05,2室1厅,南,,2800,33.7,,,https://sh.lianjia.com/zufang/SH2141754554771832832.html,2026-04-23 00:30:11,31.07206,121.73572
huinan,整租·华钜御庭(三期) 6室2厅 复式 南,整租,华钜御庭(三期),浦东-惠南-华钜御庭(三期),241.36,6室2厅,,,8300,34.4,,,https://sh.lianjia.com/zufang/SH2108095755641159680.html,2026-04-23 00:29:52,31.05798,121.76689
huinan,整租·泰燕华庭 2室1厅 南,整租,泰燕华庭,浦东-惠南-泰燕华庭,99.31,2室1厅,南,,2500,25.2,,,https://sh.lianjia.com/zufang/SH2140460965701877760.html,2026-04-23 00:29:52,31.0392,121.73828
huinan,整租·福汇二村 2室1厅 南,整租,福汇二村,浦东-惠南-福汇二村,111.99,2室1厅,南,,2000,17.9,,,https://sh.lianjia.com/zufang/SH2067172499761659904.html,2026-04-23 00:30:04,31.04192,121.75423
huinan,整租·民乐城泓瀚苑 1室1厅 南,整租,民乐城泓瀚苑,浦东-惠南-民乐城泓瀚苑,53.79,1室1厅,南,,2500,46.5,,,https://sh.lianjia.com/zufang/SH2139619825939382272.html,2026-04-23 00:29:52,31.07206,121.73572
huinan,整租·布鲁斯小镇(一期) 2室1厅 南/北,整租,布鲁斯小镇(一期),浦东-惠南-布鲁斯小镇(一期),70.60,2室1厅,南/北,,2600,36.8,,,https://sh.lianjia.com/zufang/SH2123300222850301952.html,2026-04-23 00:30:04,31.03682,121.7592
huinan,整租·听潮六村 7室3厅 南/北,整租,听潮六村,浦东-惠南-听潮六村,245.90,7室3厅,南/北,,12000,48.8,,,https://sh.lianjia.com/zufang/SH2118980774429458432.html,2026-04-23 00:29:52,31.04713,121.73926
huinan,整租·民乐城建欣苑东苑 2室2厅 南,整租,民乐城建欣苑东苑,浦东-惠南-民乐城建欣苑东苑,82.00,2室2厅,南,,2900,35.4,,,https://sh.lianjia.com/zufang/SH2101179572950138880.html,2026-04-23 00:29:52,31.059123,121.74034
huinan,整租·绿地峰汇 2室1厅 东北,整租,绿地峰汇,浦东-惠南-绿地峰汇,96.00,2室1厅,东北,,3000,31.2,,,https://sh.lianjia.com/zufang/SH2106412291032350720.html,2026-04-23 00:29:52,31.04164,121.7452
huinan,整租·东城花苑二村一区 2室2厅 南/北,整租,东城花苑二村一区,浦东-惠南-东城花苑二村一区,97.28,2室2厅,南/北,,2500,25.7,,,https://sh.lianjia.com/zufang/SH2120782965624537088.html,2026-04-23 00:29:52,31.05248,121.76487
huinan,整租·华钜御庭(二期) 2室2厅 南,整租,华钜御庭(二期),浦东-惠南-华钜御庭(二期),90.80,2室2厅,南,,3700,40.7,,,https://sh.lianjia.com/zufang/SH2141212647771602944.html,2026-04-23 00:29:52,31.05783,121.77011
huinan,整租·新凤凰城 6室3厅 复式 南,整租,新凤凰城,浦东-惠南-新凤凰城,220.70,6室3厅,,,10000,45.3,,,https://sh.lianjia.com/zufang/SH2124375254884155392.html,2026-04-23 00:30:04,31.05576,121.76702
huinan,整租·东城时代华庭 1室1厅 南,整租,东城时代华庭,浦东-惠南-东城时代华庭,59.70,1室1厅,南,,2600,43.6,,,https://sh.lianjia.com/zufang/SH2155993906414616576.html,2026-04-23 00:29:52,31.05366,121.76954
huinan,整租·民乐城汇雅苑南苑 2室1厅 南,整租,民乐城汇雅苑南苑,浦东-惠南-民乐城汇雅苑南苑,71.61,2室1厅,南,,3200,44.7,,,https://sh.lianjia.com/zufang/SH2140334727523991552.html,2026-04-23 00:29:52,31.07285,121.74656
huinan,整租·新凤凰城 2室2厅 南,整租,新凤凰城,浦东-惠南-新凤凰城,107.00,2室2厅,南,,3500,32.7,,,https://sh.lianjia.com/zufang/SH2067104914022072320.html,2026-04-23 00:29:52,31.05576,121.76702
huinan,整租·汇通新村 2室2厅 南,整租,汇通新村,浦东-惠南-汇通新村,78.99,2室2厅,南,,2500,31.6,,,https://sh.lianjia.com/zufang/SH2097956821355462656.html,2026-04-23 00:30:04,31.04908,121.74635
huinan,整租·科教园区大学城生活区 1室1厅 南,整租,科教园区大学城生活区,浦东-惠南-科教园区大学城生活区,44.39,1室1厅,南,,990,22.3,,,https://sh.lianjia.com/zufang/SH2115795190785507328.html,2026-04-23 00:29:52,31.05001,121.78078
huinan,整租·新凤凰城 2室2厅 南,整租,新凤凰城,浦东-惠南-新凤凰城,104.00,2室2厅,南,,3000,28.8,,,https://sh.lianjia.com/zufang/SH2091444414785257472.html,2026-04-23 00:30:04,31.05576,121.76702
huinan,整租·城南东路154弄 2室2厅 南/北,整租,城南东路154弄,浦东-惠南-城南东路,115.78,2室2厅,南/北,,2000,17.3,,,https://sh.lianjia.com/zufang/SH2150794372646436864.html,2026-04-23 00:29:52,31.044569,121.764881
huinan,整租·远洋万和四季 3室2厅 南,整租,远洋万和四季,浦东-惠南-远洋万和四季,119.59,3室2厅,南,,4500,37.6,,,https://sh.lianjia.com/zufang/SH2140723075497328640.html,2026-04-23 00:31:01,31.067505,121.779756
huinan,整租·德盈佳园 2室2厅 南,整租,德盈佳园,浦东-惠南-德盈佳园,92.06,2室2厅,南,,2000,21.7,,,https://sh.lianjia.com/zufang/SH2154525886655758336.html,2026-04-23 00:29:55,31.0592,121.79468
huinan,整租·泰燕华庭 3室2厅 东南,整租,泰燕华庭,浦东-惠南-泰燕华庭,122.17,3室2厅,东南,,2400,19.6,,,https://sh.lianjia.com/zufang/SH2121167131474132992.html,2026-04-23 00:31:04,31.0392,121.73828
huinan,整租·彩虹雅苑 1室1厅 南,整租,彩虹雅苑,浦东-惠南-彩虹雅苑,56.00,1室1厅,南,,2400,42.9,,,https://sh.lianjia.com/zufang/SH2155889001779691520.html,2026-04-23 00:31:01,31.05828,121.7325
huinan,整租·丽水雅苑北苑 2室1厅 南,整租,丽水雅苑北苑,浦东-惠南-丽水雅苑北苑,68.00,2室1厅,南,,2200,32.4,,,https://sh.lianjia.com/zufang/SH2153493895311261696.html,2026-04-23 00:29:55,31.0726,121.75086
huinan,整租·远洋万和四季 3室1厅 南,整租,远洋万和四季,浦东-惠南-远洋万和四季,90.46,3室1厅,南,,2600,28.7,,,https://sh.lianjia.com/zufang/SH2156041577875636224.html,2026-04-23 00:29:55,31.067505,121.779756
huinan,整租·甬申金地城 2室1厅 南,整租,甬申金地城,浦东-惠南-甬申金地城,95.64,2室1厅,南,,2600,27.2,,,https://sh.lianjia.com/zufang/SH2157001477581701120.html,2026-04-23 00:31:01,31.04337,121.76691
huinan,整租·海曲雅苑 1室1厅 南,整租,海曲雅苑,浦东-惠南-海曲雅苑,68.00,1室1厅,南,,1800,26.5,,,https://sh.lianjia.com/zufang/SH2139597362031493120.html,2026-04-23 00:31:01,31.059852,121.76687
huinan,整租·浦东微谷 1室1厅 南,整租,浦东微谷,浦东-惠南-浦东微谷,55.70,1室1厅,南,,2700,48.5,,,https://sh.lianjia.com/zufang/SH2122630305499054080.html,2026-04-23 00:29:55,31.05027,121.75852
huinan,整租·华盛新村 2室2厅 错层 南,整租,华盛新村,浦东-惠南-华盛新村,105.06,2室2厅,,,2600,24.7,,,https://sh.lianjia.com/zufang/SH2154527594186276864.html,2026-04-23 00:31:01,31.04948,121.74757
huinan,整租·东城花苑一村 3室1厅 南/北,整租,东城花苑一村,浦东-惠南-东城花苑一村,92.00,3室1厅,南/北,,2700,29.3,,,https://sh.lianjia.com/zufang/SH2127992657564139520.html,2026-04-23 00:31:01,31.05239,121.7615
huinan,整租·东城花苑一村 3室2厅 南,整租,东城花苑一村,浦东-惠南-东城花苑一村,138.45,3室2厅,南,,3200,23.1,,,https://sh.lianjia.com/zufang/SH2107359398325125120.html,2026-04-23 00:30:46,31.05239,121.7615
huinan,整租·桃源艺筑 1室1厅 南,整租,桃源艺筑,浦东-惠南-桃源艺筑,52.09,1室1厅,南,,1900,36.5,,,https://sh.lianjia.com/zufang/SH2146845516749602816.html,2026-04-23 00:29:55,31.05606,121.75216
huinan,整租·远洋万和四季 3室2厅 南,整租,远洋万和四季,浦东-惠南-远洋万和四季,100.00,3室2厅,南,,3900,39.0,,,https://sh.lianjia.com/zufang/SH2117127677088366592.html,2026-04-23 00:30:46,31.067505,121.779756
huinan,整租·德盈佳园 2室2厅 南,整租,德盈佳园,浦东-惠南-德盈佳园,83.06,2室2厅,南,,2000,24.1,,,https://sh.lianjia.com/zufang/SH2149858034510200832.html,2026-04-23 00:31:01,31.0592,121.79468
huinan,整租·申云小区 4室2厅 南/北,整租,申云小区,浦东-惠南-申云小区,147.02,4室2厅,南/北,,3800,25.8,,,https://sh.lianjia.com/zufang/SH2065059345585930240.html,2026-04-23 00:30:55,31.04186,121.74774
huinan,整租·丽水雅苑 2室1厅 南,整租,丽水雅苑,浦东-惠南-丽水雅苑,69.90,2室1厅,南,,2700,38.6,,,https://sh.lianjia.com/zufang/SH2146190235925479424.html,2026-04-23 00:29:55,31.071816,121.751384
huinan,整租·荡湾新村 2室1厅 南,整租,荡湾新村,浦东-惠南-荡湾新村,57.09,2室1厅,南,,2000,35.0,,,https://sh.lianjia.com/zufang/SH2132345186833924096.html,2026-04-23 00:30:07,31.04579,121.76122
huinan,整租·宝业万华城 3室2厅 南,整租,宝业万华城,浦东-惠南-宝业万华城,97.00,3室2厅,南,,3475,35.8,,,https://sh.lianjia.com/zufang/SH2146165328743235584.html,2026-04-23 00:29:55,31.02866,121.73372
huinan,整租·远洋万和四季 3室2厅 南,整租,远洋万和四季,浦东-惠南-远洋万和四季,97.70,3室2厅,南,,2600,26.6,,,https://sh.lianjia.com/zufang/SH2154794687741820928.html,2026-04-23 00:29:55,31.067505,121.779756
huinan,整租·惠康苑 2室1厅 南,整租,惠康苑,浦东-惠南-惠康苑,78.57,2室1厅,南,,2500,31.8,,,https://sh.lianjia.com/zufang/SH2138574665063333888.html,2026-04-23 00:29:55,31.07206,121.73572
huinan,整租·莎海惠晨苑 2室2厅 南,整租,莎海惠晨苑,浦东-惠南-莎海惠晨苑,110.00,2室2厅,南,,3000,27.3,,,https://sh.lianjia.com/zufang/SH2146183458072821760.html,2026-04-23 00:31:04,31.04306,121.76098
huinan,整租·惠南一方新城 2室1厅 南,整租,惠南一方新城,浦东-惠南-惠南一方新城,65.00,2室1厅,南,,2800,43.1,,,https://sh.lianjia.com/zufang/SH2156712249731842048.html,2026-04-23 00:30:07,31.03798,121.73367
huinan,整租·欧洲城 3室1厅 南,整租,欧洲城,浦东-惠南-欧洲城,91.00,3室1厅,南,,2500,27.5,,,https://sh.lianjia.com/zufang/SH2141569995409195008.html,2026-04-23 00:31:01,31.0458,121.76517
huinan,整租·民乐城惠益绿苑 3室1厅 南,整租,民乐城惠益绿苑,浦东-惠南-民乐城惠益绿苑,78.88,3室1厅,南,,2200,27.9,,,https://sh.lianjia.com/zufang/SH2116827470882668544.html,2026-04-23 00:31:01,31.06801,121.73616
huinan,整租·中洲珑玺台 4室2厅 南,整租,中洲珑玺台,浦东-惠南-中洲珑玺台,175.00,4室2厅,南,,7000,40.0,,,https://sh.lianjia.com/zufang/SH2094749832966045696.html,2026-04-23 00:30:07,31.0572,121.77611
huinan,整租·远洋万和四季 2室1厅 南,整租,远洋万和四季,浦东-惠南-远洋万和四季,79.30,2室1厅,南,,3400,42.9,,,https://sh.lianjia.com/zufang/SH2102709160515731456.html,2026-04-23 00:30:46,31.067505,121.779756
huinan,整租·绿地峰汇 3室2厅 南/北,整租,绿地峰汇,浦东-惠南-绿地峰汇,98.53,3室2厅,南/北,,3800,38.6,,,https://sh.lianjia.com/zufang/SH2110400260139384832.html,2026-04-23 00:29:55,31.04164,121.7452
huinan,整租·丽水雅苑 1室1厅 南,整租,丽水雅苑,浦东-惠南-丽水雅苑,55.00,1室1厅,南,,2300,41.8,,,https://sh.lianjia.com/zufang/SH2156237972184236032.html,2026-04-23 00:30:55,31.071816,121.751384
huinan,整租·远洋万和四季 3室2厅 南,整租,远洋万和四季,浦东-惠南-远洋万和四季,120.00,3室2厅,南,,3100,25.8,,,https://sh.lianjia.com/zufang/SH2080629115295105024.html,2026-04-23 00:31:01,31.067505,121.779756
huinan,整租·远洋万和四季 3室2厅 南,整租,远洋万和四季,浦东-惠南-远洋万和四季,100.24,3室2厅,南,,2100,20.9,,,https://sh.lianjia.com/zufang/SH2116813445918621696.html,2026-04-23 00:31:01,31.067505,121.779756
huinan,整租·东城花苑一村 2室2厅 南,整租,东城花苑一村,浦东-惠南-东城花苑一村,101.00,2室2厅,南,,2600,25.7,,,https://sh.lianjia.com/zufang/SH2145714909105618944.html,2026-04-23 00:30:07,31.05239,121.7615
huinan,整租·德盈佳园 2室2厅 南/北,整租,德盈佳园,浦东-惠南-德盈佳园,89.52,2室2厅,南/北,,2400,26.8,,,https://sh.lianjia.com/zufang/SH2147632012813402112.html,2026-04-23 00:30:07,31.0592,121.79468
huinan,整租·西门锦绣苑 3室2厅 南,整租,西门锦绣苑,浦东-惠南-西门锦绣苑,120.00,3室2厅,南,,3100,25.8,,,https://sh.lianjia.com/zufang/SH2146242671688024064.html,2026-04-23 00:31:01,31.04962,121.73587
huinan,整租·文益街7号 1室0厅 东,整租,文益街7号,浦东-惠南-文益街,40.00,1室0厅,东,,2000,50.0,,,https://sh.lianjia.com/zufang/SH2154211263469584384.html,2026-04-23 00:29:58,31.056366,121.760952
huinan,整租·远洋万和四季 3室2厅 南,整租,远洋万和四季,浦东-惠南-远洋万和四季,120.00,3室2厅,南,,2400,20.0,,,https://sh.lianjia.com/zufang/SH2137830345813262336.html,2026-04-23 00:29:58,31.067505,121.779756
huinan,整租·听潮四村 2室1厅 南,整租,听潮四村,浦东-惠南-听潮四村,57.85,2室1厅,南,,1900,32.8,,,https://sh.lianjia.com/zufang/SH2126591670353920000.html,2026-04-23 00:30:07,31.04959,121.73946
huinan,整租·宣桥枫庭 3室1厅 东南,整租,宣桥枫庭,浦东-惠南-宣桥枫庭,102.00,3室1厅,东南,,3300,32.4,,,https://sh.lianjia.com/zufang/SH2153839693010042880.html,2026-04-23 00:29:58,31.02773,121.70997
huinan,整租·听潮民乐苑 3室2厅 南,整租,听潮民乐苑,浦东-惠南-听潮民乐苑,88.53,3室2厅,南,,3100,35.0,,,https://sh.lianjia.com/zufang/SH2151593352565358592.html,2026-04-23 00:30:07,31.05424,121.73888
huinan,整租·听潮一村 3室1厅 南,整租,听潮一村,浦东-惠南-听潮一村,61.00,3室1厅,南,,2000,32.8,,,https://sh.lianjia.com/zufang/SH2122586251176443904.html,2026-04-23 00:31:04,31.001,121.81254
huinan,整租·布鲁斯小镇(二期) 3室2厅 南,整租,布鲁斯小镇(二期),浦东-惠南-布鲁斯小镇(二期),96.23,3室2厅,南,,3200,33.3,,,https://sh.lianjia.com/zufang/SH2077316964241375232.html,2026-04-23 00:30:07,31.03598,121.76167
huinan,整租·康敏苑一期 3室2厅 南,整租,康敏苑一期,浦东-惠南-康敏苑一期,133.75,3室2厅,南,,5000,37.4,,,https://sh.lianjia.com/zufang/SH2150600384224165888.html,2026-04-23 00:29:58,31.03896,121.75962
huinan,整租·民乐城兰丽苑(西苑) 3室1厅 南/北,整租,民乐城兰丽苑(西苑),浦东-惠南-民乐城兰丽苑(西苑),84.40,3室1厅,南/北,,2000,23.7,,,https://sh.lianjia.com/zufang/SH2153864182313779200.html,2026-04-23 00:29:58,31.07313,121.7401
huinan,整租·水岸家园 3室2厅 南,整租,水岸家园,浦东-惠南-水岸家园,138.00,3室2厅,南,,3000,21.7,,,https://sh.lianjia.com/zufang/SH2148739792286777344.html,2026-04-23 00:29:58,31.0467,121.73751
huinan,整租·海燕二村 2室1厅 南,整租,海燕二村,浦东-惠南-海燕二村,70.33,2室1厅,南,,2000,28.4,,,https://sh.lianjia.com/zufang/SH2155151699717652480.html,2026-04-23 00:31:04,31.04085,121.76052
huinan,整租·桃花源一村 2室1厅 南,整租,桃花源一村,浦东-惠南-桃花源一村,68.00,2室1厅,南,,2700,39.7,,,https://sh.lianjia.com/zufang/SH2156974595297509376.html,2026-04-23 00:30:07,31.05408,121.75266
huinan,整租·东方城市豪庭 3室2厅 南,整租,东方城市豪庭,浦东-惠南-东方城市豪庭,121.97,3室2厅,南,,3500,28.7,,,https://sh.lianjia.com/zufang/SH2141015303843217408.html,2026-04-23 00:29:58,31.05052,121.76198
huinan,整租·听潮四村 2室1厅 南,整租,听潮四村,浦东-惠南-听潮四村,56.09,2室1厅,南,,1800,32.1,,,https://sh.lianjia.com/zufang/SH2113835142983188480.html,2026-04-23 00:29:58,31.04959,121.73946
huinan,整租·锦绣汇丽苑 3室1厅 南,整租,锦绣汇丽苑,浦东-惠南-锦绣汇丽苑,118.00,3室1厅,南,,1200,10.2,,,https://sh.lianjia.com/zufang/SH2138494293126414336.html,2026-04-23 00:31:04,31.03738,121.7613
huinan,整租·听潮民乐苑 2室1厅 南/北,整租,听潮民乐苑,浦东-惠南-听潮民乐苑,57.38,2室1厅,南/北,,2300,40.1,,,https://sh.lianjia.com/zufang/SH2151168114014814208.html,2026-04-23 00:29:58,31.05424,121.73888
huinan,整租·远洋万和四季 3室2厅 南,整租,远洋万和四季,浦东-惠南-远洋万和四季,100.24,3室2厅,南,,1900,19.0,,,https://sh.lianjia.com/zufang/SH2101966327680860160.html,2026-04-23 00:30:46,31.067505,121.779756
huinan,整租·海曲雅苑 3室2厅 南,整租,海曲雅苑,浦东-惠南-海曲雅苑,113.53,3室2厅,南,,3300,29.1,,,https://sh.lianjia.com/zufang/SH2107416033768767488.html,2026-04-23 00:29:58,31.059852,121.76687
huinan,整租·德盈佳园 3室2厅 南,整租,德盈佳园,浦东-惠南-德盈佳园,127.29,3室2厅,南,,1500,11.8,,,https://sh.lianjia.com/zufang/SH2141013171454869504.html,2026-04-23 00:29:58,31.0592,121.79468
huinan,整租·人生港湾南欧城 3室2厅 南,整租,人生港湾南欧城,浦东-惠南-人生港湾南欧城,131.40,3室2厅,南,,3700,28.2,,,https://sh.lianjia.com/zufang/SH2070136067045982208.html,2026-04-23 00:30:55,31.04232,121.76569
huinan,整租·锦绣汇丽苑 2室2厅 南,整租,锦绣汇丽苑,浦东-惠南-锦绣汇丽苑,82.00,2室2厅,南,,2200,26.8,,,https://sh.lianjia.com/zufang/SH2137887842095857664.html,2026-04-23 00:30:46,31.03738,121.7613
huinan,整租·惠益新苑 2室1厅 南,整租,惠益新苑,浦东-惠南-惠益新苑,78.40,2室1厅,南,,1600,20.4,,,https://sh.lianjia.com/zufang/SH2146614943707824128.html,2026-04-23 00:29:58,31.06234,121.73461
huinan,整租·远洋万和四季 3室1厅 南,整租,远洋万和四季,浦东-惠南-远洋万和四季,90.46,3室1厅,南,,3500,38.7,,,https://sh.lianjia.com/zufang/SH2129224717956022272.html,2026-04-23 00:31:01,31.067505,121.779756
huinan,整租·德盈佳园 3室2厅 南/北,整租,德盈佳园,浦东-惠南-德盈佳园,130.00,3室2厅,南/北,,1700,13.1,,,https://sh.lianjia.com/zufang/SH2104134180211261440.html,2026-04-23 00:30:07,31.0592,121.79468
huinan,整租·都汇公馆 1室0厅 西,整租,都汇公馆,浦东-惠南-都汇公馆,40.00,1室0厅,西,,2500,62.5,,,https://sh.lianjia.com/zufang/SH2143704028809265152.html,2026-04-23 00:29:58,31.04247,121.75349
huinan,整租·彩虹雅苑 1室1厅 南,整租,彩虹雅苑,浦东-惠南-彩虹雅苑,57.00,1室1厅,南,,2200,38.6,,,https://sh.lianjia.com/zufang/SH2117094863089434624.html,2026-04-23 00:30:01,31.05828,121.7325
huinan,整租·惠康苑 2室1厅 南/北,整租,惠康苑,浦东-惠南-惠康苑,78.00,2室1厅,南/北,,1600,20.5,,,https://sh.lianjia.com/zufang/SH2151512945811521536.html,2026-04-23 00:30:51,31.07206,121.73572
huinan,整租·爱盛家园 3室2厅 南,整租,爱盛家园,浦东-惠南-爱盛家园,135.00,3室2厅,南,,3500,25.9,,,https://sh.lianjia.com/zufang/SH2151587260154249216.html,2026-04-23 00:30:51,31.05686,121.76058
huinan,整租·彩虹雅苑 3室2厅 南,整租,彩虹雅苑,浦东-惠南-彩虹雅苑,112.00,3室2厅,南,,3000,26.8,,,https://sh.lianjia.com/zufang/SH2151626120896708608.html,2026-04-23 00:30:51,31.05828,121.7325
huinan,整租·新凤凰城 2室1厅 南,整租,新凤凰城,浦东-惠南-新凤凰城,106.00,2室1厅,南,,3500,33.0,,,https://sh.lianjia.com/zufang/SH2151528458440671232.html,2026-04-23 00:30:51,31.05576,121.76702
huinan,整租·民乐城泓瀚苑 3室2厅 南,整租,民乐城泓瀚苑,浦东-惠南-民乐城泓瀚苑,85.00,3室2厅,南,,2700,31.8,,,https://sh.lianjia.com/zufang/SH2155912801590181888.html,2026-04-23 00:30:01,31.07206,121.73572
huinan,整租·惠益新苑南苑 2室1厅 南,整租,惠益新苑南苑,浦东-惠南-惠益新苑南苑,80.00,2室1厅,南,,3000,37.5,,,https://sh.lianjia.com/zufang/SH2155942049839316992.html,2026-04-23 00:30:01,31.0603,121.73547
huinan,整租·丹桂佳苑 2室1厅 南,整租,丹桂佳苑,浦东-惠南-丹桂佳苑,80.00,2室1厅,南,,2000,25.0,,,https://sh.lianjia.com/zufang/SH2155965196932218880.html,2026-04-23 00:30:01,31.02574,121.75713
huinan,整租·浦东微谷 1室1厅 东南,整租,浦东微谷,浦东-惠南-浦东微谷,54.39,1室1厅,东南,,2350,43.2,,,https://sh.lianjia.com/zufang/SH2155990765153550336.html,2026-04-23 00:30:01,31.05027,121.75852
huinan,整租·浦东微谷 1室1厅 南,整租,浦东微谷,浦东-惠南-浦东微谷,55.74,1室1厅,南,,2500,44.9,,,https://sh.lianjia.com/zufang/SH2156027139193831424.html,2026-04-23 00:30:01,31.05027,121.75852
huinan,整租·华实佳苑 3室1厅 南,整租,华实佳苑,浦东-惠南-华实佳苑,105.00,3室1厅,南,,3000,28.6,,,https://sh.lianjia.com/zufang/SH2156037630553227264.html,2026-04-23 00:30:01,31.03851,121.71094
huinan,整租·民乐城朗苑 1室1厅 南,整租,民乐城朗苑,浦东-惠南-民乐城朗苑,58.00,1室1厅,南,,2300,39.7,,,https://sh.lianjia.com/zufang/SH2156043400896315392.html,2026-04-23 00:30:01,31.05923,121.74149
huinan,整租·华钜御庭(二期) 2室2厅 南,整租,华钜御庭(二期),浦东-惠南-华钜御庭(二期),90.00,2室2厅,南,,3300,36.7,,,https://sh.lianjia.com/zufang/SH2156066029321584640.html,2026-04-23 00:30:01,31.05783,121.77011
huinan,整租·丽水雅苑北苑 2室1厅 南,整租,丽水雅苑北苑,浦东-惠南-丽水雅苑北苑,71.22,2室1厅,南,,2300,32.3,,,https://sh.lianjia.com/zufang/SH2156261567493046272.html,2026-04-23 00:30:01,31.0726,121.75086
huinan,整租·西南新村 2室1厅 南,整租,西南新村,浦东-惠南-西南新村,54.00,2室1厅,南,,2200,40.7,,,https://sh.lianjia.com/zufang/SH2156035191091494912.html,2026-04-23 00:30:01,31.04763,121.74728
huinan,整租·浦东微谷 1室1厅 南,整租,浦东微谷,浦东-惠南-浦东微谷,55.74,1室1厅,南,,2700,48.4,,,https://sh.lianjia.com/zufang/SH2156043959095263232.html,2026-04-23 00:30:01,31.05027,121.75852
huinan,整租·华实佳苑 2室1厅 南,整租,华实佳苑,浦东-惠南-华实佳苑,100.00,2室1厅,南,,2500,25.0,,,https://sh.lianjia.com/zufang/SH2156395791076294656.html,2026-04-23 00:30:01,31.03851,121.71094
huinan,整租·浦东微谷 1室1厅 南/北,整租,浦东微谷,浦东-惠南-浦东微谷,55.74,1室1厅,南/北,,2500,44.9,,,https://sh.lianjia.com/zufang/SH2156370207445090304.html,2026-04-23 00:30:01,31.05027,121.75852
huinan,整租·鑫通公寓 2室2厅 南,整租,鑫通公寓,浦东-惠南-鑫通公寓,113.58,2室2厅,南,,2700,23.8,,,https://sh.lianjia.com/zufang/SH2156611937666859008.html,2026-04-23 00:30:01,31.0442,121.74958
huinan,整租·金地城三期御领 3室2厅 南,整租,金地城三期御领,浦东-惠南-金地城三期御领,125.56,3室2厅,南,,4500,35.8,,,https://sh.lianjia.com/zufang/SH2157062660472963072.html,2026-04-23 00:30:01,31.06024,121.76393
huinan,整租·惠益新苑 2室1厅 南,整租,惠益新苑,浦东-惠南-惠益新苑,78.00,2室1厅,南,,2800,35.9,,,https://sh.lianjia.com/zufang/SH2157080633938018304.html,2026-04-23 00:30:01,31.06234,121.73461
huinan,整租·民乐城丽园 1室1厅 南,整租,民乐城丽园,浦东-惠南-民乐城丽园,55.00,1室1厅,南,,2200,40.0,,,https://sh.lianjia.com/zufang/SH2157342859299127296.html,2026-04-23 00:30:01,31.06437,121.73262
huinan,整租·惠康苑 2室1厅 南,整租,惠康苑,浦东-惠南-惠康苑,79.00,2室1厅,南,,1500,19.0,,,https://sh.lianjia.com/zufang/SH2157420410323337216.html,2026-04-23 00:30:01,31.07206,121.73572
huinan,整租·浦东微谷 1室1厅 东,整租,浦东微谷,浦东-惠南-浦东微谷,53.00,1室1厅,东,,2500,47.2,,,https://sh.lianjia.com/zufang/SH2157463083591663616.html,2026-04-23 00:30:01,31.05027,121.75852
huinan,整租·嘉园坊 2室2厅 南,整租,嘉园坊,浦东-惠南-嘉园坊,109.00,2室2厅,南,,1800,16.5,,,https://sh.lianjia.com/zufang/SH2119668348202516480.html,2026-04-23 00:30:01,31.02886,121.74204
huinan,整租·德盈佳园 2室1厅 南,整租,德盈佳园,浦东-惠南-德盈佳园,82.96,2室1厅,南,,1100,13.3,,,https://sh.lianjia.com/zufang/SH2120136048385196032.html,2026-04-23 00:30:01,31.0592,121.79468
huinan,整租·枫丹白露别墅 3室4厅 南/西南/北,整租,枫丹白露别墅,浦东-惠南-枫丹白露别墅,204.00,3室4厅,南/西南/北,,9000,44.1,,,https://sh.lianjia.com/zufang/SH2120723197887250432.html,2026-04-23 00:30:01,31.0455,121.71228
huinan,整租·民乐城兰丽苑(西苑) 1室1厅 南,整租,民乐城兰丽苑(西苑),浦东-惠南-民乐城兰丽苑(西苑),51.00,1室1厅,南,,2200,43.1,,,https://sh.lianjia.com/zufang/SH2122985826441756672.html,2026-04-23 00:30:04,31.07313,121.7401
huinan,整租·上河园 5室2厅 南,整租,上河园,浦东-惠南-上河园,618.42,5室2厅,南,,17000,27.5,,,https://sh.lianjia.com/zufang/SH2125133266154422272.html,2026-04-23 00:30:01,31.04044,121.72895
huinan,整租·兴东佳苑(一期) 3室2厅 南,整租,兴东佳苑(一期),浦东-惠南-兴东佳苑(一期),130.00,3室2厅,南,,4500,34.6,,,https://sh.lianjia.com/zufang/SH2127632919408148480.html,2026-04-23 00:30:01,31.05723,121.75514
huinan,整租·香桂园 2室2厅 南/北,整租,香桂园,浦东-惠南-香桂园,92.00,2室2厅,南/北,,2533,27.5,,,https://sh.lianjia.com/zufang/SH2057339301795987456.html,2026-04-23 00:30:04,31.04037,121.76193
huinan,整租·德盈佳园 1室1厅 南,整租,德盈佳园,浦东-惠南-德盈佳园,60.00,1室1厅,南,,1000,16.7,,,https://sh.lianjia.com/zufang/SH2061057924771348480.html,2026-04-23 00:30:04,31.0592,121.79468
huinan,整租·科教园区大学城生活区 1室1厅 南/北,整租,科教园区大学城生活区,浦东-惠南-科教园区大学城生活区,46.06,1室1厅,南/北,,1200,26.1,,,https://sh.lianjia.com/zufang/SH2064379589362188288.html,2026-04-23 00:30:04,31.05001,121.78078
huinan,整租·中科金地华韵 2室2厅 南,整租,中科金地华韵,浦东-惠南-中科金地华韵,99.11,2室2厅,南,,3000,30.3,,,https://sh.lianjia.com/zufang/SH2069376270893842432.html,2026-04-23 00:30:04,31.05896,121.76062
huinan,整租·听潮六村 2室1厅 南,整租,听潮六村,浦东-惠南-听潮六村,83.78,2室1厅,南,,2000,23.9,,,https://sh.lianjia.com/zufang/SH2076903945686482944.html,2026-04-23 00:30:04,31.04713,121.73926
huinan,整租·惠益新苑 2室1厅 南/北,整租,惠益新苑,浦东-惠南-惠益新苑,80.00,2室1厅,南/北,,2400,30.0,,,https://sh.lianjia.com/zufang/SH2078024259728310272.html,2026-04-23 00:30:04,31.06234,121.73461
huinan,整租·太阳谷别墅 6室2厅 南,整租,太阳谷别墅,浦东-惠南-太阳谷别墅,450.00,6室2厅,南,,10000,22.2,,,https://sh.lianjia.com/zufang/SH2079537782744678400.html,2026-04-23 00:30:04,31.0559,121.79001
huinan,整租·方糖公寓 1室1厅 南,整租,方糖公寓,浦东-惠南-方糖公寓,54.00,1室1厅,南,,2000,37.0,,,https://sh.lianjia.com/zufang/SH2078326751955517440.html,2026-04-23 00:30:04,31.03873,121.73
huinan,整租·嘉园坊 2室1厅 南,整租,嘉园坊,浦东-惠南-嘉园坊,86.00,2室1厅,南,,1600,18.6,,,https://sh.lianjia.com/zufang/SH2082454990453997568.html,2026-04-23 00:30:04,31.02886,121.74204
huinan,整租·德盈佳园 3室2厅 南,整租,德盈佳园,浦东-惠南-德盈佳园,112.00,3室2厅,南,,1550,13.8,,,https://sh.lianjia.com/zufang/SH2083413240682905600.html,2026-04-23 00:30:04,31.0592,121.79468
huinan,整租·民乐城秀园(西苑) 1室1厅 南,整租,民乐城秀园(西苑),浦东-惠南-民乐城秀园(西苑),51.22,1室1厅,南,,2100,41.0,,,https://sh.lianjia.com/zufang/SH2088979871161122816.html,2026-04-23 00:30:04,31.06941,121.74057
huinan,整租·科教园区大学城生活区 1室1厅 南,整租,科教园区大学城生活区,浦东-惠南-科教园区大学城生活区,46.00,1室1厅,南,,1400,30.4,,,https://sh.lianjia.com/zufang/SH2092936394195337216.html,2026-04-23 00:30:04,31.05001,121.78078
huinan,整租·科教园区大学城生活区 1室0厅 南,整租,科教园区大学城生活区,浦东-惠南-科教园区大学城生活区,48.21,1室0厅,南,,1900,39.4,,,https://sh.lianjia.com/zufang/SH2097987903433998336.html,2026-04-23 00:30:04,31.05001,121.78078
huinan,整租·西门新村 2室1厅 南/北,整租,西门新村,浦东-惠南-西门新村,63.89,2室1厅,南/北,,2000,31.3,,,https://sh.lianjia.com/zufang/SH2100451748203200512.html,2026-04-23 00:30:04,31.05691,121.73749
huinan,整租·布鲁斯小镇(绿地·皇家官邸) 2室1厅 南,整租,布鲁斯小镇(绿地·皇家官邸),浦东-惠南-布鲁斯小镇(绿地,91.50,2室1厅,南,,2600,28.4,,,https://sh.lianjia.com/zufang/SH1948997869704839168.html,2026-04-23 00:30:04,31.035,121.76609
huinan,整租·华钜御庭(二期) 2室2厅 南/北,整租,华钜御庭(二期),浦东-惠南-华钜御庭(二期),91.00,2室2厅,南/北,,3636,40.0,,,https://sh.lianjia.com/zufang/SH1975110108564160512.html,2026-04-23 00:30:04,31.05783,121.77011
huinan,整租·民乐城秀园(东苑) 3室1厅 南/北,整租,民乐城秀园(东苑),浦东-惠南-民乐城秀园(东苑),83.35,3室1厅,南/北,,1700,20.4,,,https://sh.lianjia.com/zufang/SH1988214233988333568.html,2026-04-23 00:30:04,31.06944,121.7422
huinan,整租·绿地峰汇 2室1厅 复式 东南,整租,绿地峰汇,浦东-惠南-绿地峰汇,97.00,2室1厅,,,4000,41.2,,,https://sh.lianjia.com/zufang/SH2003756910351745024.html,2026-04-23 00:30:04,31.04164,121.7452
huinan,整租·新凤凰城 6室3厅 南/北,整租,新凤凰城,浦东-惠南-新凤凰城,223.69,6室3厅,南/北,,6500,29.1,,,https://sh.lianjia.com/zufang/SH2015763113986490368.html,2026-04-23 00:30:04,31.05576,121.76702
huinan,整租·长城珑湾 2室2厅 南,整租,长城珑湾,浦东-惠南-长城珑湾,90.38,2室2厅,南,,3000,33.2,,,https://sh.lianjia.com/zufang/SH2018674417785110528.html,2026-04-23 00:30:04,31.05689,121.77732
huinan,整租·君御公馆 3室2厅 南/北,整租,君御公馆,浦东-惠南-君御公馆,102.00,3室2厅,南/北,,3300,32.4,,,https://sh.lianjia.com/zufang/SH2122975293516808192.html,2026-04-23 00:30:04,31.04082,121.7098
huinan,整租·科教园区大学城生活区 1室1厅 南,整租,科教园区大学城生活区,浦东-惠南-科教园区大学城生活区,46.06,1室1厅,南,,1500,32.6,,,https://sh.lianjia.com/zufang/SH2124073806673739776.html,2026-04-23 00:30:04,31.05001,121.78078
huinan,整租·德盈佳园 2室2厅 南,整租,德盈佳园,浦东-惠南-德盈佳园,91.07,2室2厅,南,,2100,23.1,,,https://sh.lianjia.com/zufang/SH2139246898349867008.html,2026-04-23 00:30:07,31.0592,121.79468
huinan,整租·锦绣汇丽苑 3室2厅 南,整租,锦绣汇丽苑,浦东-惠南-锦绣汇丽苑,119.00,3室2厅,南,,2000,16.8,,,https://sh.lianjia.com/zufang/SH2137201007321415680.html,2026-04-23 00:30:07,31.03738,121.7613
huinan,整租·华钜御庭(二期) 3室2厅 南,整租,华钜御庭(二期),浦东-惠南-华钜御庭(二期),92.00,3室2厅,南,,3200,34.8,,,https://sh.lianjia.com/zufang/SH2110667261726425088.html,2026-04-23 00:30:07,31.05783,121.77011
huinan,整租·宣桥枫庭 3室2厅 南,整租,宣桥枫庭,浦东-惠南-宣桥枫庭,85.00,3室2厅,南,,1900,22.4,,,https://sh.lianjia.com/zufang/SH2149741174724755456.html,2026-04-23 00:30:46,31.02773,121.70997
huinan,整租·宝业万华城 3室2厅 南,整租,宝业万华城,浦东-惠南-宝业万华城,97.00,3室2厅,南,,3600,37.1,,,https://sh.lianjia.com/zufang/SH2142172467135774720.html,2026-04-23 00:30:07,31.02866,121.73372
huinan,整租·荡湾新村 3室1厅 南,整租,荡湾新村,浦东-惠南-荡湾新村,73.00,3室1厅,南,,2300,31.5,,,https://sh.lianjia.com/zufang/SH2153730356048560128.html,2026-04-23 00:30:07,31.04579,121.76122
huinan,整租·惠益新苑南苑 2室1厅 南,整租,惠益新苑南苑,浦东-惠南-惠益新苑南苑,78.00,2室1厅,南,,2300,29.5,,,https://sh.lianjia.com/zufang/SH2150991843628679168.html,2026-04-23 00:30:07,31.0603,121.73547
huinan,整租·听潮一村 2室1厅 南,整租,听潮一村,浦东-惠南-听潮一村,52.12,2室1厅,南,,2100,40.3,,,https://sh.lianjia.com/zufang/SH2157110939499888640.html,2026-04-23 00:31:01,31.001,121.81254
huinan,整租·远洋万和四季 2室1厅 南,整租,远洋万和四季,浦东-惠南-远洋万和四季,80.87,2室1厅,南,,3000,37.1,,,https://sh.lianjia.com/zufang/SH2149018463484510208.html,2026-04-23 00:30:07,31.067505,121.779756
huinan,整租·听潮五村 3室1厅 南,整租,听潮五村,浦东-惠南-听潮五村,90.00,3室1厅,南,,1800,20.0,,,https://sh.lianjia.com/zufang/SH2143286802251776000.html,2026-04-23 00:30:55,31.04794,121.74309
huinan,整租·惠康苑 2室1厅 南/北,整租,惠康苑,浦东-惠南-惠康苑,81.66,2室1厅,南/北,,2500,30.6,,,https://sh.lianjia.com/zufang/SH2151560259632627712.html,2026-04-23 00:31:01,31.07206,121.73572
huinan,整租·西门锦绣苑 1室1厅 南,整租,西门锦绣苑,浦东-惠南-西门锦绣苑,55.00,1室1厅,南,,2500,45.5,,,https://sh.lianjia.com/zufang/SH2108539452979675136.html,2026-04-23 00:30:07,31.04962,121.73587
huinan,整租·红光花苑 3室2厅 南/北,整租,红光花苑,浦东-惠南-红光花苑,120.00,3室2厅,南/北,,3500,29.2,,,https://sh.lianjia.com/zufang/SH2141562866229051392.html,2026-04-23 00:30:11,31.065209,121.767112
huinan,整租·民乐城惠桐苑东苑 1室1厅 南/北,整租,民乐城惠桐苑东苑,浦东-惠南-民乐城惠桐苑东苑,52.00,1室1厅,南/北,,1500,28.8,,,https://sh.lianjia.com/zufang/SH2141820940802064384.html,2026-04-23 00:30:11,31.07206,121.73572
huinan,整租·卫星东路11弄 2室1厅 南,整租,卫星东路11弄,浦东-惠南-卫星东路,108.00,2室1厅,南,,3000,27.8,,,https://sh.lianjia.com/zufang/SH2141542676904804352.html,2026-04-23 00:30:11,31.045259,121.755074
huinan,整租·海曲雅苑 2室1厅 南/北,整租,海曲雅苑,浦东-惠南-海曲雅苑,85.30,2室1厅,南/北,,2900,34.0,,,https://sh.lianjia.com/zufang/SH2142105280828145664.html,2026-04-23 00:30:11,31.059852,121.76687
huinan,整租·宝业万华城 3室2厅 南,整租,宝业万华城,浦东-惠南-宝业万华城,118.00,3室2厅,南,,4200,35.6,,,https://sh.lianjia.com/zufang/SH2142277304540200960.html,2026-04-23 00:30:11,31.02866,121.73372
huinan,整租·惠康苑西苑 2室1厅 南,整租,惠康苑西苑,浦东-惠南-惠康苑西苑,81.76,2室1厅,南,,2300,28.1,,,https://sh.lianjia.com/zufang/SH2142274642033770496.html,2026-04-23 00:30:11,31.07041,121.73268
huinan,整租·布鲁斯小镇(二期) 2室1厅 南,整租,布鲁斯小镇(二期),浦东-惠南-布鲁斯小镇(二期),96.14,2室1厅,南,,3200,33.3,,,https://sh.lianjia.com/zufang/SH2143940930955116544.html,2026-04-23 00:30:11,31.03598,121.76167
huinan,整租·华盛新村 3室2厅 南,整租,华盛新村,浦东-惠南-华盛新村,113.00,3室2厅,南,,3000,26.5,,,https://sh.lianjia.com/zufang/SH2144666493323837440.html,2026-04-23 00:30:11,31.04948,121.74757
huinan,整租·桃源二村 2室1厅 南,整租,桃源二村,浦东-惠南-桃源二村,82.00,2室1厅,南,,3000,36.6,,,https://sh.lianjia.com/zufang/SH2145832223402622976.html,2026-04-23 00:30:11,31.05745,121.75264
huinan,整租·汇通新村 2室1厅 南,整租,汇通新村,浦东-惠南-汇通新村,60.00,2室1厅,南,,2500,41.7,,,https://sh.lianjia.com/zufang/SH2146104858359365632.html,2026-04-23 00:30:11,31.04908,121.74635
huinan,整租·远洋万和四季 2室1厅 南,整租,远洋万和四季,浦东-惠南-远洋万和四季,80.66,2室1厅,南,,1500,18.6,,,https://sh.lianjia.com/zufang/SH2146176161749663744.html,2026-04-23 00:30:11,31.067505,121.779756
huinan,整租·海曲雅苑 2室2厅 南,整租,海曲雅苑,浦东-惠南-海曲雅苑,85.00,2室2厅,南,,3500,41.2,,,https://sh.lianjia.com/zufang/SH2146216118279208960.html,2026-04-23 00:30:11,31.059852,121.76687
huinan,整租·东城花苑二村 4室2厅 南,整租,东城花苑二村,浦东-惠南-东城花苑二村,160.00,4室2厅,南,,4000,25.0,,,https://sh.lianjia.com/zufang/SH2146215057220960256.html,2026-04-23 00:30:11,31.0535,121.76662
huinan,整租·民乐城兰丽苑东苑 2室1厅 南,整租,民乐城兰丽苑东苑,浦东-惠南-民乐城兰丽苑东苑,71.00,2室1厅,南,,2600,36.6,,,https://sh.lianjia.com/zufang/SH2146228118191341568.html,2026-04-23 00:30:11,31.07342,121.74319
huinan,整租·碧桂园天悦 3室2厅 南/北,整租,碧桂园天悦,浦东-惠南-碧桂园天悦,116.49,3室2厅,南/北,,4000,34.3,,,https://sh.lianjia.com/zufang/SH2146479094156492800.html,2026-04-23 00:30:11,31.044169,121.755333
huinan,整租·禹洲商业广场 1室1厅 北,整租,禹洲商业广场,浦东-惠南-禹洲商业广场,55.00,1室1厅,北,,2150,39.1,,,https://sh.lianjia.com/zufang/SH2146925745920802816.html,2026-04-23 00:30:11,31.04173,121.73529
huinan,整租·兴东佳苑(一期) 3室2厅 南,整租,兴东佳苑(一期),浦东-惠南-兴东佳苑(一期),133.00,3室2厅,南,,4200,31.6,,,https://sh.lianjia.com/zufang/SH2146979958252109824.html,2026-04-23 00:30:11,31.05723,121.75514
huinan,整租·东城花苑一村 2室1厅 南,整租,东城花苑一村,浦东-惠南-东城花苑一村,108.00,2室1厅,南,,2700,25.0,,,https://sh.lianjia.com/zufang/SH2142490055472578560.html,2026-04-23 00:30:11,31.05239,121.7615
huinan,整租·龙源星城 2室2厅 南,整租,龙源星城,浦东-惠南-龙源星城,107.44,2室2厅,南,,3000,27.9,,,https://sh.lianjia.com/zufang/SH2142994000267706368.html,2026-04-23 00:30:11,31.04873,121.7805
huinan,整租·桃花源一村 2室2厅 南,整租,桃花源一村,浦东-惠南-桃花源一村,98.24,2室2厅,南,,2300,23.4,,,https://sh.lianjia.com/zufang/SH2143010760647770112.html,2026-04-23 00:30:11,31.05408,121.75266
huinan,整租·华钜御庭(一期) 2室2厅 南/北,整租,华钜御庭(一期),浦东-惠南-华钜御庭(一期),88.00,2室2厅,南/北,,3400,38.6,,,https://sh.lianjia.com/zufang/SH2142875648190840832.html,2026-04-23 00:30:11,31.055993,121.772918
huinan,整租·建南新村 4室2厅 东南/北,整租,建南新村,浦东-惠南-建南新村,124.00,4室2厅,东南/北,,3200,25.8,,,https://sh.lianjia.com/zufang/SH2143649761679376384.html,2026-04-23 00:30:11,31.04898,121.753
huinan,整租·惠丰园小区 2室1厅 南,整租,惠丰园小区,浦东-惠南-惠丰园小区,92.00,2室1厅,南,,3200,34.8,,,https://sh.lianjia.com/zufang/SH2143204291567943680.html,2026-04-23 00:30:11,31.05309,121.75932
huinan,整租·博佳花园 3室2厅 南,整租,博佳花园,浦东-惠南-博佳花园,143.00,3室2厅,南,,4000,28.0,,,https://sh.lianjia.com/zufang/SH2143310855410810880.html,2026-04-23 00:30:11,31.0436,121.73998
huinan,整租·东城花苑一村 2室1厅 南,整租,东城花苑一村,浦东-惠南-东城花苑一村,92.00,2室1厅,南,,2800,30.4,,,https://sh.lianjia.com/zufang/SH2143376406728409088.html,2026-04-23 00:30:11,31.05239,121.7615
huinan,整租·人民新村 1室1厅 南,整租,人民新村,浦东-惠南-人民新村,56.00,1室1厅,南,,1700,30.4,,,https://sh.lianjia.com/zufang/SH2143699915820236800.html,2026-04-23 00:30:11,31.05048,121.75254
huinan,整租·人民新村 2室1厅 南,整租,人民新村,浦东-惠南-人民新村,40.85,2室1厅,南,,2100,51.4,,,https://sh.lianjia.com/zufang/SH2143665643533107200.html,2026-04-23 00:30:11,31.05048,121.75254
huinan,整租·远洋万和四季 3室2厅 南,整租,远洋万和四季,浦东-惠南-远洋万和四季,90.00,3室2厅,南,,3400,37.8,,,https://sh.lianjia.com/zufang/SH2143759190336733184.html,2026-04-23 00:30:11,31.067505,121.779756
huinan,整租·听潮五村 2室1厅 南,整租,听潮五村,浦东-惠南-听潮五村,52.00,2室1厅,南,,2000,38.5,,,https://sh.lianjia.com/zufang/SH2143885303801184256.html,2026-04-23 00:30:11,31.04794,121.74309
huinan,整租·远洋万和四季 3室1厅 南,整租,远洋万和四季,浦东-惠南-远洋万和四季,100.20,3室1厅,南,,2400,24.0,,,https://sh.lianjia.com/zufang/SH2120148554205888512.html,2026-04-23 00:30:35,31.067505,121.779756
huinan,整租·甬申金地城 3室2厅 南,整租,甬申金地城,浦东-惠南-甬申金地城,109.59,3室2厅,南,,3500,31.9,,,https://sh.lianjia.com/zufang/SH2141060764436267008.html,2026-04-23 00:30:35,31.04337,121.76691
huinan,整租·人生港湾南欧城 1室1厅 南,整租,人生港湾南欧城,浦东-惠南-人生港湾南欧城,59.00,1室1厅,南,,2300,39.0,,,https://sh.lianjia.com/zufang/SH2148692299826069504.html,2026-04-23 00:30:35,31.04232,121.76569
huinan,整租·海曲雅苑 3室1厅 南/北,整租,海曲雅苑,浦东-惠南-海曲雅苑,89.62,3室1厅,南/北,,2600,29.0,,,https://sh.lianjia.com/zufang/SH2142466546297995264.html,2026-04-23 00:30:35,31.059852,121.76687
huinan,整租·民乐城秀园(东苑) 1室1厅 南,整租,民乐城秀园(东苑),浦东-惠南-民乐城秀园(东苑),51.92,1室1厅,南,,2500,48.2,,,https://sh.lianjia.com/zufang/SH2157724381441163264.html,2026-04-23 00:30:35,31.06944,121.7422
huinan,整租·荡湾新村 2室1厅 南/北,整租,荡湾新村,浦东-惠南-荡湾新村,54.01,2室1厅,南/北,,2000,37.0,,,https://sh.lianjia.com/zufang/SH2143940869760221184.html,2026-04-23 00:31:01,31.04579,121.76122
huinan,整租·爱盛家园 2室2厅 东南,整租,爱盛家园,浦东-惠南-爱盛家园,105.77,2室2厅,东南,,3500,33.1,,,https://sh.lianjia.com/zufang/SH2139573346503753728.html,2026-04-23 00:31:01,31.05686,121.76058
huinan,整租·远洋万和四季 3室1厅 南/北,整租,远洋万和四季,浦东-惠南-远洋万和四季,100.00,3室1厅,南/北,,3500,35.0,,,https://sh.lianjia.com/zufang/SH2149473100113117184.html,2026-04-23 00:31:04,31.067505,121.779756
huinan,整租·民乐城汇雅苑南苑 3室1厅 南,整租,民乐城汇雅苑南苑,浦东-惠南-民乐城汇雅苑南苑,85.00,3室1厅,南,,2000,23.5,,,https://sh.lianjia.com/zufang/SH2149492969533603840.html,2026-04-23 00:31:01,31.07285,121.74656
huinan,整租·荡湾新村 2室1厅 南,整租,荡湾新村,浦东-惠南-荡湾新村,50.89,2室1厅,南,,1900,37.3,,,https://sh.lianjia.com/zufang/SH2151589177555156992.html,2026-04-23 00:31:01,31.04579,121.76122
huinan,整租·德盈佳园 2室1厅 南,整租,德盈佳园,浦东-惠南-德盈佳园,91.16,2室1厅,南,,2150,23.6,,,https://sh.lianjia.com/zufang/SH2091191513840091136.html,2026-04-23 00:31:04,31.0592,121.79468
huinan,整租·民乐城康苑 3室2厅 南,整租,民乐城康苑,浦东-惠南-民乐城康苑,117.00,3室2厅,南,,3500,29.9,,,https://sh.lianjia.com/zufang/SH2153719668882276352.html,2026-04-23 00:31:04,31.0598,121.74856
huinan,整租·丽水雅苑 1室1厅 南,整租,丽水雅苑,浦东-惠南-丽水雅苑,58.00,1室1厅,南,,2000,34.5,,,https://sh.lianjia.com/zufang/SH2073279029993013248.html,2026-04-23 00:31:04,31.071816,121.751384
huinan,整租·桃花源一村 2室2厅 南/北,整租,桃花源一村,浦东-惠南-桃花源一村,89.00,2室2厅,南/北,,3300,37.1,,,https://sh.lianjia.com/zufang/SH2138121685323218944.html,2026-04-23 00:31:04,31.05408,121.75266
huinan,整租·君御公馆 3室2厅 南,整租,君御公馆,浦东-惠南-君御公馆,99.44,3室2厅,南,,1800,18.1,,,https://sh.lianjia.com/zufang/SH2153060996267114496.html,2026-04-23 00:31:04,31.04082,121.7098
huinan,整租·碧桂园天悦 3室2厅 南,整租,碧桂园天悦,浦东-惠南-碧桂园天悦,136.58,3室2厅,南,,5500,40.3,,,https://sh.lianjia.com/zufang/SH2145101681698799616.html,2026-04-23 00:30:35,31.044169,121.755333
huinan,整租·远洋万和四季 3室2厅 南,整租,远洋万和四季,浦东-惠南-远洋万和四季,120.00,3室2厅,南,,4200,35.0,,,https://sh.lianjia.com/zufang/SH2057379153535041536.html,2026-04-23 00:30:35,31.067505,121.779756
huinan,整租·卫星东路50弄 2室1厅 南,整租,卫星东路50弄,浦东-惠南-卫星东路,58.18,2室1厅,南,,1520,26.1,,,https://sh.lianjia.com/zufang/SH2121200777362931712.html,2026-04-23 00:30:46,31.045259,121.755074
huinan,整租·远洋万和四季 3室1厅 南,整租,远洋万和四季,浦东-惠南-远洋万和四季,99.70,3室1厅,南,,3300,33.1,,,https://sh.lianjia.com/zufang/SH2118233409552646144.html,2026-04-23 00:31:04,31.067505,121.779756
huinan,整租·文益街7号 1室0厅 西,整租,文益街7号,浦东-惠南-文益街,40.00,1室0厅,西,,1700,42.5,,,https://sh.lianjia.com/zufang/SH2151283556352000000.html,2026-04-23 00:30:46,31.056366,121.760952
huinan,整租·布鲁斯小镇(一期)(别墅) 3室2厅 南,整租,布鲁斯小镇(一期)(别墅),浦东-惠南-布鲁斯小镇(一期)(别墅),120.00,3室2厅,南,,4900,40.8,,,https://sh.lianjia.com/zufang/SH2147566305270562816.html,2026-04-23 00:30:46,31.03682,121.7592
huinan,整租·彩虹雅苑 2室2厅 南,整租,彩虹雅苑,浦东-惠南-彩虹雅苑,107.05,2室2厅,南,,3200,29.9,,,https://sh.lianjia.com/zufang/SH2107448948913340416.html,2026-04-23 00:31:04,31.05828,121.7325
huinan,整租·东方听潮豪园 2室2厅 南,整租,东方听潮豪园,浦东-惠南-东方听潮豪园,84.56,2室2厅,南,,3500,41.4,,,https://sh.lianjia.com/zufang/SH2143916565626617856.html,2026-04-23 00:31:04,31.03873,121.73
huinan,整租·龙源星城 1室1厅 南/北,整租,龙源星城,浦东-惠南-龙源星城,40.00,1室1厅,南/北,,1500,37.5,,,https://sh.lianjia.com/zufang/SH2147927334768869376.html,2026-04-23 00:31:04,31.04873,121.7805
huinan,整租·远洋万和四季 3室2厅 南,整租,远洋万和四季,浦东-惠南-远洋万和四季,100.00,3室2厅,南,,3000,30.0,,,https://sh.lianjia.com/zufang/SH2060213987370336256.html,2026-04-23 00:31:04,31.067505,121.779756
huinan,整租·远洋万和四季 3室2厅 南,整租,远洋万和四季,浦东-惠南-远洋万和四季,119.58,3室2厅,南,,3500,29.3,,,https://sh.lianjia.com/zufang/SH2140814755311386624.html,2026-04-23 00:31:04,31.067505,121.779756
huinan,整租·宝业万华城 3室1厅 南,整租,宝业万华城,浦东-惠南-宝业万华城,96.54,3室1厅,南,,4200,43.5,,,https://sh.lianjia.com/zufang/SH2142570442219585536.html,2026-04-23 00:31:04,31.02866,121.73372
huinan,整租·远洋万和四季 3室2厅 南,整租,远洋万和四季,浦东-惠南-远洋万和四季,91.00,3室2厅,南,,2300,25.3,,,https://sh.lianjia.com/zufang/SH2150922234976272384.html,2026-04-23 00:30:46,31.067505,121.779756
huinan,整租·听潮五村 2室1厅 南,整租,听潮五村,浦东-惠南-听潮五村,90.00,2室1厅,南,,2500,27.8,,,https://sh.lianjia.com/zufang/SH2124111443203719168.html,2026-04-23 00:30:46,31.04794,121.74309
huinan,整租·惠康苑 2室1厅 南,整租,惠康苑,浦东-惠南-惠康苑,70.00,2室1厅,南,,2500,35.7,,,https://sh.lianjia.com/zufang/SH2143668434762727424.html,2026-04-23 00:30:55,31.07206,121.73572
huinan,整租·远洋万和四季 3室2厅 南,整租,远洋万和四季,浦东-惠南-远洋万和四季,100.00,3室2厅,南,,3500,35.0,,,https://sh.lianjia.com/zufang/SH2153095021174194176.html,2026-04-23 00:30:55,31.067505,121.779756
huinan,整租·博佳花园 3室2厅 错层 南,整租,博佳花园,浦东-惠南-博佳花园,146.92,3室2厅,,,3500,23.8,,,https://sh.lianjia.com/zufang/SH2142544772412211200.html,2026-04-23 00:30:55,31.0436,121.73998
huinan,整租·长城珑湾 3室2厅 南,整租,长城珑湾,浦东-惠南-长城珑湾,187.00,3室2厅,南,,5600,29.9,,,https://sh.lianjia.com/zufang/SH2043570992105652224.html,2026-04-23 00:30:55,31.05689,121.77732
huinan,整租·龙源星城 2室2厅 南/北,整租,龙源星城,浦东-惠南-龙源星城,104.81,2室2厅,南/北,,3000,28.6,,,https://sh.lianjia.com/zufang/SH2151201563962507264.html,2026-04-23 00:30:51,31.04873,121.7805
huinan,整租·锦绣汇丽苑 2室2厅 南,整租,锦绣汇丽苑,浦东-惠南-锦绣汇丽苑,66.00,2室2厅,南,,1700,25.8,,,https://sh.lianjia.com/zufang/SH2151241517845446656.html,2026-04-23 00:30:51,31.03738,121.7613
huinan,整租·民乐城康苑 1室1厅 南,整租,民乐城康苑,浦东-惠南-民乐城康苑,58.00,1室1厅,南,,2000,34.5,,,https://sh.lianjia.com/zufang/SH2151899113631776768.html,2026-04-23 00:30:51,31.0598,121.74856
huinan,整租·吉园坊 1室1厅 南,整租,吉园坊,浦东-惠南-吉园坊,56.94,1室1厅,南,,1700,29.9,,,https://sh.lianjia.com/zufang/SH2152597651957219328.html,2026-04-23 00:30:51,31.026,121.73331
huinan,整租·北门新村 2室1厅 南,整租,北门新村,浦东-惠南-北门新村,60.00,2室1厅,南,,1900,31.7,,,https://sh.lianjia.com/zufang/SH2152618780843311104.html,2026-04-23 00:30:51,31.05003,121.75188
huinan,整租·工业新村 3室2厅 南,整租,工业新村,浦东-惠南-工业新村,110.00,3室2厅,南,,3600,32.7,,,https://sh.lianjia.com/zufang/SH2152616385220444160.html,2026-04-23 00:30:51,31.0492,121.75705
huinan,整租·惠康苑西苑 2室1厅 南/北,整租,惠康苑西苑,浦东-惠南-惠康苑西苑,78.84,2室1厅,南/北,,2600,33.0,,,https://sh.lianjia.com/zufang/SH2152421927279394816.html,2026-04-23 00:30:51,31.07041,121.73268
huinan,整租·甬申金地城 2室2厅 南/北,整租,甬申金地城,浦东-惠南-甬申金地城,98.00,2室2厅,南/北,,3500,35.7,,,https://sh.lianjia.com/zufang/SH2153059536406052864.html,2026-04-23 00:30:51,31.04337,121.76691
huinan,整租·宝业万华城 2室2厅 南,整租,宝业万华城,浦东-惠南-宝业万华城,87.00,2室2厅,南,,2600,29.9,,,https://sh.lianjia.com/zufang/SH2153052238707163136.html,2026-04-23 00:30:51,31.02866,121.73372
huinan,整租·嘉园坊 2室1厅 南,整租,嘉园坊,浦东-惠南-嘉园坊,102.00,2室1厅,南,,1700,16.7,,,https://sh.lianjia.com/zufang/SH2153361766799638528.html,2026-04-23 00:30:51,31.02886,121.74204
huinan,整租·海曲雅苑 2室1厅 南,整租,海曲雅苑,浦东-惠南-海曲雅苑,85.00,2室1厅,南,,3650,42.9,,,https://sh.lianjia.com/zufang/SH2153169997168377856.html,2026-04-23 00:30:51,31.059852,121.76687
huinan,整租·海曲雅苑 1室1厅 南,整租,海曲雅苑,浦东-惠南-海曲雅苑,68.00,1室1厅,南,,2200,32.4,,,https://sh.lianjia.com/zufang/SH2153358828719046656.html,2026-04-23 00:30:51,31.059852,121.76687
huinan,整租·君御公馆 2室2厅 南,整租,君御公馆,浦东-惠南-君御公馆,87.00,2室2厅,南,,4500,51.7,,,https://sh.lianjia.com/zufang/SH2153467614309908480.html,2026-04-23 00:30:51,31.04082,121.7098
huinan,整租·卫星东路20号 2室1厅 南,整租,卫星东路20号,浦东-惠南-卫星东路,58.24,2室1厅,南,,2400,41.2,,,https://sh.lianjia.com/zufang/SH2153710757143904256.html,2026-04-23 00:30:51,31.045259,121.755074
huinan,整租·禹洲商业广场 1室1厅 南,整租,禹洲商业广场,浦东-惠南-禹洲商业广场,56.00,1室1厅,南,,1800,32.1,,,https://sh.lianjia.com/zufang/SH2153693488573579264.html,2026-04-23 00:30:51,31.04173,121.73529
huinan,整租·民乐城建欣苑东苑 1室1厅 南,整租,民乐城建欣苑东苑,浦东-惠南-民乐城建欣苑东苑,56.00,1室1厅,南,,2000,35.7,,,https://sh.lianjia.com/zufang/SH2153712312354078720.html,2026-04-23 00:30:51,31.059123,121.74034
huinan,整租·三八新村 2室1厅 南,整租,三八新村,浦东-惠南-三八新村,61.00,2室1厅,南,,2500,41.0,,,https://sh.lianjia.com/zufang/SH2153734856746467328.html,2026-04-23 00:30:51,31.04913,121.7548
huinan,整租·民乐城秋和苑东苑 2室1厅 南/北,整租,民乐城秋和苑东苑,浦东-惠南-民乐城秋和苑东苑,78.30,2室1厅,南/北,,2850,36.4,,,https://sh.lianjia.com/zufang/SH2153790388169605120.html,2026-04-23 00:30:51,31.07206,121.73572
huinan,整租·兴东佳苑(一期) 3室2厅 南,整租,兴东佳苑(一期),浦东-惠南-兴东佳苑(一期),125.00,3室2厅,南,,4200,33.6,,,https://sh.lianjia.com/zufang/SH2153867369888350208.html,2026-04-23 00:30:51,31.05723,121.75514
huinan,整租·民乐城朗苑 1室1厅 南,整租,民乐城朗苑,浦东-惠南-民乐城朗苑,58.00,1室1厅,南,,2300,39.7,,,https://sh.lianjia.com/zufang/SH2154151276852543488.html,2026-04-23 00:30:51,31.05923,121.74149
huinan,整租·福汇二村 2室1厅 南/北,整租,福汇二村,浦东-惠南-福汇二村,72.85,2室1厅,南/北,,2300,31.6,,,https://sh.lianjia.com/zufang/SH2154169564215115776.html,2026-04-23 00:30:51,31.04192,121.75423
huinan,整租·兴东佳苑(一期) 2室1厅 南,整租,兴东佳苑(一期),浦东-惠南-兴东佳苑(一期),93.00,2室1厅,南,,2100,22.6,,,https://sh.lianjia.com/zufang/SH2154140433893031936.html,2026-04-23 00:30:51,31.05723,121.75514
huinan,整租·新凤凰城 2室2厅 南,整租,新凤凰城,浦东-惠南-新凤凰城,107.00,2室2厅,南,,3700,34.6,,,https://sh.lianjia.com/zufang/SH2154228187951792128.html,2026-04-23 00:30:51,31.05576,121.76702
huinan,整租·福汇二村 2室1厅 南,整租,福汇二村,浦东-惠南-福汇二村,90.00,2室1厅,南,,2400,26.7,,,https://sh.lianjia.com/zufang/SH2154492553460711424.html,2026-04-23 00:30:51,31.04192,121.75423
huinan,整租·香桂园 2室2厅 南,整租,香桂园,浦东-惠南-香桂园,92.00,2室2厅,南,,3200,34.8,,,https://sh.lianjia.com/zufang/SH2154185595654504448.html,2026-04-23 00:30:51,31.04037,121.76193
huinan,整租·宣桥枫庭 1室1厅 南,整租,宣桥枫庭,浦东-惠南-宣桥枫庭,54.00,1室1厅,南,,1600,29.6,,,https://sh.lianjia.com/zufang/SH2105266174265655296.html,2026-04-23 00:30:55,31.02773,121.70997
huinan,整租·远洋万和四季 2室1厅 南/北,整租,远洋万和四季,浦东-惠南-远洋万和四季,80.87,2室1厅,南/北,,2600,32.2,,,https://sh.lianjia.com/zufang/SH2138888472755175424.html,2026-04-23 00:30:55,31.067505,121.779756
huinan,整租·东方城市豪庭 1室1厅 南,整租,东方城市豪庭,浦东-惠南-东方城市豪庭,74.00,1室1厅,南,,2800,37.8,,,https://sh.lianjia.com/zufang/SH2151969559572119552.html,2026-04-23 00:30:55,31.05052,121.76198
huinan,整租·民乐城馨园 1室1厅 南,整租,民乐城馨园,浦东-惠南-民乐城馨园,52.00,1室1厅,南,,2100,40.4,,,https://sh.lianjia.com/zufang/SH2143928451403350016.html,2026-04-23 00:30:55,31.05945,121.74401
huinan,整租·人生港湾南欧城 1室1厅 南,整租,人生港湾南欧城,浦东-惠南-人生港湾南欧城,60.00,1室1厅,南,,2200,36.7,,,https://sh.lianjia.com/zufang/SH2153029488621912064.html,2026-04-23 00:30:55,31.04232,121.76569
huinan,整租·海曲雅苑 1室1厅 南,整租,海曲雅苑,浦东-惠南-海曲雅苑,58.00,1室1厅,南,,2500,43.1,,,https://sh.lianjia.com/zufang/SH2156710536102805504.html,2026-04-23 00:30:55,31.059852,121.76687
huinan,整租·民乐城建欣苑北苑 2室1厅 南,整租,民乐城建欣苑北苑,浦东-惠南-民乐城建欣苑北苑,64.00,2室1厅,南,,2400,37.5,,,https://sh.lianjia.com/zufang/SH2155958544157900800.html,2026-04-23 00:30:55,31.059123,121.74034
huinan,整租·彩虹雅苑 1室1厅 南,整租,彩虹雅苑,浦东-惠南-彩虹雅苑,64.00,1室1厅,南,,1800,28.1,,,https://sh.lianjia.com/zufang/SH2118932098843672576.html,2026-04-23 00:30:55,31.05828,121.7325
huinan,整租·香桂园 3室2厅 南,整租,香桂园,浦东-惠南-香桂园,133.00,3室2厅,南,,2500,18.8,,,https://sh.lianjia.com/zufang/SH2130915656508375040.html,2026-04-23 00:30:55,31.04037,121.76193
huinan,整租·民乐城朗苑 2室2厅 南/北,整租,民乐城朗苑,浦东-惠南-民乐城朗苑,104.00,2室2厅,南/北,,2000,19.2,,,https://sh.lianjia.com/zufang/SH2149729000459599872.html,2026-04-23 00:30:55,31.05923,121.74149
huinan,整租·布鲁斯小镇(一期)(别墅) 3室2厅 南/北,整租,布鲁斯小镇(一期)(别墅),浦东-惠南-布鲁斯小镇(一期)(别墅),136.10,3室2厅,南/北,,6000,44.1,,,https://sh.lianjia.com/zufang/SH2154466548960460800.html,2026-04-23 00:30:55,31.03682,121.7592
huinan,整租·远洋万和四季 3室2厅 南,整租,远洋万和四季,浦东-惠南-远洋万和四季,100.20,3室2厅,南,,3800,37.9,,,https://sh.lianjia.com/zufang/SH2135197015468933120.html,2026-04-23 00:30:55,31.067505,121.779756
huinan,整租·文化新村(惠南) 2室2厅 南,整租,文化新村(惠南),浦东-惠南-文化新村(惠南),70.38,2室2厅,南,,2300,32.7,,,https://sh.lianjia.com/zufang/SH2157730905345490944.html,2026-04-23 00:30:55,31.05403,121.74776
huinan,整租·丽水雅苑北苑 2室1厅 南,整租,丽水雅苑北苑,浦东-惠南-丽水雅苑北苑,70.15,2室1厅,南,,2700,38.5,,,https://sh.lianjia.com/zufang/SH2157719647900663808.html,2026-04-23 00:30:55,31.0726,121.75086
huinan,整租·民乐城文竹苑南苑 2室1厅 南,整租,民乐城文竹苑南苑,浦东-惠南-民乐城文竹苑南苑,78.00,2室1厅,南,,2500,32.1,,,https://sh.lianjia.com/zufang/SH2158119314283036672.html,2026-04-23 00:30:55,31.0696,121.7438
huinan,整租·浦东颐景园 4室2厅 南/北,整租,浦东颐景园,浦东-惠南-浦东颐景园,1.00,4室2厅,南/北,,5000,5000.0,,,https://sh.lianjia.com/zufang/SH2150618338319925248.html,2026-04-23 00:30:55,31.05027,121.75852
huinan,整租·龙源星城 2室1厅 南/北,整租,龙源星城,浦东-惠南-龙源星城,107.27,2室1厅,南/北,,2600,24.2,,,https://sh.lianjia.com/zufang/SH2157072229819482112.html,2026-04-23 00:30:55,31.04873,121.7805
huinan,整租·民乐城颐康名苑 2室1厅 南,整租,民乐城颐康名苑,浦东-惠南-民乐城颐康名苑,75.77,2室1厅,南,,2400,31.7,,,https://sh.lianjia.com/zufang/SH2088941870494253056.html,2026-04-23 00:30:55,31.066757,121.744055
huinan,整租·丽水雅苑北苑 2室1厅 南,整租,丽水雅苑北苑,浦东-惠南-丽水雅苑北苑,69.00,2室1厅,南,,1850,26.8,,,https://sh.lianjia.com/zufang/SH2121213846591897600.html,2026-04-23 00:30:55,31.0726,121.75086
huinan,整租·三八路110弄 3室2厅 南,整租,三八路110弄,浦东-惠南-三八路,156.89,3室2厅,南,,3000,19.1,,,https://sh.lianjia.com/zufang/SH2132430541889208320.html,2026-04-23 00:30:55,31.04984,121.75518
huinan,整租·绿缘新村 3室1厅 南,整租,绿缘新村,浦东-惠南-绿缘新村,95.00,3室1厅,南,,2600,27.4,,,https://sh.lianjia.com/zufang/SH2097636154592460800.html,2026-04-23 00:30:55,31.0395,121.75732
huinan,整租·浦东颐景园 4室2厅 南/北,整租,浦东颐景园,浦东-惠南-浦东颐景园,132.72,4室2厅,南/北,,6300,47.5,,,https://sh.lianjia.com/zufang/SH2116814599096369152.html,2026-04-23 00:30:55,31.05027,121.75852
huinan,整租·人生港湾南欧城 3室2厅 南/北,整租,人生港湾南欧城,浦东-惠南-人生港湾南欧城,88.62,3室2厅,南/北,,3200,36.1,,,https://sh.lianjia.com/zufang/SH2152382690597273600.html,2026-04-23 00:31:01,31.04232,121.76569
huinan,整租·海曲雅苑 1室1厅 南,整租,海曲雅苑,浦东-惠南-海曲雅苑,68.00,1室1厅,南,,2500,36.8,,,https://sh.lianjia.com/zufang/SH2138315246010368000.html,2026-04-23 00:31:01,31.059852,121.76687
huinan,整租·远洋万和四季 3室1厅 南,整租,远洋万和四季,浦东-惠南-远洋万和四季,89.33,3室1厅,南,,3200,35.8,,,https://sh.lianjia.com/zufang/SH2146524379926757376.html,2026-04-23 00:31:01,31.067505,121.779756
huinan,整租·宣桥枫庭 2室1厅 南,整租,宣桥枫庭,浦东-惠南-宣桥枫庭,68.00,2室1厅,南,,2000,29.4,,,https://sh.lianjia.com/zufang/SH2146266288081600512.html,2026-04-23 00:31:01,31.02773,121.70997
huinan,整租·西南新村 2室1厅 南,整租,西南新村,浦东-惠南-西南新村,46.66,2室1厅,南,,1500,32.1,,,https://sh.lianjia.com/zufang/SH2107658231525408768.html,2026-04-23 00:31:01,31.04763,121.74728
huinan,整租·枫丹白露别墅 13室2厅 复式 南/北,整租,枫丹白露别墅,浦东-惠南-枫丹白露别墅,580.21,13室2厅,,,38000,65.5,,,https://sh.lianjia.com/zufang/SH2088466410115170304.html,2026-04-23 00:31:01,31.0455,121.71228
huinan,整租·浦东颐景园 4室2厅 南,整租,浦东颐景园,浦东-惠南-浦东颐景园,133.14,4室2厅,南,,4800,36.1,,,https://sh.lianjia.com/zufang/SH2131602247400816640.html,2026-04-23 00:31:01,31.05027,121.75852
huinan,整租·甬申金地城 3室2厅 南,整租,甬申金地城,浦东-惠南-甬申金地城,108.00,3室2厅,南,,4100,38.0,,,https://sh.lianjia.com/zufang/SH2148387252227538944.html,2026-04-23 00:31:01,31.04337,121.76691
huinan,整租·民乐城兰丽苑(西苑) 1室1厅 南/北,整租,民乐城兰丽苑(西苑),浦东-惠南-民乐城兰丽苑(西苑),49.80,1室1厅,南/北,,1890,38.0,,,https://sh.lianjia.com/zufang/SH2148001453401178112.html,2026-04-23 00:31:04,31.07313,121.7401
huinan,整租·惠康苑 2室1厅 南,整租,惠康苑,浦东-惠南-惠康苑,78.29,2室1厅,南,,2300,29.4,,,https://sh.lianjia.com/zufang/SH2151599938453110784.html,2026-04-23 00:31:04,31.07206,121.73572
huinan,整租·远洋万和四季 3室2厅 南/北,整租,远洋万和四季,浦东-惠南-远洋万和四季,89.71,3室2厅,南/北,,3200,35.7,,,https://sh.lianjia.com/zufang/SH2082770616942854144.html,2026-04-23 00:31:04,31.067505,121.779756
huinan,整租·民乐城建欣苑东苑 1室1厅 南,整租,民乐城建欣苑东苑,浦东-惠南-民乐城建欣苑东苑,53.81,1室1厅,南,,2200,40.9,,,https://sh.lianjia.com/zufang/SH2150976722948849664.html,2026-04-23 00:31:04,31.059123,121.74034
huinan,整租·供销三村 1室1厅 南,整租,供销三村,浦东-惠南-供销三村,44.00,1室1厅,南,,1600,36.4,,,https://sh.lianjia.com/zufang/SH2143552412869197824.html,2026-04-23 00:31:04,31.001,121.81254
huinan,整租·东方听潮豪园 2室1厅 南,整租,东方听潮豪园,浦东-惠南-东方听潮豪园,89.00,2室1厅,南,,3000,33.7,,,https://sh.lianjia.com/zufang/SH2150558185889464320.html,2026-04-23 00:31:04,31.03873,121.73
huinan,整租·西潭新村 2室1厅 南,整租,西潭新村,浦东-惠南-西潭新村,95.19,2室1厅,南,,1850,19.4,,,https://sh.lianjia.com/zufang/SH2112048095217844224.html,2026-04-23 00:31:04,31.05002,121.74945
huinan,整租·民乐城颐康名苑东苑 2室1厅 南,整租,民乐城颐康名苑东苑,浦东-惠南-民乐城颐康名苑东苑,78.00,2室1厅,南,,2250,28.8,,,https://sh.lianjia.com/zufang/SH2158198972693348352.html,2026-04-23 00:31:04,31.066757,121.744055
huinan,整租·听潮四村 2室1厅 南,整租,听潮四村,浦东-惠南-听潮四村,56.23,2室1厅,南,,2100,37.3,,,https://sh.lianjia.com/zufang/SH1875104052920975360.html,2026-04-23 00:31:09,31.04959,121.73946
huinan,整租·德盈佳园 2室1厅 南,整租,德盈佳园,浦东-惠南-德盈佳园,82.77,2室1厅,南,,2310,27.9,,,https://sh.lianjia.com/zufang/SH1877344524896829440.html,2026-04-23 00:31:09,31.0592,121.79468
huinan,整租·文益街7号 1室1厅 南,整租,文益街7号,浦东-惠南-文益街,39.02,1室1厅,南,,1800,46.1,,,https://sh.lianjia.com/zufang/SH1883457890170175488.html,2026-04-23 00:31:04,31.056366,121.760952
huinan,整租·民乐城秀园(东苑) 1室1厅 南,整租,民乐城秀园(东苑),浦东-惠南-民乐城秀园(东苑),52.00,1室1厅,南,,2100,40.4,,,https://sh.lianjia.com/zufang/SH1959857983600984064.html,2026-04-23 00:31:13,31.06944,121.7422
huinan,整租·育新新村 2室1厅 南,整租,育新新村,浦东-惠南-育新新村,52.81,2室1厅,南,,1500,28.4,,,https://sh.lianjia.com/zufang/SH1961057352702492672.html,2026-04-23 00:31:13,31.001,121.81254
huinan,整租·丽水雅苑北苑 3室1厅 南,整租,丽水雅苑北苑,浦东-惠南-丽水雅苑北苑,81.00,3室1厅,南,,2600,32.1,,,https://sh.lianjia.com/zufang/SH1734828449723318272.html,2026-04-23 00:31:09,31.0726,121.75086
huinan,整租·三八新村 2室1厅 南,整租,三八新村,浦东-惠南-三八新村,64.29,2室1厅,南,,2200,34.2,,,https://sh.lianjia.com/zufang/SH1746535429248647168.html,2026-04-23 00:31:09,31.04913,121.7548
huinan,整租·宣桥枫庭 3室1厅 南/北,整租,宣桥枫庭,浦东-惠南-宣桥枫庭,103.00,3室1厅,南/北,,2600,25.2,,,https://sh.lianjia.com/zufang/SH1745788479637291008.html,2026-04-23 00:31:09,31.02773,121.70997
huinan,整租·都汇公馆 1室0厅 西,整租,都汇公馆,浦东-惠南-都汇公馆,40.00,1室0厅,西,,1727,43.2,,,https://sh.lianjia.com/zufang/SH1767912524247728128.html,2026-04-23 00:31:09,31.04247,121.75349
huinan,整租·民乐城秀园(东苑) 1室1厅 南,整租,民乐城秀园(东苑),浦东-惠南-民乐城秀园(东苑),55.00,1室1厅,南,,2100,38.2,,,https://sh.lianjia.com/zufang/SH2009603011738861568.html,2026-04-23 00:31:09,31.06944,121.7422
huinan,整租·宝业万华城 3室2厅 南/北,整租,宝业万华城,浦东-惠南-宝业万华城,97.00,3室2厅,南/北,,2500,25.8,,,https://sh.lianjia.com/zufang/SH2013235309214433280.html,2026-04-23 00:31:09,31.02866,121.73372
huinan,整租·远洋万和四季 3室2厅 南/北,整租,远洋万和四季,浦东-惠南-远洋万和四季,100.24,3室2厅,南/北,,3500,34.9,,,https://sh.lianjia.com/zufang/SH2015712663283171328.html,2026-04-23 00:31:09,31.067505,121.779756
huinan,整租·东方城市豪庭 1室1厅 南,整租,东方城市豪庭,浦东-惠南-东方城市豪庭,73.64,1室1厅,南,,2909,39.5,,,https://sh.lianjia.com/zufang/SH2016455561289138176.html,2026-04-23 00:31:09,31.05052,121.76198
huinan,整租·锦绣汇丽苑 3室2厅 南,整租,锦绣汇丽苑,浦东-惠南-锦绣汇丽苑,118.00,3室2厅,南,,2700,22.9,,,https://sh.lianjia.com/zufang/SH1992141059429236736.html,2026-04-23 00:31:13,31.03738,121.7613
huinan,整租·禹洲商业广场 1室1厅 南,整租,禹洲商业广场,浦东-惠南-禹洲商业广场,56.31,1室1厅,南,,1600,28.4,,,https://sh.lianjia.com/zufang/SH1992931854365229056.html,2026-04-23 00:31:13,31.04173,121.73529
huinan,整租·都汇公馆 1室0厅 东,整租,都汇公馆,浦东-惠南-都汇公馆,40.14,1室0厅,东,,2200,54.8,,,https://sh.lianjia.com/zufang/SH1999055618421293056.html,2026-04-23 00:31:13,31.04247,121.75349
huinan,整租·禹洲商业广场 1室1厅 东南,整租,禹洲商业广场,浦东-惠南-禹洲商业广场,48.00,1室1厅,东南,,1500,31.2,,,https://sh.lianjia.com/zufang/SH1994605385461268480.html,2026-04-23 00:31:13,31.04173,121.73529
huinan,整租·听潮二村 2室2厅 南,整租,听潮二村,浦东-惠南-听潮二村,55.00,2室2厅,南,,2205,40.1,,,https://sh.lianjia.com/zufang/SH2000130839794417664.html,2026-04-23 00:31:13,31.052161,121.739093
huinan,整租·民乐城建欣苑东苑 3室1厅 南,整租,民乐城建欣苑东苑,浦东-惠南-民乐城建欣苑东苑,98.89,3室1厅,南,,2700,27.3,,,https://sh.lianjia.com/zufang/SH2002060080928784384.html,2026-04-23 00:31:13,31.059123,121.74034
huinan,整租·锦绣汇丽苑 3室2厅 南,整租,锦绣汇丽苑,浦东-惠南-锦绣汇丽苑,118.00,3室2厅,南,,2900,24.6,,,https://sh.lianjia.com/zufang/SH2003809261653590016.html,2026-04-23 00:31:13,31.03738,121.7613
huinan,整租·莎海惠晨苑 2室2厅 南,整租,莎海惠晨苑,浦东-惠南-莎海惠晨苑,97.88,2室2厅,南,,2400,24.5,,,https://sh.lianjia.com/zufang/SH2004525532892364800.html,2026-04-23 00:31:13,31.04306,121.76098
huinan,整租·浦东颐景园 3室2厅 南,整租,浦东颐景园,浦东-惠南-浦东颐景园,120.19,3室2厅,南,,4400,36.6,,,https://sh.lianjia.com/zufang/SH2005872845866926080.html,2026-04-23 00:31:13,31.05027,121.75852
huinan,整租·长城珑湾 1室1厅 南,整租,长城珑湾,浦东-惠南-长城珑湾,60.15,1室1厅,南,,2000,33.3,,,https://sh.lianjia.com/zufang/SH1984241686762487808.html,2026-04-23 00:31:13,31.05689,121.77732
huinan,整租·文益街7号 1室0厅 南,整租,文益街7号,浦东-惠南-文益街,39.02,1室0厅,南,,1890,48.4,,,https://sh.lianjia.com/zufang/SH1988905065259204608.html,2026-04-23 00:31:13,31.056366,121.760952
huinan,整租·荡湾新村 2室1厅 南,整租,荡湾新村,浦东-惠南-荡湾新村,64.43,2室1厅,南,,2100,32.6,,,https://sh.lianjia.com/zufang/SH2013893135620374528.html,2026-04-23 00:31:09,31.04579,121.76122
huinan,整租·德盈佳园 4室1厅 南/北,整租,德盈佳园,浦东-惠南-德盈佳园,141.01,4室1厅,南/北,,2940,20.8,,,https://sh.lianjia.com/zufang/SH1839973908992753664.html,2026-04-23 00:31:13,31.0592,121.79468
huinan,整租·禹洲商业广场 1室1厅 南,整租,禹洲商业广场,浦东-惠南-禹洲商业广场,56.48,1室1厅,南,,2100,37.2,,,https://sh.lianjia.com/zufang/SH1840330320130342912.html,2026-04-23 00:31:13,31.04173,121.73529
huinan,整租·人生港湾南欧城 1室1厅 南,整租,人生港湾南欧城,浦东-惠南-人生港湾南欧城,59.00,1室1厅,南,,2100,35.6,,,https://sh.lianjia.com/zufang/SH1857293783637426176.html,2026-04-23 00:31:09,31.04232,121.76569
huinan,整租·龙源星城 1室1厅 南/北,整租,龙源星城,浦东-惠南-龙源星城,30.00,1室1厅,南/北,,1400,46.7,,,https://sh.lianjia.com/zufang/SH1872566378863525888.html,2026-04-23 00:31:09,31.04873,121.7805
huinan,整租·禹洲商业广场 1室1厅 南,整租,禹洲商业广场,浦东-惠南-禹洲商业广场,56.31,1室1厅,南,,1890,33.6,,,https://sh.lianjia.com/zufang/SH2019012305928323072.html,2026-04-23 00:31:13,31.04173,121.73529
huinan,整租·民乐城颐康名苑东苑 2室1厅 南,整租,民乐城颐康名苑东苑,浦东-惠南-民乐城颐康名苑东苑,75.00,2室1厅,南,,2400,32.0,,,https://sh.lianjia.com/zufang/SH2020779496331804672.html,2026-04-23 00:31:13,31.066757,121.744055
huinan,整租·东方听潮豪园 2室2厅 南/北,整租,东方听潮豪园,浦东-惠南-东方听潮豪园,88.79,2室2厅,南/北,,2800,31.5,,,https://sh.lianjia.com/zufang/SH2024446444903071744.html,2026-04-23 00:31:39,31.03873,121.73
huinan,整租·博佳花园 2室1厅 南,整租,博佳花园,浦东-惠南-博佳花园,95.00,2室1厅,南,,2600,27.4,,,https://sh.lianjia.com/zufang/SH2027220252831514624.html,2026-04-23 00:31:13,31.0436,121.73998
huinan,整租·卫星东路50弄 1室1厅 南,整租,卫星东路50弄,浦东-惠南-卫星东路,30.05,1室1厅,南,,1300,43.3,,,https://sh.lianjia.com/zufang/SH2027654267879292928.html,2026-04-23 00:31:39,31.045259,121.755074
huinan,整租·东城花苑一村 2室1厅 南,整租,东城花苑一村,浦东-惠南-东城花苑一村,101.00,2室1厅,南,,2900,28.7,,,https://sh.lianjia.com/zufang/SH2030172619977785344.html,2026-04-23 00:31:48,31.05239,121.7615
huinan,整租·东城时代华庭 2室1厅 南,整租,东城时代华庭,浦东-惠南-东城时代华庭,64.74,2室1厅,南,,2640,40.8,,,https://sh.lianjia.com/zufang/SH2035326433529692160.html,2026-04-23 00:31:48,31.05366,121.76954
huinan,整租·育新新村 2室1厅 南,整租,育新新村,浦东-惠南-育新新村,48.45,2室1厅,南,,2300,47.5,,,https://sh.lianjia.com/zufang/SH2037907774066655232.html,2026-04-23 00:31:48,31.001,121.81254
huinan,整租·甬申金地城 3室2厅 南,整租,甬申金地城,浦东-惠南-甬申金地城,107.02,3室2厅,南,,3300,30.8,,,https://sh.lianjia.com/zufang/SH2046969976933318656.html,2026-04-23 00:31:48,31.04337,121.76691
huinan,整租·听潮四村 2室1厅 南,整租,听潮四村,浦东-惠南-听潮四村,70.00,2室1厅,南,,2200,31.4,,,https://sh.lianjia.com/zufang/SH1948647364092755968.html,2026-04-23 00:31:13,31.04959,121.73946
huinan,整租·荡湾新村 1室1厅 南,整租,荡湾新村,浦东-惠南-荡湾新村,39.50,1室1厅,南,,2200,55.7,,,https://sh.lianjia.com/zufang/SH1950043027644874752.html,2026-04-23 00:31:13,31.04579,121.76122
huinan,整租·华钜御庭(二期) 2室2厅 南/北,整租,华钜御庭(二期),浦东-惠南-华钜御庭(二期),90.82,2室2厅,南/北,,3600,39.6,,,https://sh.lianjia.com/zufang/SH2144693469166174208.html,2026-04-23 00:31:39,31.05783,121.77011
huinan,整租·荡湾新村 2室1厅 南,整租,荡湾新村,浦东-惠南-荡湾新村,59.78,2室1厅,南,,1800,30.1,,,https://sh.lianjia.com/zufang/SH2147949202687131648.html,2026-04-23 00:31:39,31.04579,121.76122
huinan,整租·民乐城丽园 1室1厅 南,整租,民乐城丽园,浦东-惠南-民乐城丽园,55.07,1室1厅,南,,2100,38.1,,,https://sh.lianjia.com/zufang/SH2156628487476084736.html,2026-04-23 00:31:55,31.06437,121.73262
huinan,整租·禹洲商业广场 1室1厅 南,整租,禹洲商业广场,浦东-惠南-禹洲商业广场,56.48,1室1厅,南,,1800,31.9,,,https://sh.lianjia.com/zufang/SH2157129213990141952.html,2026-04-23 00:31:48,31.04173,121.73529
huinan,整租·锦绣汇丽苑 2室2厅 南,整租,锦绣汇丽苑,浦东-惠南-锦绣汇丽苑,84.77,2室2厅,南,,2000,23.6,,,https://sh.lianjia.com/zufang/SH2157417041680662528.html,2026-04-23 00:31:48,31.03738,121.7613
huinan,整租·申达新村 2室1厅 南,整租,申达新村,浦东-惠南-申达新村,66.00,2室1厅,南,,2400,36.4,,,https://sh.lianjia.com/zufang/SH2150498898907496448.html,2026-04-23 00:31:39,31.001,121.81254
huinan,整租·民乐城丽园 2室1厅 南/北,整租,民乐城丽园,浦东-惠南-民乐城丽园,89.00,2室1厅,南/北,,2600,29.2,,,https://sh.lianjia.com/zufang/SH2156052299846254592.html,2026-04-23 00:31:39,31.06437,121.73262
huinan,整租·康达公寓 2室1厅 南/北,整租,康达公寓,浦东-惠南-康达公寓,38.84,2室1厅,南/北,,2000,51.5,,,https://sh.lianjia.com/zufang/SH2156371286706618368.html,2026-04-23 00:31:39,31.05286,121.75809
huinan,整租·文化新村(惠南) 2室2厅 南,整租,文化新村(惠南),浦东-惠南-文化新村(惠南),93.77,2室2厅,南,,2300,24.5,,,https://sh.lianjia.com/zufang/SH2157492501756248064.html,2026-04-23 00:31:55,31.05403,121.74776
huinan,整租·丽水雅苑 2室1厅 南,整租,丽水雅苑,浦东-惠南-丽水雅苑,68.20,2室1厅,南,,2200,32.3,,,https://sh.lianjia.com/zufang/SH2021200763459469312.html,2026-04-23 00:31:39,31.071816,121.751384
huinan,整租·江南清漪园 2室1厅 南,整租,江南清漪园,浦东-惠南-江南清漪园,93.82,2室1厅,南,,2520,26.9,,,https://sh.lianjia.com/zufang/SH2029930368634716160.html,2026-04-23 00:31:48,31.04362,121.74621
huinan,整租·禹洲商业广场 1室1厅 南,整租,禹洲商业广场,浦东-惠南-禹洲商业广场,56.00,1室1厅,南,,1600,28.6,,,https://sh.lianjia.com/zufang/SH2030569686453714944.html,2026-04-23 00:31:48,31.04173,121.73529
huinan,整租·申达新村 3室1厅 南/北,整租,申达新村,浦东-惠南-申达新村,84.52,3室1厅,南/北,,2500,29.6,,,https://sh.lianjia.com/zufang/SH2031571969261961216.html,2026-04-23 00:31:48,31.001,121.81254
huinan,整租·浦东微谷 1室1厅 南,整租,浦东微谷,浦东-惠南-浦东微谷,49.00,1室1厅,南,,2415,49.3,,,https://sh.lianjia.com/zufang/SH2038290534333677568.html,2026-04-23 00:31:48,31.05027,121.75852
huinan,整租·远洋万和四季 3室2厅 南,整租,远洋万和四季,浦东-惠南-远洋万和四季,90.00,3室2厅,南,,2600,28.9,,,https://sh.lianjia.com/zufang/SH2072991769187844096.html,2026-04-23 00:31:39,31.067505,121.779756
huinan,整租·惠益新苑南苑 2室1厅 南/北,整租,惠益新苑南苑,浦东-惠南-惠益新苑南苑,78.00,2室1厅,南/北,,2300,29.5,,,https://sh.lianjia.com/zufang/SH2087165529952354304.html,2026-04-23 00:31:55,31.0603,121.73547
huinan,整租·荡湾新村 2室1厅 南,整租,荡湾新村,浦东-惠南-荡湾新村,57.90,2室1厅,南,,2088,36.1,,,https://sh.lianjia.com/zufang/SH2101555674918944768.html,2026-04-23 00:31:55,31.04579,121.76122
huinan,整租·宝业万华城 3室1厅 南,整租,宝业万华城,浦东-惠南-宝业万华城,97.00,3室1厅,南,,2400,24.7,,,https://sh.lianjia.com/zufang/SH2041897474137784320.html,2026-04-23 00:31:48,31.02866,121.73372
huinan,整租·惠康苑 2室2厅 南,整租,惠康苑,浦东-惠南-惠康苑,81.58,2室2厅,南,,2650,32.5,,,https://sh.lianjia.com/zufang/SH2151604505920143360.html,2026-04-23 00:31:48,31.07206,121.73572
huinan,整租·荡湾新村 2室1厅 南,整租,荡湾新村,浦东-惠南-荡湾新村,55.00,2室1厅,南,,1810,32.9,,,https://sh.lianjia.com/zufang/SH2152359004754411520.html,2026-04-23 00:31:48,31.04579,121.76122
huinan,整租·宣桥枫庭 3室2厅 南,整租,宣桥枫庭,浦东-惠南-宣桥枫庭,85.00,3室2厅,南,,2450,28.8,,,https://sh.lianjia.com/zufang/SH2153067598206468096.html,2026-04-23 00:31:48,31.02773,121.70997
huinan,整租·听潮五村 2室1厅 南,整租,听潮五村,浦东-惠南-听潮五村,59.14,2室1厅,南,,1900,32.1,,,https://sh.lianjia.com/zufang/SH2153485396829274112.html,2026-04-23 00:31:48,31.04794,121.74309
huinan,整租·华实佳苑 3室1厅 南/北,整租,华实佳苑,浦东-惠南-华实佳苑,102.70,3室1厅,南/北,,2700,26.3,,,https://sh.lianjia.com/zufang/SH2153719307610095616.html,2026-04-23 00:31:48,31.03851,121.71094
huinan,整租·远洋万和四季 1室1厅 南,整租,远洋万和四季,浦东-惠南-远洋万和四季,69.00,1室1厅,南,,2000,29.0,,,https://sh.lianjia.com/zufang/SH2153743242607198208.html,2026-04-23 00:31:48,31.067505,121.779756
huinan,整租·惠南一方新城 2室2厅 南,整租,惠南一方新城,浦东-惠南-惠南一方新城,92.78,2室2厅,南,,3000,32.3,,,https://sh.lianjia.com/zufang/SH2153723497820454912.html,2026-04-23 00:31:48,31.03798,121.73367
huinan,整租·惠康苑东苑 2室1厅 南,整租,惠康苑东苑,浦东-惠南-惠康苑东苑,77.25,2室1厅,南,,2300,29.8,,,https://sh.lianjia.com/zufang/SH2154132753526816768.html,2026-04-23 00:31:48,31.0712,121.7361
huinan,整租·民乐城泓瀚苑 3室1厅 南/北,整租,民乐城泓瀚苑,浦东-惠南-民乐城泓瀚苑,96.00,3室1厅,南/北,,2730,28.4,,,https://sh.lianjia.com/zufang/SH2045109255668760576.html,2026-04-23 00:31:48,31.07206,121.73572
huinan,整租·德盈佳园 2室2厅 南,整租,德盈佳园,浦东-惠南-德盈佳园,82.44,2室2厅,南,,2205,26.7,,,https://sh.lianjia.com/zufang/SH2046980025177079808.html,2026-04-23 00:31:48,31.0592,121.79468
huinan,整租·民乐城建欣苑东苑 1室1厅 南,整租,民乐城建欣苑东苑,浦东-惠南-民乐城建欣苑东苑,53.80,1室1厅,南,,2415,44.9,,,https://sh.lianjia.com/zufang/SH2048070041668157440.html,2026-04-23 00:31:48,31.059123,121.74034
huinan,整租·惠南一方新城 2室2厅 南,整租,惠南一方新城,浦东-惠南-惠南一方新城,92.06,2室2厅,南,,2800,30.4,,,https://sh.lianjia.com/zufang/SH2143926442495311872.html,2026-04-23 00:31:55,31.03798,121.73367
