[
  {
    "title": "整租·大上海国际花园酒店公寓 1室1厅 南",
    "community": "大上海国际花园酒店公寓",
    "area": "65.01",
    "rooms": "1室1厅",
    "direction": "南",
    "floor": "",
    "price": "5000",
    "tags": "",
    "source": "",
    "url": "https://sh.lianjia.com/zufang/SH2149510818180366336.html",
    "rent_type": "整租",
    "location": "闵行-静安新城-大上海国际花园酒店公寓",
    "scraped_at": "2026-04-23 14:42:03",
    "region": "jinganxincheng",
    "unit_price": 76.9,
    "lat": 31.16251,
    "lng": 121.37432
  },
  {
    "title": "整租·大上海国际花园 4室2厅 南",
    "community": "大上海国际花园",
    "area": "177.29",
    "rooms": "4室2厅",
    "direction": "南",
    "floor": "",
    "price": "15000",
    "tags": "",
    "source": "",
    "url": "https://sh.lianjia.com/zufang/SH2156663996868984832.html",
    "rent_type": "整租",
    "location": "闵行-静安新城-大上海国际花园",
    "scraped_at": "2026-04-23 14:42:03",
    "region": "jinganxincheng",
    "unit_price": 84.6,
    "lat": 31.16251,
    "lng": 121.37432
  },
  {
    "title": "整租·九歌花园 1室1厅 东",
    "community": "九歌花园",
    "area": "48.46",
    "rooms": "1室1厅",
    "direction": "东",
    "floor": "",
    "price": "5000",
    "tags": "",
    "source": "",
    "url": "https://sh.lianjia.com/zufang/SH2149492588950847488.html",
    "rent_type": "整租",
    "location": "闵行-静安新城-九歌花园",
    "scraped_at": "2026-04-23 14:42:03",
    "region": "jinganxincheng",
    "unit_price": 103.2,
    "lat": 31.16251,
    "lng": 121.37432
  },
  {
    "title": "独栋·瑞贝庭公寓 上海漕河泾瑞贝庭公寓酒店 一房行政套房 1室1厅",
    "community": "瑞贝庭公寓 上海漕河泾瑞贝庭公寓酒店",
    "area": "52.00",
    "rooms": "1室1厅",
    "direction": "",
    "floor": "",
    "price": "13600",
    "tags": "",
    "source": "",
    "url": "https://sh.lianjia.com/apartment/75578.html",
    "rent_type": "独栋",
    "location": "",
    "scraped_at": "2026-04-23 14:42:03",
    "region": "jinganxincheng",
    "unit_price": 261.5,
    "lat": 39.965189,
    "lng": 116.319707
  },
  {
    "title": "整租·九歌上郡 1室1厅 南",
    "community": "九歌上郡",
    "area": "65.57",
    "rooms": "1室1厅",
    "direction": "南",
    "floor": "",
    "price": "6300",
    "tags": "",
    "source": "",
    "url": "https://sh.lianjia.com/zufang/SH2463067173653331968.html",
    "rent_type": "整租",
    "location": "闵行-静安新城-九歌上郡",
    "scraped_at": "2026-04-23 14:42:03",
    "region": "jinganxincheng",
    "unit_price": 96.1,
    "lat": 31.16251,
    "lng": 121.37432
  },
  {
    "title": "整租·静安新城五区 2室1厅 南",
    "community": "静安新城五区",
    "area": "66.45",
    "rooms": "2室1厅",
    "direction": "南",
    "floor": "",
    "price": "5200",
    "tags": "",
    "source": "",
    "url": "https://sh.lianjia.com/zufang/SH2153716045527908352.html",
    "rent_type": "整租",
    "location": "闵行-静安新城-静安新城五区",
    "scraped_at": "2026-04-23 14:42:03",
    "region": "jinganxincheng",
    "unit_price": 78.3,
    "lat": 31.16536,
    "lng": 121.37921
  },
  {
    "title": "整租·大上海国际花园 1室1厅 南",
    "community": "大上海国际花园",
    "area": "70.43",
    "rooms": "1室1厅",
    "direction": "南",
    "floor": "",
    "price": "6200",
    "tags": "",
    "source": "",
    "url": "https://sh.lianjia.com/zufang/SH2147897878138322944.html",
    "rent_type": "整租",
    "location": "闵行-静安新城-大上海国际花园",
    "scraped_at": "2026-04-23 14:42:03",
    "region": "jinganxincheng",
    "unit_price": 88.0,
    "lat": 31.16251,
    "lng": 121.37432
  },
  {
    "title": "整租·九歌花园 2室2厅 南",
    "community": "九歌花园",
    "area": "82.00",
    "rooms": "2室2厅",
    "direction": "南",
    "floor": "",
    "price": "6800",
    "tags": "",
    "source": "",
    "url": "https://sh.lianjia.com/zufang/SH1905502748556656640.html",
    "rent_type": "整租",
    "location": "闵行-静安新城-九歌花园",
    "scraped_at": "2026-04-23 14:42:03",
    "region": "jinganxincheng",
    "unit_price": 82.9,
    "lat": 31.16251,
    "lng": 121.37432
  },
  {
    "title": "独栋·悠享家公寓 虹梅路地铁站店 12号线沿线，拎包入住，押一付一 开间",
    "community": "悠享家公寓 虹梅路地铁站店",
    "area": "25.00",
    "rooms": "",
    "direction": "",
    "floor": "",
    "price": "3680",
    "tags": "",
    "source": "",
    "url": "https://sh.lianjia.com/apartment/107255.html",
    "rent_type": "独栋",
    "location": "",
    "scraped_at": "2026-04-23 14:42:03",
    "region": "jinganxincheng",
    "unit_price": 147.2,
    "lat": 40.218618,
    "lng": 116.22774
  },
  {
    "title": "整租·静安新城五区 1室1厅 南",
    "community": "静安新城五区",
    "area": "51.00",
    "rooms": "1室1厅",
    "direction": "南",
    "floor": "",
    "price": "5100",
    "tags": "",
    "source": "",
    "url": "https://sh.lianjia.com/zufang/SH1908432418142945280.html",
    "rent_type": "整租",
    "location": "闵行-静安新城-静安新城五区",
    "scraped_at": "2026-04-23 14:42:03",
    "region": "jinganxincheng",
    "unit_price": 100.0,
    "lat": 31.16536,
    "lng": 121.37921
  },
  {
    "title": "整租·静安新城五区 2室1厅 南",
    "community": "静安新城五区",
    "area": "66.00",
    "rooms": "2室1厅",
    "direction": "南",
    "floor": "",
    "price": "5200",
    "tags": "",
    "source": "",
    "url": "https://sh.lianjia.com/zufang/SH2147301555332710400.html",
    "rent_type": "整租",
    "location": "闵行-静安新城-静安新城五区",
    "scraped_at": "2026-04-23 14:42:03",
    "region": "jinganxincheng",
    "unit_price": 78.8,
    "lat": 31.16536,
    "lng": 121.37921
  },
  {
    "title": "整租·静安新城十二区 2室2厅 南",
    "community": "静安新城十二区",
    "area": "75.42",
    "rooms": "2室2厅",
    "direction": "南",
    "floor": "",
    "price": "5900",
    "tags": "",
    "source": "",
    "url": "https://sh.lianjia.com/zufang/SH1985300103748911104.html",
    "rent_type": "整租",
    "location": "闵行-静安新城-静安新城十二区",
    "scraped_at": "2026-04-23 14:42:03",
    "region": "jinganxincheng",
    "unit_price": 78.2,
    "lat": 31.16059,
    "lng": 121.37401
  },
  {
    "title": "整租·静安新城十区 2室1厅 南",
    "community": "静安新城十区",
    "area": "71.00",
    "rooms": "2室1厅",
    "direction": "南",
    "floor": "",
    "price": "5300",
    "tags": "",
    "source": "",
    "url": "https://sh.lianjia.com/zufang/SH2142629571302785024.html",
    "rent_type": "整租",
    "location": "闵行-静安新城-静安新城十区",
    "scraped_at": "2026-04-23 14:42:03",
    "region": "jinganxincheng",
    "unit_price": 74.6,
    "lat": 31.1631,
    "lng": 121.37433
  },
  {
    "title": "整租·大上海国际花园酒店公寓 1室1厅 南",
    "community": "大上海国际花园酒店公寓",
    "area": "65.01",
    "rooms": "1室1厅",
    "direction": "南",
    "floor": "",
    "price": "5200",
    "tags": "",
    "source": "",
    "url": "https://sh.lianjia.com/zufang/SH2120143874675441664.html",
    "rent_type": "整租",
    "location": "闵行-静安新城-大上海国际花园酒店公寓",
    "scraped_at": "2026-04-23 14:42:03",
    "region": "jinganxincheng",
    "unit_price": 80.0,
    "lat": 31.16251,
    "lng": 121.37432
  },
  {
    "title": "整租·大上海国际花园酒店公寓 1室0厅 东",
    "community": "大上海国际花园酒店公寓",
    "area": "22.83",
    "rooms": "1室0厅",
    "direction": "东",
    "floor": "",
    "price": "2600",
    "tags": "",
    "source": "",
    "url": "https://sh.lianjia.com/zufang/SH2114704816298000384.html",
    "rent_type": "整租",
    "location": "闵行-静安新城-大上海国际花园酒店公寓",
    "scraped_at": "2026-04-23 14:42:03",
    "region": "jinganxincheng",
    "unit_price": 113.9,
    "lat": 31.16251,
    "lng": 121.37432
  },
  {
    "title": "整租·九歌上郡 3室2厅 南",
    "community": "九歌上郡",
    "area": "133.71",
    "rooms": "3室2厅",
    "direction": "南",
    "floor": "",
    "price": "12500",
    "tags": "",
    "source": "",
    "url": "https://sh.lianjia.com/zufang/SH2084529327055044608.html",
    "rent_type": "整租",
    "location": "闵行-静安新城-九歌上郡",
    "scraped_at": "2026-04-23 14:42:03",
    "region": "jinganxincheng",
    "unit_price": 93.5,
    "lat": 31.16251,
    "lng": 121.37432
  },
  {
    "title": "整租·静安新城三区 1室1厅 南",
    "community": "静安新城三区",
    "area": "50.00",
    "rooms": "1室1厅",
    "direction": "南",
    "floor": "",
    "price": "5610",
    "tags": "",
    "source": "",
    "url": "https://sh.lianjia.com/zufang/SH1761320486408552448.html",
    "rent_type": "整租",
    "location": "闵行-静安新城-静安新城三区",
    "scraped_at": "2026-04-23 14:42:03",
    "region": "jinganxincheng",
    "unit_price": 112.2,
    "lat": 31.16284,
    "lng": 121.37981
  },
  {
    "title": "整租·九歌上郡 1室1厅 南",
    "community": "九歌上郡",
    "area": "57.62",
    "rooms": "1室1厅",
    "direction": "南",
    "floor": "",
    "price": "5880",
    "tags": "",
    "source": "",
    "url": "https://sh.lianjia.com/zufang/SH2003424979823099904.html",
    "rent_type": "整租",
    "location": "闵行-静安新城-九歌上郡",
    "scraped_at": "2026-04-23 14:42:03",
    "region": "jinganxincheng",
    "unit_price": 102.0,
    "lat": 31.16251,
    "lng": 121.37432
  },
  {
    "title": "整租·静安新城八区 1室1厅 南",
    "community": "静安新城八区",
    "area": "70.00",
    "rooms": "1室1厅",
    "direction": "南",
    "floor": "",
    "price": "6000",
    "tags": "",
    "source": "",
    "url": "https://sh.lianjia.com/zufang/SH2154226082318909440.html",
    "rent_type": "整租",
    "location": "闵行-静安新城-静安新城八区",
    "scraped_at": "2026-04-23 14:42:03",
    "region": "jinganxincheng",
    "unit_price": 85.7,
    "lat": 31.16415,
    "lng": 121.37569
  },
  {
    "title": "整租·九歌上郡 2室1厅 南",
    "community": "九歌上郡",
    "area": "105.42",
    "rooms": "2室1厅",
    "direction": "南",
    "floor": "",
    "price": "9200",
    "tags": "",
    "source": "",
    "url": "https://sh.lianjia.com/zufang/SH2145377079665885184.html",
    "rent_type": "整租",
    "location": "闵行-静安新城-九歌上郡",
    "scraped_at": "2026-04-23 14:42:03",
    "region": "jinganxincheng",
    "unit_price": 87.3,
    "lat": 31.16251,
    "lng": 121.37432
  },
  {
    "title": "整租·大上海国际花园酒店公寓 1室1厅 南",
    "community": "大上海国际花园酒店公寓",
    "area": "47.32",
    "rooms": "1室1厅",
    "direction": "南",
    "floor": "",
    "price": "4900",
    "tags": "",
    "source": "",
    "url": "https://sh.lianjia.com/zufang/SH2150612290892726272.html",
    "rent_type": "整租",
    "location": "闵行-静安新城-大上海国际花园酒店公寓",
    "scraped_at": "2026-04-23 14:42:03",
    "region": "jinganxincheng",
    "unit_price": 103.6,
    "lat": 31.16251,
    "lng": 121.37432
  },
  {
    "title": "整租·静安新城十一区 2室1厅 南",
    "community": "静安新城十一区",
    "area": "66.00",
    "rooms": "2室1厅",
    "direction": "南",
    "floor": "",
    "price": "5800",
    "tags": "",
    "source": "",
    "url": "https://sh.lianjia.com/zufang/SH2144697182345756672.html",
    "rent_type": "整租",
    "location": "闵行-静安新城-静安新城十一区",
    "scraped_at": "2026-04-23 14:42:03",
    "region": "jinganxincheng",
    "unit_price": 87.9,
    "lat": 31.16237,
    "lng": 121.37334
  }
]