[
  {
    "title": "整租·三里屯SOHO 3室2厅 东南",
    "community": "三里屯SOHO",
    "area": "276.60",
    "rooms": "3室2厅",
    "direction": "东南",
    "floor": "",
    "price": "35000",
    "tags": "",
    "source": "",
    "url": "https://bj.lianjia.com/zufang/BJ2141486591594463232.html",
    "rent_type": "整租",
    "location": "朝阳区-三里屯-三里屯",
    "scraped_at": "2026-05-02 21:04:49",
    "region": "三里屯",
    "unit_price": 126.5,
    "lat": 39.931505,
    "lng": 116.44673
  },
  {
    "title": "整租·首开铂郡8号院 2房间 东",
    "community": "首开铂郡8号院 2房间 东",
    "area": "116.98",
    "rooms": "",
    "direction": "",
    "floor": "",
    "price": "10000",
    "tags": "",
    "source": "",
    "url": "https://bj.lianjia.com/zufang/BJ2149529388448743424.html",
    "rent_type": "整租",
    "location": "朝阳区-三里屯-首开铂郡",
    "scraped_at": "2026-05-02 21:04:49",
    "region": "三里屯",
    "unit_price": 85.5,
    "lat": 39.932656,
    "lng": 116.443398
  },
  {
    "title": "整租·首开铂郡8号院 3室2厅 南/北",
    "community": "首开铂郡8号院",
    "area": "201.45",
    "rooms": "3室2厅",
    "direction": "南/北",
    "floor": "",
    "price": "25000",
    "tags": "",
    "source": "",
    "url": "https://bj.lianjia.com/zufang/BJ2129435729430839296.html",
    "rent_type": "整租",
    "location": "朝阳区-三里屯-首开铂郡",
    "scraped_at": "2026-05-02 21:04:49",
    "region": "三里屯",
    "unit_price": 124.1,
    "lat": 39.938016,
    "lng": 116.444651
  },
  {
    "title": "整租·三里屯SOHO 2室1厅 东北",
    "community": "三里屯SOHO",
    "area": "149.06",
    "rooms": "2室1厅",
    "direction": "东北",
    "floor": "",
    "price": "20000",
    "tags": "",
    "source": "",
    "url": "https://bj.lianjia.com/zufang/BJ2156286140674473984.html",
    "rent_type": "整租",
    "location": "朝阳区-三里屯-三里屯",
    "scraped_at": "2026-05-02 21:04:49",
    "region": "三里屯",
    "unit_price": 134.2,
    "lat": 39.931505,
    "lng": 116.44673
  },
  {
    "title": "整租·三里屯东 2室1厅 东/西",
    "community": "三里屯东",
    "area": "60.19",
    "rooms": "2室1厅",
    "direction": "东/西",
    "floor": "",
    "price": "6500",
    "tags": "",
    "source": "",
    "url": "https://bj.lianjia.com/zufang/BJ1945148109256392704.html",
    "rent_type": "整租",
    "location": "朝阳区-三里屯-三里屯东",
    "scraped_at": "2026-05-02 21:04:49",
    "region": "三里屯",
    "unit_price": 108.0,
    "lat": 39.933309,
    "lng": 116.449835
  },
  {
    "title": "独栋·盈嘉 三里屯博纳大厦 五一钜惠 新店智能家居 已上线入住补贴水电 工体 东大桥 东四十条 高楼层大外窗一居室 1室1厅",
    "community": "盈嘉 三里屯博纳大厦 五一钜惠 新店智能家居 已上线入住补贴水电 工体 东大桥 东四十条 高楼层大外窗一居室",
    "area": "35.00",
    "rooms": "1室1厅",
    "direction": "",
    "floor": "",
    "price": "4800-6500",
    "tags": "",
    "source": "",
    "url": "https://bj.lianjia.com/apartment/107889.html",
    "rent_type": "独栋",
    "location": "",
    "scraped_at": "2026-05-02 21:04:49",
    "region": "三里屯",
    "unit_price": "",
    "lat": 39.907105,
    "lng": 116.172557
  },
  {
    "title": "整租·三里屯SOHO 2室1厅 东",
    "community": "三里屯SOHO",
    "area": "162.00",
    "rooms": "2室1厅",
    "direction": "东",
    "floor": "",
    "price": "19000",
    "tags": "",
    "source": "",
    "url": "https://bj.lianjia.com/zufang/BJ2116387820514836480.html",
    "rent_type": "整租",
    "location": "朝阳区-三里屯-三里屯",
    "scraped_at": "2026-05-02 21:04:49",
    "region": "三里屯",
    "unit_price": 117.3,
    "lat": 39.931505,
    "lng": 116.44673
  },
  {
    "title": "整租·白家庄北里 2室1厅 东",
    "community": "白家庄北里",
    "area": "63.00",
    "rooms": "2室1厅",
    "direction": "东",
    "floor": "",
    "price": "7200",
    "tags": "",
    "source": "",
    "url": "https://bj.lianjia.com/zufang/BJ2159634129488969728.html",
    "rent_type": "整租",
    "location": "朝阳区-三里屯-白家庄北里",
    "scraped_at": "2026-05-02 21:04:49",
    "region": "三里屯",
    "unit_price": 114.3,
    "lat": 39.927505,
    "lng": 116.451624
  },
  {
    "title": "整租·三里屯东 2室1厅 南/北",
    "community": "三里屯东",
    "area": "59.29",
    "rooms": "2室1厅",
    "direction": "南/北",
    "floor": "",
    "price": "6500",
    "tags": "",
    "source": "",
    "url": "https://bj.lianjia.com/zufang/BJ2141154935486545920.html",
    "rent_type": "整租",
    "location": "朝阳区-三里屯-三里屯东",
    "scraped_at": "2026-05-02 21:04:49",
    "region": "三里屯",
    "unit_price": 109.6,
    "lat": 39.933309,
    "lng": 116.449835
  },
  {
    "title": "整租·华源之星 2室1厅 东北",
    "community": "华源之星",
    "area": "105.32",
    "rooms": "2室1厅",
    "direction": "东北",
    "floor": "",
    "price": "12000",
    "tags": "",
    "source": "",
    "url": "https://bj.lianjia.com/zufang/BJ2156435045705842688.html",
    "rent_type": "整租",
    "location": "朝阳区-三里屯-华源之星",
    "scraped_at": "2026-05-02 21:04:49",
    "region": "三里屯",
    "unit_price": 113.9,
    "lat": 39.934446,
    "lng": 116.437968
  },
  {
    "title": "整租·幸福三村 2室1厅 南/北",
    "community": "幸福三村",
    "area": "53.25",
    "rooms": "2室1厅",
    "direction": "南/北",
    "floor": "",
    "price": "6800",
    "tags": "",
    "source": "",
    "url": "https://bj.lianjia.com/zufang/BJ2152778683071332352.html",
    "rent_type": "整租",
    "location": "朝阳区-三里屯-幸福三村",
    "scraped_at": "2026-05-02 21:04:49",
    "region": "三里屯",
    "unit_price": 127.7,
    "lat": 39.936694,
    "lng": 116.444703
  },
  {
    "title": "整租·三里屯北 2室1厅 东/西",
    "community": "三里屯北",
    "area": "59.96",
    "rooms": "2室1厅",
    "direction": "东/西",
    "floor": "",
    "price": "5500",
    "tags": "",
    "source": "",
    "url": "https://bj.lianjia.com/zufang/BJ1680471637712961536.html",
    "rent_type": "整租",
    "location": "朝阳区-三里屯-三里屯北",
    "scraped_at": "2026-05-02 21:04:49",
    "region": "三里屯",
    "unit_price": 91.7,
    "lat": 39.936096,
    "lng": 116.447808
  },
  {
    "title": "整租·瑞安君汇 3室2厅 东/西",
    "community": "瑞安君汇",
    "area": "192.71",
    "rooms": "3室2厅",
    "direction": "东/西",
    "floor": "",
    "price": "26000",
    "tags": "",
    "source": "",
    "url": "https://bj.lianjia.com/zufang/BJ2141133572054974464.html",
    "rent_type": "整租",
    "location": "朝阳区-三里屯-瑞安君汇",
    "scraped_at": "2026-05-02 21:04:49",
    "region": "三里屯",
    "unit_price": 134.9,
    "lat": 39.938016,
    "lng": 116.444651
  },
  {
    "title": "整租·华源之星 1室0厅 南",
    "community": "华源之星",
    "area": "53.49",
    "rooms": "1室0厅",
    "direction": "南",
    "floor": "",
    "price": "6500",
    "tags": "",
    "source": "",
    "url": "https://bj.lianjia.com/zufang/BJ2157848126835130368.html",
    "rent_type": "整租",
    "location": "朝阳区-三里屯-华源之星",
    "scraped_at": "2026-05-02 21:04:49",
    "region": "三里屯",
    "unit_price": 121.5,
    "lat": 39.934446,
    "lng": 116.437968
  },
  {
    "title": "整租·幸福三村 1室0厅 南",
    "community": "幸福三村",
    "area": "41.26",
    "rooms": "1室0厅",
    "direction": "南",
    "floor": "",
    "price": "5600",
    "tags": "",
    "source": "",
    "url": "https://bj.lianjia.com/zufang/BJ1899393065018195968.html",
    "rent_type": "整租",
    "location": "朝阳区-三里屯-幸福三村",
    "scraped_at": "2026-05-02 21:04:49",
    "region": "三里屯",
    "unit_price": 135.7,
    "lat": 39.936694,
    "lng": 116.444703
  },
  {
    "title": "独栋·欣悦青年社区 三里屯店 物业直租/无中介/工体地铁口/三里屯 1室1厅",
    "community": "欣悦青年社区 三里屯店 物业直租/无中介/工体地铁口/三里屯",
    "area": "35.00",
    "rooms": "1室1厅",
    "direction": "",
    "floor": "",
    "price": "4600-6400",
    "tags": "",
    "source": "",
    "url": "https://bj.lianjia.com/apartment/107963.html",
    "rent_type": "独栋",
    "location": "",
    "scraped_at": "2026-05-02 21:04:49",
    "region": "三里屯",
    "unit_price": "",
    "lat": 39.875182,
    "lng": 116.317333
  },
  {
    "title": "整租·三里屯SOHO 1室1厅 西北",
    "community": "三里屯SOHO",
    "area": "121.73",
    "rooms": "1室1厅",
    "direction": "西北",
    "floor": "",
    "price": "14000",
    "tags": "",
    "source": "",
    "url": "https://bj.lianjia.com/zufang/BJ2107818463467667456.html",
    "rent_type": "整租",
    "location": "朝阳区-三里屯-三里屯",
    "scraped_at": "2026-05-02 21:04:49",
    "region": "三里屯",
    "unit_price": 115.0,
    "lat": 39.931505,
    "lng": 116.44673
  },
  {
    "title": "整租·华源之星 3室1厅 东南/北",
    "community": "华源之星",
    "area": "255.00",
    "rooms": "3室1厅",
    "direction": "东南/北",
    "floor": "",
    "price": "26000",
    "tags": "",
    "source": "",
    "url": "https://bj.lianjia.com/zufang/BJ1933722043363098624.html",
    "rent_type": "整租",
    "location": "朝阳区-三里屯-华源之星",
    "scraped_at": "2026-05-02 21:04:49",
    "region": "三里屯",
    "unit_price": 102.0,
    "lat": 39.934446,
    "lng": 116.437968
  },
  {
    "title": "整租·泰悦豪庭 2室1厅 南/西",
    "community": "泰悦豪庭",
    "area": "99.87",
    "rooms": "2室1厅",
    "direction": "南/西",
    "floor": "",
    "price": "11000",
    "tags": "",
    "source": "",
    "url": "https://bj.lianjia.com/zufang/BJ2138983606733766656.html",
    "rent_type": "整租",
    "location": "朝阳区-三里屯-泰悦豪庭",
    "scraped_at": "2026-05-02 21:04:49",
    "region": "三里屯",
    "unit_price": 110.1,
    "lat": 39.926635,
    "lng": 116.449828
  },
  {
    "title": "整租·三里屯南路 2室1厅 南",
    "community": "三里屯南路",
    "area": "65.00",
    "rooms": "2室1厅",
    "direction": "南",
    "floor": "",
    "price": "8200",
    "tags": "",
    "source": "",
    "url": "https://bj.lianjia.com/zufang/BJ2141548245023719424.html",
    "rent_type": "整租",
    "location": "朝阳区-三里屯-三里屯南路",
    "scraped_at": "2026-05-02 21:04:49",
    "region": "三里屯",
    "unit_price": 126.2,
    "lat": 39.925866,
    "lng": 116.449128
  },
  {
    "title": "整租·逸盛阁 3室1厅 南",
    "community": "逸盛阁",
    "area": "164.05",
    "rooms": "3室1厅",
    "direction": "南",
    "floor": "",
    "price": "22000",
    "tags": "",
    "source": "",
    "url": "https://bj.lianjia.com/zufang/BJ2148703579785920512.html",
    "rent_type": "整租",
    "location": "朝阳区-三里屯-逸盛阁",
    "scraped_at": "2026-05-02 21:04:49",
    "region": "三里屯",
    "unit_price": 134.1,
    "lat": 39.938016,
    "lng": 116.444651
  },
  {
    "title": "整租·中纺东里 1室1厅 南",
    "community": "中纺东里",
    "area": "46.78",
    "rooms": "1室1厅",
    "direction": "南",
    "floor": "",
    "price": "5300",
    "tags": "",
    "source": "",
    "url": "https://bj.lianjia.com/zufang/BJ2154893022104387584.html",
    "rent_type": "整租",
    "location": "朝阳区-三里屯-中纺东里",
    "scraped_at": "2026-05-02 21:04:49",
    "region": "三里屯",
    "unit_price": 113.3,
    "lat": 39.940632,
    "lng": 116.44519
  },
  {
    "title": "整租·三里屯南 2室1厅 南/北",
    "community": "三里屯南",
    "area": "57.00",
    "rooms": "2室1厅",
    "direction": "南/北",
    "floor": "",
    "price": "6700",
    "tags": "",
    "source": "",
    "url": "https://bj.lianjia.com/zufang/BJ2147301110199615488.html",
    "rent_type": "整租",
    "location": "朝阳区-三里屯-三里屯南",
    "scraped_at": "2026-05-02 21:04:49",
    "region": "三里屯",
    "unit_price": 117.5,
    "lat": 39.933896,
    "lng": 116.438828
  },
  {
    "title": "整租·首开铂郡8号院 3室2厅 南",
    "community": "首开铂郡8号院",
    "area": "155.80",
    "rooms": "3室2厅",
    "direction": "南",
    "floor": "",
    "price": "17000",
    "tags": "",
    "source": "",
    "url": "https://bj.lianjia.com/zufang/BJ2110987412002832384.html",
    "rent_type": "整租",
    "location": "朝阳区-三里屯-首开铂郡",
    "scraped_at": "2026-05-02 21:04:49",
    "region": "三里屯",
    "unit_price": 109.1,
    "lat": 39.938016,
    "lng": 116.444651
  },
  {
    "title": "整租·逸盛阁 2房间 北",
    "community": "逸盛阁 2房间 北",
    "area": "114.16",
    "rooms": "",
    "direction": "",
    "floor": "",
    "price": "11800",
    "tags": "",
    "source": "",
    "url": "https://bj.lianjia.com/zufang/BJ2150960174989312000.html",
    "rent_type": "整租",
    "location": "朝阳区-三里屯-逸盛阁",
    "scraped_at": "2026-05-02 21:04:49",
    "region": "三里屯",
    "unit_price": 103.4,
    "lat": 39.938016,
    "lng": 116.444651
  },
  {
    "title": "整租·三里屯东 2室1厅 东/西",
    "community": "三里屯东",
    "area": "60.19",
    "rooms": "2室1厅",
    "direction": "东/西",
    "floor": "",
    "price": "7300",
    "tags": "",
    "source": "",
    "url": "https://bj.lianjia.com/zufang/BJ2132017844957741056.html",
    "rent_type": "整租",
    "location": "朝阳区-三里屯-三里屯东",
    "scraped_at": "2026-05-02 21:04:49",
    "region": "三里屯",
    "unit_price": 121.3,
    "lat": 39.933309,
    "lng": 116.449835
  },
  {
    "title": "独栋·云逸青年社区（北京） 丽舍（工体店） 三里屯整租一居0中介精美好房 1室1厅",
    "community": "云逸青年社区（北京） 丽舍（工体店） 三里屯整租一居0中介精美好房",
    "area": "30.00",
    "rooms": "1室1厅",
    "direction": "",
    "floor": "",
    "price": "7500",
    "tags": "",
    "source": "",
    "url": "https://bj.lianjia.com/apartment/108008.html",
    "rent_type": "独栋",
    "location": "",
    "scraped_at": "2026-05-02 21:04:49",
    "region": "三里屯",
    "unit_price": 250.0,
    "lat": 39.875182,
    "lng": 116.317333
  },
  {
    "title": "整租·幸福三村 2室1厅 东/南/西",
    "community": "幸福三村",
    "area": "58.62",
    "rooms": "2室1厅",
    "direction": "东/南/西",
    "floor": "",
    "price": "6500",
    "tags": "",
    "source": "",
    "url": "https://bj.lianjia.com/zufang/BJ2080290265276350464.html",
    "rent_type": "整租",
    "location": "朝阳区-三里屯-幸福三村",
    "scraped_at": "2026-05-02 21:04:49",
    "region": "三里屯",
    "unit_price": 110.9,
    "lat": 39.936694,
    "lng": 116.444703
  },
  {
    "title": "整租·三里屯SOHO 1室1厅 东",
    "community": "三里屯SOHO",
    "area": "114.98",
    "rooms": "1室1厅",
    "direction": "东",
    "floor": "",
    "price": "12000",
    "tags": "",
    "source": "",
    "url": "https://bj.lianjia.com/zufang/BJ2114222541655506944.html",
    "rent_type": "整租",
    "location": "朝阳区-三里屯-三里屯",
    "scraped_at": "2026-05-02 21:04:49",
    "region": "三里屯",
    "unit_price": 104.4,
    "lat": 39.931505,
    "lng": 116.44673
  }
]