[
  {
    "title": "整租·兴海家园星苑 2室1厅 南/北",
    "community": "兴海家园星苑",
    "area": "84.37",
    "rooms": "2室1厅",
    "direction": "南/北",
    "floor": "",
    "price": "4200",
    "tags": "",
    "source": "",
    "url": "https://bj.lianjia.com/zufang/BJ2152019019324981248.html",
    "rent_type": "整租",
    "location": "大兴区-西红门-兴海家园星苑",
    "scraped_at": "2026-05-02 22:15:57",
    "region": "xihongmen",
    "unit_price": 49.8,
    "lat": 39.789396,
    "lng": 116.330308
  },
  {
    "title": "整租·同福园 2室1厅 南/北",
    "community": "同福园",
    "area": "72.00",
    "rooms": "2室1厅",
    "direction": "南/北",
    "floor": "",
    "price": "3300",
    "tags": "",
    "source": "",
    "url": "https://bj.lianjia.com/zufang/BJ1961018234056474624.html",
    "rent_type": "整租",
    "location": "大兴区-西红门-同福园",
    "scraped_at": "2026-05-02 22:15:57",
    "region": "xihongmen",
    "unit_price": 45.8,
    "lat": 39.791706,
    "lng": 116.353448
  },
  {
    "title": "整租·鸿坤理想城礼域府 2室1厅 南/北",
    "community": "鸿坤理想城礼域府",
    "area": "94.72",
    "rooms": "2室1厅",
    "direction": "南/北",
    "floor": "",
    "price": "5900",
    "tags": "",
    "source": "",
    "url": "https://bj.lianjia.com/zufang/BJ2149814476495388672.html",
    "rent_type": "整租",
    "location": "大兴区-西红门-鸿坤理想城礼域府",
    "scraped_at": "2026-05-02 22:15:57",
    "region": "xihongmen",
    "unit_price": 62.3,
    "lat": 39.791232,
    "lng": 116.335301
  },
  {
    "title": "整租·林枫家园 3室1厅 南/北",
    "community": "林枫家园",
    "area": "118.00",
    "rooms": "3室1厅",
    "direction": "南/北",
    "floor": "",
    "price": "6000",
    "tags": "",
    "source": "",
    "url": "https://bj.lianjia.com/zufang/BJ2128085175165255680.html",
    "rent_type": "整租",
    "location": "大兴区-西红门-林枫家园",
    "scraped_at": "2026-05-02 22:15:57",
    "region": "xihongmen",
    "unit_price": 50.8,
    "lat": 39.791558,
    "lng": 116.352206
  },
  {
    "title": "整租·林枫家园 3室1厅 南/北",
    "community": "林枫家园",
    "area": "101.85",
    "rooms": "3室1厅",
    "direction": "南/北",
    "floor": "",
    "price": "5500",
    "tags": "",
    "source": "",
    "url": "https://bj.lianjia.com/zufang/BJ2126524452429627392.html",
    "rent_type": "整租",
    "location": "大兴区-西红门-林枫家园",
    "scraped_at": "2026-05-02 22:16:20",
    "region": "xihongmen",
    "unit_price": 54.0,
    "lat": 39.791558,
    "lng": 116.352206
  },
  {
    "title": "独栋·大小房子 宏旭东路店 精装修 拎包入住 通勤金融街 1室1厅",
    "community": "大小房子 宏旭东路店 精装修 拎包入住 通勤金融街",
    "area": "30.00",
    "rooms": "1室1厅",
    "direction": "",
    "floor": "",
    "price": "2000",
    "tags": "",
    "source": "",
    "url": "https://bj.lianjia.com/apartment/103910.html",
    "rent_type": "独栋",
    "location": "",
    "scraped_at": "2026-05-02 22:15:59",
    "region": "xihongmen",
    "unit_price": 66.7,
    "lat": 39.67634,
    "lng": 116.317147
  },
  {
    "title": "整租·九龙家园北区 4室2厅 南/北",
    "community": "九龙家园北区",
    "area": "163.78",
    "rooms": "4室2厅",
    "direction": "南/北",
    "floor": "",
    "price": "13800",
    "tags": "",
    "source": "",
    "url": "https://bj.lianjia.com/zufang/BJ2153729576478441472.html",
    "rent_type": "整租",
    "location": "大兴区-西红门-九龙家园北区",
    "scraped_at": "2026-05-02 22:15:57",
    "region": "xihongmen",
    "unit_price": 84.3,
    "lat": 39.799054,
    "lng": 116.338261
  },
  {
    "title": "整租·熙悦宸著 3室1厅 南/北",
    "community": "熙悦宸著",
    "area": "270.00",
    "rooms": "3室1厅",
    "direction": "南/北",
    "floor": "",
    "price": "10000",
    "tags": "",
    "source": "",
    "url": "https://bj.lianjia.com/zufang/BJ2154906751185453056.html",
    "rent_type": "整租",
    "location": "大兴区-西红门-熙悦宸著",
    "scraped_at": "2026-05-02 22:15:57",
    "region": "xihongmen",
    "unit_price": 37.0,
    "lat": 39.788669,
    "lng": 116.32142
  },
  {
    "title": "整租·同兴园 2室1厅 南/北",
    "community": "同兴园",
    "area": "71.53",
    "rooms": "2室1厅",
    "direction": "南/北",
    "floor": "",
    "price": "4100",
    "tags": "",
    "source": "",
    "url": "https://bj.lianjia.com/zufang/BJ2067221056740917248.html",
    "rent_type": "整租",
    "location": "大兴区-西红门-同兴园",
    "scraped_at": "2026-05-02 22:15:57",
    "region": "xihongmen",
    "unit_price": 57.3,
    "lat": 39.79569,
    "lng": 116.35796
  },
  {
    "title": "整租·瑞海家园二区 2室1厅 南/北",
    "community": "瑞海家园二区",
    "area": "95.59",
    "rooms": "2室1厅",
    "direction": "南/北",
    "floor": "",
    "price": "5300",
    "tags": "",
    "source": "",
    "url": "https://bj.lianjia.com/zufang/BJ2138286740471808000.html",
    "rent_type": "整租",
    "location": "大兴区-西红门-瑞海家园二区",
    "scraped_at": "2026-05-02 22:15:57",
    "region": "xihongmen",
    "unit_price": 55.4,
    "lat": 39.784802,
    "lng": 116.325936
  },
  {
    "title": "整租·理想家园 2室1厅 西南",
    "community": "理想家园",
    "area": "72.04",
    "rooms": "2室1厅",
    "direction": "西南",
    "floor": "",
    "price": "4100",
    "tags": "",
    "source": "",
    "url": "https://bj.lianjia.com/zufang/BJ2146958349764132864.html",
    "rent_type": "整租",
    "location": "大兴区-西红门-理想家园",
    "scraped_at": "2026-05-02 22:15:57",
    "region": "xihongmen",
    "unit_price": 56.9,
    "lat": 39.78086,
    "lng": 116.33412
  },
  {
    "title": "整租·兴海家园月苑 2室1厅 南/北",
    "community": "兴海家园月苑",
    "area": "84.33",
    "rooms": "2室1厅",
    "direction": "南/北",
    "floor": "",
    "price": "4400",
    "tags": "",
    "source": "",
    "url": "https://bj.lianjia.com/zufang/BJ2156703044274749440.html",
    "rent_type": "整租",
    "location": "大兴区-西红门-兴海家园月苑",
    "scraped_at": "2026-05-02 22:16:20",
    "region": "xihongmen",
    "unit_price": 52.2,
    "lat": 39.792826,
    "lng": 116.32931
  },
  {
    "title": "整租·月桂庄园 4室2厅 复式 南/北",
    "community": "月桂庄园",
    "area": "178.24",
    "rooms": "4室2厅",
    "direction": "",
    "floor": "",
    "price": "10200",
    "tags": "",
    "source": "",
    "url": "https://bj.lianjia.com/zufang/BJ1944647888881582080.html",
    "rent_type": "整租",
    "location": "大兴区-西红门-月桂庄园",
    "scraped_at": "2026-05-02 22:15:57",
    "region": "xihongmen",
    "unit_price": 57.2,
    "lat": 39.784832,
    "lng": 116.330554
  },
  {
    "title": "整租·鸿坤理想城曦望山 1室1厅 南",
    "community": "鸿坤理想城曦望山",
    "area": "62.41",
    "rooms": "1室1厅",
    "direction": "南",
    "floor": "",
    "price": "4600",
    "tags": "",
    "source": "",
    "url": "https://bj.lianjia.com/zufang/BJ2139734537490399232.html",
    "rent_type": "整租",
    "location": "大兴区-西红门-鸿坤理想城曦望山",
    "scraped_at": "2026-05-02 22:15:57",
    "region": "xihongmen",
    "unit_price": 73.7,
    "lat": 39.790766,
    "lng": 116.333565
  },
  {
    "title": "整租·宏大中园 2室1厅 东南",
    "community": "宏大中园",
    "area": "89.88",
    "rooms": "2室1厅",
    "direction": "东南",
    "floor": "",
    "price": "4800",
    "tags": "",
    "source": "",
    "url": "https://bj.lianjia.com/zufang/BJ1920719370393223168.html",
    "rent_type": "整租",
    "location": "大兴区-西红门-宏大中园",
    "scraped_at": "2026-05-02 22:16:17",
    "region": "xihongmen",
    "unit_price": 53.4,
    "lat": 39.795162,
    "lng": 116.328249
  },
  {
    "title": "整租·绿林苑 6室1厅 南/北",
    "community": "绿林苑",
    "area": "229.00",
    "rooms": "6室1厅",
    "direction": "南/北",
    "floor": "",
    "price": "10000",
    "tags": "",
    "source": "",
    "url": "https://bj.lianjia.com/zufang/BJ2150430636173688832.html",
    "rent_type": "整租",
    "location": "大兴区-西红门-绿林苑",
    "scraped_at": "2026-05-02 22:15:57",
    "region": "xihongmen",
    "unit_price": 43.7,
    "lat": 39.795662,
    "lng": 116.360819
  },
  {
    "title": "整租·鸿坤理想城五期 2室1厅 南/北",
    "community": "鸿坤理想城五期",
    "area": "79.00",
    "rooms": "2室1厅",
    "direction": "南/北",
    "floor": "",
    "price": "4300",
    "tags": "",
    "source": "",
    "url": "https://bj.lianjia.com/zufang/BJ2158583904989085696.html",
    "rent_type": "整租",
    "location": "大兴区-西红门-鸿坤理想城五期",
    "scraped_at": "2026-05-02 22:15:57",
    "region": "xihongmen",
    "unit_price": 54.4,
    "lat": 39.791279,
    "lng": 116.334834
  },
  {
    "title": "整租·西红门路8号院 2室1厅 南/北",
    "community": "西红门路8号院",
    "area": "68.38",
    "rooms": "2室1厅",
    "direction": "南/北",
    "floor": "",
    "price": "3500",
    "tags": "",
    "source": "",
    "url": "https://bj.lianjia.com/zufang/BJ2149752082855362560.html",
    "rent_type": "整租",
    "location": "大兴区-西红门-西红门路",
    "scraped_at": "2026-05-02 22:16:20",
    "region": "xihongmen",
    "unit_price": 51.2,
    "lat": 39.792326,
    "lng": 116.357358
  },
  {
    "title": "整租·瑞海家园五区 3室2厅 南/北",
    "community": "瑞海家园五区",
    "area": "118.94",
    "rooms": "3室2厅",
    "direction": "南/北",
    "floor": "",
    "price": "5800",
    "tags": "",
    "source": "",
    "url": "https://bj.lianjia.com/zufang/BJ2160240809222340608.html",
    "rent_type": "整租",
    "location": "大兴区-西红门-瑞海家园五区",
    "scraped_at": "2026-05-02 22:15:57",
    "region": "xihongmen",
    "unit_price": 48.8,
    "lat": 39.783324,
    "lng": 116.330645
  },
  {
    "title": "整租·兴海家园星苑 2室1厅 南/北",
    "community": "兴海家园星苑",
    "area": "76.39",
    "rooms": "2室1厅",
    "direction": "南/北",
    "floor": "",
    "price": "4800",
    "tags": "",
    "source": "",
    "url": "https://bj.lianjia.com/zufang/BJ2144650584567840768.html",
    "rent_type": "整租",
    "location": "大兴区-西红门-兴海家园星苑",
    "scraped_at": "2026-05-02 22:15:57",
    "region": "xihongmen",
    "unit_price": 62.8,
    "lat": 39.789396,
    "lng": 116.330308
  },
  {
    "title": "整租·瑞海家园五区 3室1厅 南/北",
    "community": "瑞海家园五区",
    "area": "109.36",
    "rooms": "3室1厅",
    "direction": "南/北",
    "floor": "",
    "price": "6000",
    "tags": "",
    "source": "",
    "url": "https://bj.lianjia.com/zufang/BJ2150462585793675264.html",
    "rent_type": "整租",
    "location": "大兴区-西红门-瑞海家园五区",
    "scraped_at": "2026-05-02 22:16:20",
    "region": "xihongmen",
    "unit_price": 54.9,
    "lat": 39.783324,
    "lng": 116.330645
  },
  {
    "title": "整租·理想家园 1室1厅 南",
    "community": "理想家园",
    "area": "47.87",
    "rooms": "1室1厅",
    "direction": "南",
    "floor": "",
    "price": "3700",
    "tags": "",
    "source": "",
    "url": "https://bj.lianjia.com/zufang/BJ2153326553268748288.html",
    "rent_type": "整租",
    "location": "大兴区-西红门-理想家园",
    "scraped_at": "2026-05-02 22:15:57",
    "region": "xihongmen",
    "unit_price": 77.3,
    "lat": 39.78086,
    "lng": 116.33412
  },
  {
    "title": "整租·鸿坤理想城派郡20号院 2室1厅 南/北",
    "community": "鸿坤理想城派郡20号院",
    "area": "92.70",
    "rooms": "2室1厅",
    "direction": "南/北",
    "floor": "",
    "price": "5800",
    "tags": "",
    "source": "",
    "url": "https://bj.lianjia.com/zufang/BJ2159129185472217088.html",
    "rent_type": "整租",
    "location": "大兴区-西红门-鸿坤理想城派郡",
    "scraped_at": "2026-05-02 22:15:57",
    "region": "xihongmen",
    "unit_price": 62.6,
    "lat": 39.790766,
    "lng": 116.333565
  },
  {
    "title": "整租·同兴园 3室1厅 南/北",
    "community": "同兴园",
    "area": "87.23",
    "rooms": "3室1厅",
    "direction": "南/北",
    "floor": "",
    "price": "4600",
    "tags": "",
    "source": "",
    "url": "https://bj.lianjia.com/zufang/BJ2152734251374608384.html",
    "rent_type": "整租",
    "location": "大兴区-西红门-同兴园",
    "scraped_at": "2026-05-02 22:16:20",
    "region": "xihongmen",
    "unit_price": 52.7,
    "lat": 39.79569,
    "lng": 116.35796
  },
  {
    "title": "整租·鸿坤理想城礼域府 2室1厅 南/北",
    "community": "鸿坤理想城礼域府",
    "area": "94.64",
    "rooms": "2室1厅",
    "direction": "南/北",
    "floor": "",
    "price": "6300",
    "tags": "",
    "source": "",
    "url": "https://bj.lianjia.com/zufang/BJ2156308567898980352.html",
    "rent_type": "整租",
    "location": "大兴区-西红门-鸿坤理想城礼域府",
    "scraped_at": "2026-05-02 22:15:57",
    "region": "xihongmen",
    "unit_price": 66.6,
    "lat": 39.791232,
    "lng": 116.335301
  },
  {
    "title": "独栋·CCB建融家园 星光视界店 4号线新宫地铁 限时特惠 落地大窗阳光房 房租可月付 开间",
    "community": "CCB建融家园 星光视界店 4号线新宫地铁 限时特惠 落地大窗阳光房 房租可月付 开间",
    "area": "35.09",
    "rooms": "",
    "direction": "",
    "floor": "",
    "price": "2950",
    "tags": "",
    "source": "",
    "url": "https://bj.lianjia.com/apartment/78791.html",
    "rent_type": "独栋",
    "location": "",
    "scraped_at": "2026-05-02 22:15:59",
    "region": "xihongmen",
    "unit_price": 84.1,
    "lat": 39.797511,
    "lng": 116.361807
  },
  {
    "title": "整租·瑞海家园二区 2室1厅 南/北",
    "community": "瑞海家园二区",
    "area": "108.00",
    "rooms": "2室1厅",
    "direction": "南/北",
    "floor": "",
    "price": "5100",
    "tags": "",
    "source": "",
    "url": "https://bj.lianjia.com/zufang/BJ2159946532718116864.html",
    "rent_type": "整租",
    "location": "大兴区-西红门-瑞海家园二区",
    "scraped_at": "2026-05-02 22:16:17",
    "region": "xihongmen",
    "unit_price": 47.2,
    "lat": 39.784802,
    "lng": 116.325936
  },
  {
    "title": "整租·熙悦宸著 3室2厅 南/北",
    "community": "熙悦宸著",
    "area": "89.94",
    "rooms": "3室2厅",
    "direction": "南/北",
    "floor": "",
    "price": "6600",
    "tags": "",
    "source": "",
    "url": "https://bj.lianjia.com/zufang/BJ2151529961641476096.html",
    "rent_type": "整租",
    "location": "大兴区-西红门-熙悦宸著",
    "scraped_at": "2026-05-02 22:15:57",
    "region": "xihongmen",
    "unit_price": 73.4,
    "lat": 39.788669,
    "lng": 116.32142
  },
  {
    "title": "独栋·弘家公寓 星辉店 西红门地铁旁 荟聚商场旁 高品质连锁公寓带健身房 月付1800起 5月活动特惠 1室1厅",
    "community": "弘家公寓 星辉店 西红门地铁旁 荟聚商场旁 高品质连锁公寓带健身房 月付1800起 5月活动特惠",
    "area": "36.00",
    "rooms": "1室1厅",
    "direction": "",
    "floor": "",
    "price": "2000",
    "tags": "",
    "source": "",
    "url": "https://bj.lianjia.com/apartment/104912.html",
    "rent_type": "独栋",
    "location": "",
    "scraped_at": "2026-05-02 22:15:57",
    "region": "xihongmen",
    "unit_price": 55.6,
    "lat": 40.004885,
    "lng": 116.302648
  },
  {
    "title": "整租·鸿坤理想城六期 1室1厅 南",
    "community": "鸿坤理想城六期",
    "area": "54.00",
    "rooms": "1室1厅",
    "direction": "南",
    "floor": "",
    "price": "3700",
    "tags": "",
    "source": "",
    "url": "https://bj.lianjia.com/zufang/BJ2159558538282663936.html",
    "rent_type": "整租",
    "location": "大兴区-西红门-鸿坤理想城六期",
    "scraped_at": "2026-05-02 22:15:59",
    "region": "xihongmen",
    "unit_price": 68.5,
    "lat": 39.791279,
    "lng": 116.334834
  },
  {
    "title": "整租·鸿坤理想城大满贯 1室0厅 南",
    "community": "鸿坤理想城大满贯",
    "area": "67.84",
    "rooms": "1室0厅",
    "direction": "南",
    "floor": "",
    "price": "3890",
    "tags": "",
    "source": "",
    "url": "https://bj.lianjia.com/zufang/BJ2154766554896531456.html",
    "rent_type": "整租",
    "location": "大兴区-西红门-鸿坤理想城大满贯",
    "scraped_at": "2026-05-02 22:16:20",
    "region": "xihongmen",
    "unit_price": 57.3,
    "lat": 39.790766,
    "lng": 116.333565
  },
  {
    "title": "整租·兴海家园月苑 1室1厅 南/北",
    "community": "兴海家园月苑",
    "area": "63.00",
    "rooms": "1室1厅",
    "direction": "南/北",
    "floor": "",
    "price": "3800",
    "tags": "",
    "source": "",
    "url": "https://bj.lianjia.com/zufang/BJ2150812885872279552.html",
    "rent_type": "整租",
    "location": "大兴区-西红门-兴海家园月苑",
    "scraped_at": "2026-05-02 22:15:59",
    "region": "xihongmen",
    "unit_price": 60.3,
    "lat": 39.792826,
    "lng": 116.32931
  },
  {
    "title": "整租·鸿坤理想城七期 2室1厅 南/北",
    "community": "鸿坤理想城七期",
    "area": "80.00",
    "rooms": "2室1厅",
    "direction": "南/北",
    "floor": "",
    "price": "4500",
    "tags": "",
    "source": "",
    "url": "https://bj.lianjia.com/zufang/BJ2160321985157005312.html",
    "rent_type": "整租",
    "location": "大兴区-西红门-鸿坤理想城七期",
    "scraped_at": "2026-05-02 22:15:59",
    "region": "xihongmen",
    "unit_price": 56.2,
    "lat": 39.791279,
    "lng": 116.334834
  },
  {
    "title": "整租·金荣园 2室1厅 南/北",
    "community": "金荣园",
    "area": "62.40",
    "rooms": "2室1厅",
    "direction": "南/北",
    "floor": "",
    "price": "3100",
    "tags": "",
    "source": "",
    "url": "https://bj.lianjia.com/zufang/BJ1881959024727949312.html",
    "rent_type": "整租",
    "location": "大兴区-西红门-金荣园",
    "scraped_at": "2026-05-02 22:16:17",
    "region": "xihongmen",
    "unit_price": 49.7,
    "lat": 39.765345,
    "lng": 116.37303
  },
  {
    "title": "整租·鸿坤理想城礼域府 2室1厅 东/西",
    "community": "鸿坤理想城礼域府",
    "area": "91.95",
    "rooms": "2室1厅",
    "direction": "东/西",
    "floor": "",
    "price": "5600",
    "tags": "",
    "source": "",
    "url": "https://bj.lianjia.com/zufang/BJ2146873016800247808.html",
    "rent_type": "整租",
    "location": "大兴区-西红门-鸿坤理想城礼域府",
    "scraped_at": "2026-05-02 22:15:59",
    "region": "xihongmen",
    "unit_price": 60.9,
    "lat": 39.791232,
    "lng": 116.335301
  },
  {
    "title": "整租·林枫家园 3室2厅 南/北",
    "community": "林枫家园",
    "area": "155.46",
    "rooms": "3室2厅",
    "direction": "南/北",
    "floor": "",
    "price": "5900",
    "tags": "",
    "source": "",
    "url": "https://bj.lianjia.com/zufang/BJ2153027106383069184.html",
    "rent_type": "整租",
    "location": "大兴区-西红门-林枫家园",
    "scraped_at": "2026-05-02 22:15:59",
    "region": "xihongmen",
    "unit_price": 38.0,
    "lat": 39.791558,
    "lng": 116.352206
  },
  {
    "title": "整租·鸿坤理想城八期 3室1厅 南/北",
    "community": "鸿坤理想城八期",
    "area": "94.01",
    "rooms": "3室1厅",
    "direction": "南/北",
    "floor": "",
    "price": "4500",
    "tags": "",
    "source": "",
    "url": "https://bj.lianjia.com/zufang/BJ2028086327471243264.html",
    "rent_type": "整租",
    "location": "大兴区-西红门-鸿坤理想城八期",
    "scraped_at": "2026-05-02 22:16:20",
    "region": "xihongmen",
    "unit_price": 47.9,
    "lat": 39.791279,
    "lng": 116.334834
  },
  {
    "title": "整租·宏盛东区 3室2厅 错层 南/北",
    "community": "宏盛东区",
    "area": "127.40",
    "rooms": "3室2厅",
    "direction": "",
    "floor": "",
    "price": "6200",
    "tags": "",
    "source": "",
    "url": "https://bj.lianjia.com/zufang/BJ2158097066042064896.html",
    "rent_type": "整租",
    "location": "大兴区-西红门-宏盛东区",
    "scraped_at": "2026-05-02 22:15:59",
    "region": "xihongmen",
    "unit_price": 48.7,
    "lat": 39.793986,
    "lng": 116.327528
  },
  {
    "title": "整租·熙悦宸著 3室1厅 南/北",
    "community": "熙悦宸著",
    "area": "89.00",
    "rooms": "3室1厅",
    "direction": "南/北",
    "floor": "",
    "price": "7000",
    "tags": "",
    "source": "",
    "url": "https://bj.lianjia.com/zufang/BJ2149395971765698560.html",
    "rent_type": "整租",
    "location": "大兴区-西红门-熙悦宸著",
    "scraped_at": "2026-05-02 22:15:59",
    "region": "xihongmen",
    "unit_price": 78.7,
    "lat": 39.788669,
    "lng": 116.32142
  },
  {
    "title": "整租·福星花园 3室2厅 南/北",
    "community": "福星花园",
    "area": "133.96",
    "rooms": "3室2厅",
    "direction": "南/北",
    "floor": "",
    "price": "5900",
    "tags": "",
    "source": "",
    "url": "https://bj.lianjia.com/zufang/BJ1887720426243620864.html",
    "rent_type": "整租",
    "location": "大兴区-西红门-福星花园",
    "scraped_at": "2026-05-02 22:16:14",
    "region": "xihongmen",
    "unit_price": 44.0,
    "lat": 39.790956,
    "lng": 116.347348
  },
  {
    "title": "整租·鸿坤理想城礼域府 2室2厅 南",
    "community": "鸿坤理想城礼域府",
    "area": "95.00",
    "rooms": "2室2厅",
    "direction": "南",
    "floor": "",
    "price": "5500",
    "tags": "",
    "source": "",
    "url": "https://bj.lianjia.com/zufang/BJ2148726046969561088.html",
    "rent_type": "整租",
    "location": "大兴区-西红门-鸿坤理想城礼域府",
    "scraped_at": "2026-05-02 22:15:59",
    "region": "xihongmen",
    "unit_price": 57.9,
    "lat": 39.791232,
    "lng": 116.335301
  },
  {
    "title": "整租·鸿坤理想城大满贯 1室1厅 南",
    "community": "鸿坤理想城大满贯",
    "area": "67.84",
    "rooms": "1室1厅",
    "direction": "南",
    "floor": "",
    "price": "4200",
    "tags": "",
    "source": "",
    "url": "https://bj.lianjia.com/zufang/BJ2157357533059088384.html",
    "rent_type": "整租",
    "location": "大兴区-西红门-鸿坤理想城大满贯",
    "scraped_at": "2026-05-02 22:15:59",
    "region": "xihongmen",
    "unit_price": 61.9,
    "lat": 39.790766,
    "lng": 116.333565
  },
  {
    "title": "整租·宏大南园 2室1厅 南",
    "community": "宏大南园",
    "area": "94.68",
    "rooms": "2室1厅",
    "direction": "南",
    "floor": "",
    "price": "4600",
    "tags": "",
    "source": "",
    "url": "https://bj.lianjia.com/zufang/BJ2149760507035254784.html",
    "rent_type": "整租",
    "location": "大兴区-西红门-宏大南园",
    "scraped_at": "2026-05-02 22:16:20",
    "region": "xihongmen",
    "unit_price": 48.6,
    "lat": 39.793686,
    "lng": 116.325174
  },
  {
    "title": "整租·同兴园 2室1厅 南/北",
    "community": "同兴园",
    "area": "71.83",
    "rooms": "2室1厅",
    "direction": "南/北",
    "floor": "",
    "price": "3900",
    "tags": "",
    "source": "",
    "url": "https://bj.lianjia.com/zufang/BJ2157084993296269312.html",
    "rent_type": "整租",
    "location": "大兴区-西红门-同兴园",
    "scraped_at": "2026-05-02 22:15:59",
    "region": "xihongmen",
    "unit_price": 54.3,
    "lat": 39.79569,
    "lng": 116.35796
  },
  {
    "title": "整租·瑞海家园五区 3室2厅 南/北",
    "community": "瑞海家园五区",
    "area": "118.31",
    "rooms": "3室2厅",
    "direction": "南/北",
    "floor": "",
    "price": "6300",
    "tags": "",
    "source": "",
    "url": "https://bj.lianjia.com/zufang/BJ2159106582388932608.html",
    "rent_type": "整租",
    "location": "大兴区-西红门-瑞海家园五区",
    "scraped_at": "2026-05-02 22:15:59",
    "region": "xihongmen",
    "unit_price": 53.2,
    "lat": 39.783324,
    "lng": 116.330645
  },
  {
    "title": "整租·熙红印 3室1厅 南/北",
    "community": "熙红印",
    "area": "89.29",
    "rooms": "3室1厅",
    "direction": "南/北",
    "floor": "",
    "price": "5880",
    "tags": "",
    "source": "",
    "url": "https://bj.lianjia.com/zufang/BJ1768935315130548224.html",
    "rent_type": "整租",
    "location": "大兴区-西红门-熙红印",
    "scraped_at": "2026-05-02 22:16:02",
    "region": "xihongmen",
    "unit_price": 65.9,
    "lat": 39.788669,
    "lng": 116.32142
  },
  {
    "title": "整租·理想家园 1室1厅 东南",
    "community": "理想家园",
    "area": "51.41",
    "rooms": "1室1厅",
    "direction": "东南",
    "floor": "",
    "price": "3300",
    "tags": "",
    "source": "",
    "url": "https://bj.lianjia.com/zufang/BJ2139080029089300480.html",
    "rent_type": "整租",
    "location": "大兴区-西红门-理想家园",
    "scraped_at": "2026-05-02 22:15:59",
    "region": "xihongmen",
    "unit_price": 64.2,
    "lat": 39.78086,
    "lng": 116.33412
  },
  {
    "title": "整租·金华园 2室1厅 南/北",
    "community": "金华园",
    "area": "68.08",
    "rooms": "2室1厅",
    "direction": "南/北",
    "floor": "",
    "price": "3000",
    "tags": "",
    "source": "",
    "url": "https://bj.lianjia.com/zufang/BJ2161071712232275968.html",
    "rent_type": "整租",
    "location": "大兴区-西红门-金华园",
    "scraped_at": "2026-05-02 22:15:59",
    "region": "xihongmen",
    "unit_price": 44.1,
    "lat": 39.764845,
    "lng": 116.376256
  },
  {
    "title": "整租·鸿坤理想城大满贯 2室1厅 南",
    "community": "鸿坤理想城大满贯",
    "area": "66.83",
    "rooms": "2室1厅",
    "direction": "南",
    "floor": "",
    "price": "3700",
    "tags": "",
    "source": "",
    "url": "https://bj.lianjia.com/zufang/BJ2031627265913126912.html",
    "rent_type": "整租",
    "location": "大兴区-西红门-鸿坤理想城大满贯",
    "scraped_at": "2026-05-02 22:16:20",
    "region": "xihongmen",
    "unit_price": 55.4,
    "lat": 39.790766,
    "lng": 116.333565
  },
  {
    "title": "整租·宏大北园 2室1厅 东/西",
    "community": "宏大北园",
    "area": "90.00",
    "rooms": "2室1厅",
    "direction": "东/西",
    "floor": "",
    "price": "5000",
    "tags": "",
    "source": "",
    "url": "https://bj.lianjia.com/zufang/BJ2137541682231508992.html",
    "rent_type": "整租",
    "location": "大兴区-西红门-宏大北园",
    "scraped_at": "2026-05-02 22:15:59",
    "region": "xihongmen",
    "unit_price": 55.6,
    "lat": 39.798044,
    "lng": 116.334792
  },
  {
    "title": "整租·瑞海家园三区 2室1厅 南/北",
    "community": "瑞海家园三区",
    "area": "108.00",
    "rooms": "2室1厅",
    "direction": "南/北",
    "floor": "",
    "price": "5400",
    "tags": "",
    "source": "",
    "url": "https://bj.lianjia.com/zufang/BJ2142853298607095808.html",
    "rent_type": "整租",
    "location": "大兴区-西红门-瑞海家园三区",
    "scraped_at": "2026-05-02 22:15:59",
    "region": "xihongmen",
    "unit_price": 50.0,
    "lat": 39.781492,
    "lng": 116.324554
  },
  {
    "title": "整租·兴海家园月苑 2室1厅 南/北",
    "community": "兴海家园月苑",
    "area": "78.08",
    "rooms": "2室1厅",
    "direction": "南/北",
    "floor": "",
    "price": "4500",
    "tags": "",
    "source": "",
    "url": "https://bj.lianjia.com/zufang/BJ1849422636237455360.html",
    "rent_type": "整租",
    "location": "大兴区-西红门-兴海家园月苑",
    "scraped_at": "2026-05-02 22:16:14",
    "region": "xihongmen",
    "unit_price": 57.6,
    "lat": 39.792826,
    "lng": 116.32931
  },
  {
    "title": "整租·鸿坤理想城礼域府 2室1厅 南/北",
    "community": "鸿坤理想城礼域府",
    "area": "95.15",
    "rooms": "2室1厅",
    "direction": "南/北",
    "floor": "",
    "price": "6000",
    "tags": "",
    "source": "",
    "url": "https://bj.lianjia.com/zufang/BJ2145170144198918144.html",
    "rent_type": "整租",
    "location": "大兴区-西红门-鸿坤理想城礼域府",
    "scraped_at": "2026-05-02 22:15:59",
    "region": "xihongmen",
    "unit_price": 63.1,
    "lat": 39.791232,
    "lng": 116.335301
  },
  {
    "title": "整租·世嘉博苑 1室1厅 南/北",
    "community": "世嘉博苑",
    "area": "59.28",
    "rooms": "1室1厅",
    "direction": "南/北",
    "floor": "",
    "price": "4600",
    "tags": "",
    "source": "",
    "url": "https://bj.lianjia.com/zufang/BJ2153154967597219840.html",
    "rent_type": "整租",
    "location": "大兴区-西红门-世嘉博苑",
    "scraped_at": "2026-05-02 22:16:20",
    "region": "xihongmen",
    "unit_price": 77.6,
    "lat": 39.79002,
    "lng": 116.32157
  },
  {
    "title": "整租·兴都苑 1室1厅 南",
    "community": "兴都苑",
    "area": "55.85",
    "rooms": "1室1厅",
    "direction": "南",
    "floor": "",
    "price": "3750",
    "tags": "",
    "source": "",
    "url": "https://bj.lianjia.com/zufang/BJ2159221736996864000.html",
    "rent_type": "整租",
    "location": "大兴区-西红门-兴都苑",
    "scraped_at": "2026-05-02 22:15:59",
    "region": "xihongmen",
    "unit_price": 67.1,
    "lat": 39.795906,
    "lng": 116.333148
  },
  {
    "title": "整租·鸿坤理想城礼域府 2室1厅 南/北",
    "community": "鸿坤理想城礼域府",
    "area": "87.96",
    "rooms": "2室1厅",
    "direction": "南/北",
    "floor": "",
    "price": "5000",
    "tags": "",
    "source": "",
    "url": "https://bj.lianjia.com/zufang/BJ2144644331246452736.html",
    "rent_type": "整租",
    "location": "大兴区-西红门-鸿坤理想城礼域府",
    "scraped_at": "2026-05-02 22:16:02",
    "region": "xihongmen",
    "unit_price": 56.8,
    "lat": 39.791232,
    "lng": 116.335301
  },
  {
    "title": "整租·世嘉博苑 1室0厅 东",
    "community": "世嘉博苑",
    "area": "53.15",
    "rooms": "1室0厅",
    "direction": "东",
    "floor": "",
    "price": "4200",
    "tags": "",
    "source": "",
    "url": "https://bj.lianjia.com/zufang/BJ2148001312921354240.html",
    "rent_type": "整租",
    "location": "大兴区-西红门-世嘉博苑",
    "scraped_at": "2026-05-02 22:16:02",
    "region": "xihongmen",
    "unit_price": 79.0,
    "lat": 39.79002,
    "lng": 116.32157
  },
  {
    "title": "整租·鸿坤理想城大满贯 1室1厅 西",
    "community": "鸿坤理想城大满贯",
    "area": "67.00",
    "rooms": "1室1厅",
    "direction": "西",
    "floor": "",
    "price": "4200",
    "tags": "",
    "source": "",
    "url": "https://bj.lianjia.com/zufang/BJ2153418564244078592.html",
    "rent_type": "整租",
    "location": "大兴区-西红门-鸿坤理想城大满贯",
    "scraped_at": "2026-05-02 22:16:02",
    "region": "xihongmen",
    "unit_price": 62.7,
    "lat": 39.790766,
    "lng": 116.333565
  },
  {
    "title": "整租·壹品兴创·御璟星城 3室1厅 北",
    "community": "壹品兴创·御璟星城",
    "area": "99.99",
    "rooms": "3室1厅",
    "direction": "北",
    "floor": "",
    "price": "6890",
    "tags": "",
    "source": "",
    "url": "https://bj.lianjia.com/zufang/BJ2155141369755074560.html",
    "rent_type": "整租",
    "location": "大兴区-西红门-壹品兴创",
    "scraped_at": "2026-05-02 22:16:06",
    "region": "xihongmen",
    "unit_price": 68.9,
    "lat": 39.788669,
    "lng": 116.32142
  },
  {
    "title": "整租·宏盛东区 4室2厅 错层 南/北",
    "community": "宏盛东区",
    "area": "162.00",
    "rooms": "4室2厅",
    "direction": "",
    "floor": "",
    "price": "9800",
    "tags": "",
    "source": "",
    "url": "https://bj.lianjia.com/zufang/BJ2132127144329871360.html",
    "rent_type": "整租",
    "location": "大兴区-西红门-宏盛东区",
    "scraped_at": "2026-05-02 22:16:02",
    "region": "xihongmen",
    "unit_price": 60.5,
    "lat": 39.793986,
    "lng": 116.327528
  },
  {
    "title": "整租·兴海家园日苑 2室1厅 南/北",
    "community": "兴海家园日苑",
    "area": "84.00",
    "rooms": "2室1厅",
    "direction": "南/北",
    "floor": "",
    "price": "5800",
    "tags": "",
    "source": "",
    "url": "https://bj.lianjia.com/zufang/BJ2158885106230493184.html",
    "rent_type": "整租",
    "location": "大兴区-西红门-兴海家园日苑",
    "scraped_at": "2026-05-02 22:16:02",
    "region": "xihongmen",
    "unit_price": 69.0,
    "lat": 39.790986,
    "lng": 116.326838
  },
  {
    "title": "整租·鸿坤理想城八期 1室1厅 南",
    "community": "鸿坤理想城八期",
    "area": "44.88",
    "rooms": "1室1厅",
    "direction": "南",
    "floor": "",
    "price": "3100",
    "tags": "",
    "source": "",
    "url": "https://bj.lianjia.com/zufang/BJ2007677769722363904.html",
    "rent_type": "整租",
    "location": "大兴区-西红门-鸿坤理想城八期",
    "scraped_at": "2026-05-02 22:16:17",
    "region": "xihongmen",
    "unit_price": 69.1,
    "lat": 39.791279,
    "lng": 116.334834
  },
  {
    "title": "整租·九龙家园北区 3室2厅 南/北",
    "community": "九龙家园北区",
    "area": "170.35",
    "rooms": "3室2厅",
    "direction": "南/北",
    "floor": "",
    "price": "6800",
    "tags": "",
    "source": "",
    "url": "https://bj.lianjia.com/zufang/BJ2107469541893210112.html",
    "rent_type": "整租",
    "location": "大兴区-西红门-九龙家园北区",
    "scraped_at": "2026-05-02 22:16:02",
    "region": "xihongmen",
    "unit_price": 39.9,
    "lat": 39.799054,
    "lng": 116.338261
  },
  {
    "title": "整租·鸿坤理想城六期 2室1厅 西北/北",
    "community": "鸿坤理想城六期",
    "area": "82.00",
    "rooms": "2室1厅",
    "direction": "西北/北",
    "floor": "",
    "price": "4100",
    "tags": "",
    "source": "",
    "url": "https://bj.lianjia.com/zufang/BJ2149129309619486720.html",
    "rent_type": "整租",
    "location": "大兴区-西红门-鸿坤理想城六期",
    "scraped_at": "2026-05-02 22:16:02",
    "region": "xihongmen",
    "unit_price": 50.0,
    "lat": 39.791279,
    "lng": 116.334834
  },
  {
    "title": "整租·兴海家园日苑 2室1厅 南/北",
    "community": "兴海家园日苑",
    "area": "84.84",
    "rooms": "2室1厅",
    "direction": "南/北",
    "floor": "",
    "price": "4750",
    "tags": "",
    "source": "",
    "url": "https://bj.lianjia.com/zufang/BJ2013531073597669376.html",
    "rent_type": "整租",
    "location": "大兴区-西红门-兴海家园日苑",
    "scraped_at": "2026-05-02 22:16:17",
    "region": "xihongmen",
    "unit_price": 56.0,
    "lat": 39.790986,
    "lng": 116.326838
  },
  {
    "title": "整租·鸿坤理想城曦望山 2室1厅 南",
    "community": "鸿坤理想城曦望山",
    "area": "84.67",
    "rooms": "2室1厅",
    "direction": "南",
    "floor": "",
    "price": "6800",
    "tags": "",
    "source": "",
    "url": "https://bj.lianjia.com/zufang/BJ2157762002523521024.html",
    "rent_type": "整租",
    "location": "大兴区-西红门-鸿坤理想城曦望山",
    "scraped_at": "2026-05-02 22:16:02",
    "region": "xihongmen",
    "unit_price": 80.3,
    "lat": 39.790766,
    "lng": 116.333565
  },
  {
    "title": "整租·兴海家园日苑 1室1厅 南/北",
    "community": "兴海家园日苑",
    "area": "65.00",
    "rooms": "1室1厅",
    "direction": "南/北",
    "floor": "",
    "price": "4200",
    "tags": "",
    "source": "",
    "url": "https://bj.lianjia.com/zufang/BJ2158197329755111424.html",
    "rent_type": "整租",
    "location": "大兴区-西红门-兴海家园日苑",
    "scraped_at": "2026-05-02 22:16:02",
    "region": "xihongmen",
    "unit_price": 64.6,
    "lat": 39.790986,
    "lng": 116.326838
  },
  {
    "title": "整租·兴海家园星苑 1室1厅 南",
    "community": "兴海家园星苑",
    "area": "61.40",
    "rooms": "1室1厅",
    "direction": "南",
    "floor": "",
    "price": "3897",
    "tags": "",
    "source": "",
    "url": "https://bj.lianjia.com/zufang/BJ1928818364067610624.html",
    "rent_type": "整租",
    "location": "大兴区-西红门-兴海家园星苑",
    "scraped_at": "2026-05-02 22:16:06",
    "region": "xihongmen",
    "unit_price": 63.5,
    "lat": 39.789396,
    "lng": 116.330308
  },
  {
    "title": "整租·鸿坤理想城礼域府 3室2厅 南/北",
    "community": "鸿坤理想城礼域府",
    "area": "142.00",
    "rooms": "3室2厅",
    "direction": "南/北",
    "floor": "",
    "price": "8700",
    "tags": "",
    "source": "",
    "url": "https://bj.lianjia.com/zufang/BJ2141212616876359680.html",
    "rent_type": "整租",
    "location": "大兴区-西红门-鸿坤理想城礼域府",
    "scraped_at": "2026-05-02 22:16:02",
    "region": "xihongmen",
    "unit_price": 61.3,
    "lat": 39.791232,
    "lng": 116.335301
  },
  {
    "title": "整租·宏大南园 2室1厅 南",
    "community": "宏大南园",
    "area": "89.16",
    "rooms": "2室1厅",
    "direction": "南",
    "floor": "",
    "price": "5000",
    "tags": "",
    "source": "",
    "url": "https://bj.lianjia.com/zufang/BJ2129885522422661120.html",
    "rent_type": "整租",
    "location": "大兴区-西红门-宏大南园",
    "scraped_at": "2026-05-02 22:16:02",
    "region": "xihongmen",
    "unit_price": 56.1,
    "lat": 39.793686,
    "lng": 116.325174
  },
  {
    "title": "整租·福星花园 2室2厅 南/北",
    "community": "福星花园",
    "area": "100.00",
    "rooms": "2室2厅",
    "direction": "南/北",
    "floor": "",
    "price": "5500",
    "tags": "",
    "source": "",
    "url": "https://bj.lianjia.com/zufang/BJ2126315697863655424.html",
    "rent_type": "整租",
    "location": "大兴区-西红门-福星花园",
    "scraped_at": "2026-05-02 22:16:02",
    "region": "xihongmen",
    "unit_price": 55.0,
    "lat": 39.790956,
    "lng": 116.347348
  },
  {
    "title": "整租·鸿坤林语墅 5室2厅 南/北",
    "community": "鸿坤林语墅",
    "area": "342.10",
    "rooms": "5室2厅",
    "direction": "南/北",
    "floor": "",
    "price": "35000",
    "tags": "",
    "source": "",
    "url": "https://bj.lianjia.com/zufang/BJ2119045130605297664.html",
    "rent_type": "整租",
    "location": "大兴区-西红门-鸿坤林语墅",
    "scraped_at": "2026-05-02 22:16:02",
    "region": "xihongmen",
    "unit_price": 102.3,
    "lat": 39.790742,
    "lng": 116.333607
  },
  {
    "title": "整租·鸿坤理想城礼域府 1室1厅 西南",
    "community": "鸿坤理想城礼域府",
    "area": "66.87",
    "rooms": "1室1厅",
    "direction": "西南",
    "floor": "",
    "price": "4500",
    "tags": "",
    "source": "",
    "url": "https://bj.lianjia.com/zufang/BJ2153389422928723968.html",
    "rent_type": "整租",
    "location": "大兴区-西红门-鸿坤理想城礼域府",
    "scraped_at": "2026-05-02 22:16:02",
    "region": "xihongmen",
    "unit_price": 67.3,
    "lat": 39.791232,
    "lng": 116.335301
  },
  {
    "title": "整租·瑞海家园三区 3室1厅 南/北",
    "community": "瑞海家园三区",
    "area": "124.85",
    "rooms": "3室1厅",
    "direction": "南/北",
    "floor": "",
    "price": "5800",
    "tags": "",
    "source": "",
    "url": "https://bj.lianjia.com/zufang/BJ2108850124728827904.html",
    "rent_type": "整租",
    "location": "大兴区-西红门-瑞海家园三区",
    "scraped_at": "2026-05-02 22:16:02",
    "region": "xihongmen",
    "unit_price": 46.5,
    "lat": 39.781492,
    "lng": 116.324554
  },
  {
    "title": "整租·宏大南园 2室2厅 东南",
    "community": "宏大南园",
    "area": "89.00",
    "rooms": "2室2厅",
    "direction": "东南",
    "floor": "",
    "price": "5035",
    "tags": "",
    "source": "",
    "url": "https://bj.lianjia.com/zufang/BJ1897244858976829440.html",
    "rent_type": "整租",
    "location": "大兴区-西红门-宏大南园",
    "scraped_at": "2026-05-02 22:16:20",
    "region": "xihongmen",
    "unit_price": 56.6,
    "lat": 39.793686,
    "lng": 116.325174
  },
  {
    "title": "整租·兴海家园星苑 2室1厅 南/北",
    "community": "兴海家园星苑",
    "area": "77.15",
    "rooms": "2室1厅",
    "direction": "南/北",
    "floor": "",
    "price": "4450",
    "tags": "",
    "source": "",
    "url": "https://bj.lianjia.com/zufang/BJ2152996492632129536.html",
    "rent_type": "整租",
    "location": "大兴区-西红门-兴海家园星苑",
    "scraped_at": "2026-05-02 22:16:02",
    "region": "xihongmen",
    "unit_price": 57.7,
    "lat": 39.789396,
    "lng": 116.330308
  },
  {
    "title": "整租·鸿坤理想城礼域府 2室1厅 南",
    "community": "鸿坤理想城礼域府",
    "area": "91.86",
    "rooms": "2室1厅",
    "direction": "南",
    "floor": "",
    "price": "6290",
    "tags": "",
    "source": "",
    "url": "https://bj.lianjia.com/zufang/BJ2154930801593024512.html",
    "rent_type": "整租",
    "location": "大兴区-西红门-鸿坤理想城礼域府",
    "scraped_at": "2026-05-02 22:16:06",
    "region": "xihongmen",
    "unit_price": 68.5,
    "lat": 39.791232,
    "lng": 116.335301
  },
  {
    "title": "整租·绿林苑 1室1厅 南/北",
    "community": "绿林苑",
    "area": "66.76",
    "rooms": "1室1厅",
    "direction": "南/北",
    "floor": "",
    "price": "4200",
    "tags": "",
    "source": "",
    "url": "https://bj.lianjia.com/zufang/BJ2026301554054660096.html",
    "rent_type": "整租",
    "location": "大兴区-西红门-绿林苑",
    "scraped_at": "2026-05-02 22:16:20",
    "region": "xihongmen",
    "unit_price": 62.9,
    "lat": 39.795662,
    "lng": 116.360819
  },
  {
    "title": "整租·鸿坤理想城礼域府 2室1厅 南",
    "community": "鸿坤理想城礼域府",
    "area": "94.59",
    "rooms": "2室1厅",
    "direction": "南",
    "floor": "",
    "price": "6200",
    "tags": "",
    "source": "",
    "url": "https://bj.lianjia.com/zufang/BJ2157424345507430400.html",
    "rent_type": "整租",
    "location": "大兴区-西红门-鸿坤理想城礼域府",
    "scraped_at": "2026-05-02 22:16:02",
    "region": "xihongmen",
    "unit_price": 65.5,
    "lat": 39.791232,
    "lng": 116.335301
  },
  {
    "title": "整租·鸿坤理想城礼域府 2室1厅 南",
    "community": "鸿坤理想城礼域府",
    "area": "93.75",
    "rooms": "2室1厅",
    "direction": "南",
    "floor": "",
    "price": "5517",
    "tags": "",
    "source": "",
    "url": "https://bj.lianjia.com/zufang/BJ2090082073942425600.html",
    "rent_type": "整租",
    "location": "大兴区-西红门-鸿坤理想城礼域府",
    "scraped_at": "2026-05-02 22:16:06",
    "region": "xihongmen",
    "unit_price": 58.8,
    "lat": 39.791232,
    "lng": 116.335301
  },
  {
    "title": "整租·鸿坤理想城礼域府 3室2厅 南/北",
    "community": "鸿坤理想城礼域府",
    "area": "141.99",
    "rooms": "3室2厅",
    "direction": "南/北",
    "floor": "",
    "price": "8500",
    "tags": "",
    "source": "",
    "url": "https://bj.lianjia.com/zufang/BJ2113842381177487360.html",
    "rent_type": "整租",
    "location": "大兴区-西红门-鸿坤理想城礼域府",
    "scraped_at": "2026-05-02 22:16:06",
    "region": "xihongmen",
    "unit_price": 59.9,
    "lat": 39.791232,
    "lng": 116.335301
  },
  {
    "title": "整租·同福园 1室1厅 南",
    "community": "同福园",
    "area": "55.53",
    "rooms": "1室1厅",
    "direction": "南",
    "floor": "",
    "price": "3200",
    "tags": "",
    "source": "",
    "url": "https://bj.lianjia.com/zufang/BJ1738177427412090880.html",
    "rent_type": "整租",
    "location": "大兴区-西红门-同福园",
    "scraped_at": "2026-05-02 22:16:14",
    "region": "xihongmen",
    "unit_price": 57.6,
    "lat": 39.791706,
    "lng": 116.353448
  },
  {
    "title": "整租·宏大北园 3室1厅 南/北",
    "community": "宏大北园",
    "area": "143.21",
    "rooms": "3室1厅",
    "direction": "南/北",
    "floor": "",
    "price": "7000",
    "tags": "",
    "source": "",
    "url": "https://bj.lianjia.com/zufang/BJ2153438528552304640.html",
    "rent_type": "整租",
    "location": "大兴区-西红门-宏大北园",
    "scraped_at": "2026-05-02 22:16:06",
    "region": "xihongmen",
    "unit_price": 48.9,
    "lat": 39.798044,
    "lng": 116.334792
  },
  {
    "title": "整租·兴都苑 2室1厅 南/北",
    "community": "兴都苑",
    "area": "101.49",
    "rooms": "2室1厅",
    "direction": "南/北",
    "floor": "",
    "price": "5200",
    "tags": "",
    "source": "",
    "url": "https://bj.lianjia.com/zufang/BJ2141026575720644608.html",
    "rent_type": "整租",
    "location": "大兴区-西红门-兴都苑",
    "scraped_at": "2026-05-02 22:16:06",
    "region": "xihongmen",
    "unit_price": 51.2,
    "lat": 39.795906,
    "lng": 116.333148
  },
  {
    "title": "整租·橡树湾一期东区 3室1厅 南/北",
    "community": "橡树湾一期东区",
    "area": "122.00",
    "rooms": "3室1厅",
    "direction": "南/北",
    "floor": "",
    "price": "6800",
    "tags": "",
    "source": "",
    "url": "https://bj.lianjia.com/zufang/BJ2025098702330265600.html",
    "rent_type": "整租",
    "location": "大兴区-西红门-橡树湾一期东区",
    "scraped_at": "2026-05-02 22:16:20",
    "region": "xihongmen",
    "unit_price": 55.7,
    "lat": 39.788669,
    "lng": 116.32142
  },
  {
    "title": "整租·熙红印 3室1厅 南/北",
    "community": "熙红印",
    "area": "89.63",
    "rooms": "3室1厅",
    "direction": "南/北",
    "floor": "",
    "price": "7000",
    "tags": "",
    "source": "",
    "url": "https://bj.lianjia.com/zufang/BJ2154166341685215232.html",
    "rent_type": "整租",
    "location": "大兴区-西红门-熙红印",
    "scraped_at": "2026-05-02 22:16:06",
    "region": "xihongmen",
    "unit_price": 78.1,
    "lat": 39.788669,
    "lng": 116.32142
  },
  {
    "title": "整租·理想家园 1室1厅 南",
    "community": "理想家园",
    "area": "47.78",
    "rooms": "1室1厅",
    "direction": "南",
    "floor": "",
    "price": "4200",
    "tags": "",
    "source": "",
    "url": "https://bj.lianjia.com/zufang/BJ2161364406984769536.html",
    "rent_type": "整租",
    "location": "大兴区-西红门-理想家园",
    "scraped_at": "2026-05-02 22:16:06",
    "region": "xihongmen",
    "unit_price": 87.9,
    "lat": 39.78086,
    "lng": 116.33412
  },
  {
    "title": "整租·理想家园 1室1厅 南",
    "community": "理想家园",
    "area": "48.00",
    "rooms": "1室1厅",
    "direction": "南",
    "floor": "",
    "price": "3200",
    "tags": "",
    "source": "",
    "url": "https://bj.lianjia.com/zufang/BJ2160249462784524288.html",
    "rent_type": "整租",
    "location": "大兴区-西红门-理想家园",
    "scraped_at": "2026-05-02 22:16:06",
    "region": "xihongmen",
    "unit_price": 66.7,
    "lat": 39.78086,
    "lng": 116.33412
  },
  {
    "title": "整租·理想家园 2室1厅 西南",
    "community": "理想家园",
    "area": "71.53",
    "rooms": "2室1厅",
    "direction": "西南",
    "floor": "",
    "price": "4400",
    "tags": "",
    "source": "",
    "url": "https://bj.lianjia.com/zufang/BJ2153389356851658752.html",
    "rent_type": "整租",
    "location": "大兴区-西红门-理想家园",
    "scraped_at": "2026-05-02 22:16:06",
    "region": "xihongmen",
    "unit_price": 61.5,
    "lat": 39.78086,
    "lng": 116.33412
  },
  {
    "title": "整租·鸿坤理想城八期 1室1厅 南",
    "community": "鸿坤理想城八期",
    "area": "44.00",
    "rooms": "1室1厅",
    "direction": "南",
    "floor": "",
    "price": "3100",
    "tags": "",
    "source": "",
    "url": "https://bj.lianjia.com/zufang/BJ2149031401746333696.html",
    "rent_type": "整租",
    "location": "大兴区-西红门-鸿坤理想城八期",
    "scraped_at": "2026-05-02 22:16:06",
    "region": "xihongmen",
    "unit_price": 70.5,
    "lat": 39.791279,
    "lng": 116.334834
  },
  {
    "title": "整租·理想家园 2室1厅 东南",
    "community": "理想家园",
    "area": "73.98",
    "rooms": "2室1厅",
    "direction": "东南",
    "floor": "",
    "price": "5000",
    "tags": "",
    "source": "",
    "url": "https://bj.lianjia.com/zufang/BJ2076138580400406528.html",
    "rent_type": "整租",
    "location": "大兴区-西红门-理想家园",
    "scraped_at": "2026-05-02 22:16:06",
    "region": "xihongmen",
    "unit_price": 67.6,
    "lat": 39.78086,
    "lng": 116.33412
  },
  {
    "title": "整租·兴海家园日苑 1室1厅 南/北",
    "community": "兴海家园日苑",
    "area": "62.00",
    "rooms": "1室1厅",
    "direction": "南/北",
    "floor": "",
    "price": "4200",
    "tags": "",
    "source": "",
    "url": "https://bj.lianjia.com/zufang/BJ2160759799908663296.html",
    "rent_type": "整租",
    "location": "大兴区-西红门-兴海家园日苑",
    "scraped_at": "2026-05-02 22:16:06",
    "region": "xihongmen",
    "unit_price": 67.7,
    "lat": 39.790986,
    "lng": 116.326838
  },
  {
    "title": "整租·兴海家园日苑 1室1厅 南",
    "community": "兴海家园日苑",
    "area": "60.30",
    "rooms": "1室1厅",
    "direction": "南",
    "floor": "",
    "price": "4000",
    "tags": "",
    "source": "",
    "url": "https://bj.lianjia.com/zufang/BJ2161062200494522368.html",
    "rent_type": "整租",
    "location": "大兴区-西红门-兴海家园日苑",
    "scraped_at": "2026-05-02 22:16:06",
    "region": "xihongmen",
    "unit_price": 66.3,
    "lat": 39.790986,
    "lng": 116.326838
  },
  {
    "title": "整租·西宏苑 3室1厅 南/北",
    "community": "西宏苑",
    "area": "89.63",
    "rooms": "3室1厅",
    "direction": "南/北",
    "floor": "",
    "price": "4600",
    "tags": "",
    "source": "",
    "url": "https://bj.lianjia.com/zufang/BJ2144721525956149248.html",
    "rent_type": "整租",
    "location": "丰台区-西红门-西宏苑",
    "scraped_at": "2026-05-02 22:16:06",
    "region": "xihongmen",
    "unit_price": 51.3,
    "lat": 39.79345,
    "lng": 116.365277
  },
  {
    "title": "整租·宏大北园 3室1厅 南/北",
    "community": "宏大北园",
    "area": "142.00",
    "rooms": "3室1厅",
    "direction": "南/北",
    "floor": "",
    "price": "6000",
    "tags": "",
    "source": "",
    "url": "https://bj.lianjia.com/zufang/BJ2098255290163003392.html",
    "rent_type": "整租",
    "location": "大兴区-西红门-宏大北园",
    "scraped_at": "2026-05-02 22:16:06",
    "region": "xihongmen",
    "unit_price": 42.3,
    "lat": 39.798044,
    "lng": 116.334792
  },
  {
    "title": "整租·鸿坤理想城礼域府 2室1厅 东南/北",
    "community": "鸿坤理想城礼域府",
    "area": "91.53",
    "rooms": "2室1厅",
    "direction": "东南/北",
    "floor": "",
    "price": "5950",
    "tags": "",
    "source": "",
    "url": "https://bj.lianjia.com/zufang/BJ2074520641364557824.html",
    "rent_type": "整租",
    "location": "大兴区-西红门-鸿坤理想城礼域府",
    "scraped_at": "2026-05-02 22:16:06",
    "region": "xihongmen",
    "unit_price": 65.0,
    "lat": 39.791232,
    "lng": 116.335301
  },
  {
    "title": "整租·鸿坤理想城大满贯 2室1厅 西",
    "community": "鸿坤理想城大满贯",
    "area": "67.93",
    "rooms": "2室1厅",
    "direction": "西",
    "floor": "",
    "price": "4000",
    "tags": "",
    "source": "",
    "url": "https://bj.lianjia.com/zufang/BJ2157074887670235136.html",
    "rent_type": "整租",
    "location": "大兴区-西红门-鸿坤理想城大满贯",
    "scraped_at": "2026-05-02 22:16:06",
    "region": "xihongmen",
    "unit_price": 58.9,
    "lat": 39.790766,
    "lng": 116.333565
  },
  {
    "title": "整租·宏盛东区 2室1厅 南/北",
    "community": "宏盛东区",
    "area": "65.89",
    "rooms": "2室1厅",
    "direction": "南/北",
    "floor": "",
    "price": "3900",
    "tags": "",
    "source": "",
    "url": "https://bj.lianjia.com/zufang/BJ2131367827318243328.html",
    "rent_type": "整租",
    "location": "大兴区-西红门-宏盛东区",
    "scraped_at": "2026-05-02 22:16:06",
    "region": "xihongmen",
    "unit_price": 59.2,
    "lat": 39.793986,
    "lng": 116.327528
  },
  {
    "title": "整租·瑞海家园五区 3室1厅 南/北",
    "community": "瑞海家园五区",
    "area": "109.36",
    "rooms": "3室1厅",
    "direction": "南/北",
    "floor": "",
    "price": "6300",
    "tags": "",
    "source": "",
    "url": "https://bj.lianjia.com/zufang/BJ2153503362035744768.html",
    "rent_type": "整租",
    "location": "大兴区-西红门-瑞海家园五区",
    "scraped_at": "2026-05-02 22:16:06",
    "region": "xihongmen",
    "unit_price": 57.6,
    "lat": 39.783324,
    "lng": 116.330645
  },
  {
    "title": "整租·五爱屯东街64号院 2室1厅 东南",
    "community": "五爱屯东街64号院",
    "area": "69.75",
    "rooms": "2室1厅",
    "direction": "东南",
    "floor": "",
    "price": "3600",
    "tags": "",
    "source": "",
    "url": "https://bj.lianjia.com/zufang/BJ2130594098166366208.html",
    "rent_type": "整租",
    "location": "丰台区-西红门-五爱屯东街",
    "scraped_at": "2026-05-02 22:16:08",
    "region": "xihongmen",
    "unit_price": 51.6,
    "lat": 39.79711,
    "lng": 116.373962
  },
  {
    "title": "整租·鸿坤理想城曦望山 3室2厅 南/北",
    "community": "鸿坤理想城曦望山",
    "area": "115.85",
    "rooms": "3室2厅",
    "direction": "南/北",
    "floor": "",
    "price": "8200",
    "tags": "",
    "source": "",
    "url": "https://bj.lianjia.com/zufang/BJ2151650404876681216.html",
    "rent_type": "整租",
    "location": "大兴区-西红门-鸿坤理想城曦望山",
    "scraped_at": "2026-05-02 22:16:08",
    "region": "xihongmen",
    "unit_price": 70.8,
    "lat": 39.790766,
    "lng": 116.333565
  },
  {
    "title": "整租·九龙山庄三区 2室2厅 南/北",
    "community": "九龙山庄三区",
    "area": "91.09",
    "rooms": "2室2厅",
    "direction": "南/北",
    "floor": "",
    "price": "4200",
    "tags": "",
    "source": "",
    "url": "https://bj.lianjia.com/zufang/BJ2080490816098271232.html",
    "rent_type": "整租",
    "location": "大兴区-西红门-九龙山庄三区",
    "scraped_at": "2026-05-02 22:16:08",
    "region": "xihongmen",
    "unit_price": 46.1,
    "lat": 39.800047,
    "lng": 116.336052
  },
  {
    "title": "整租·中建玖玥府 3室1厅 南/北",
    "community": "中建玖玥府",
    "area": "107.99",
    "rooms": "3室1厅",
    "direction": "南/北",
    "floor": "",
    "price": "7900",
    "tags": "",
    "source": "",
    "url": "https://bj.lianjia.com/zufang/BJ2154475403895373824.html",
    "rent_type": "整租",
    "location": "大兴区-西红门-中建玖玥府",
    "scraped_at": "2026-05-02 22:16:08",
    "region": "xihongmen",
    "unit_price": 73.2,
    "lat": 39.797098,
    "lng": 116.33332
  },
  {
    "title": "整租·壹品兴创·御璟星城 3室1厅 南/北",
    "community": "壹品兴创·御璟星城",
    "area": "84.85",
    "rooms": "3室1厅",
    "direction": "南/北",
    "floor": "",
    "price": "8000",
    "tags": "",
    "source": "",
    "url": "https://bj.lianjia.com/zufang/BJ2138101808793387008.html",
    "rent_type": "整租",
    "location": "大兴区-西红门-壹品兴创",
    "scraped_at": "2026-05-02 22:16:08",
    "region": "xihongmen",
    "unit_price": 94.3,
    "lat": 39.788669,
    "lng": 116.32142
  },
  {
    "title": "整租·鸿坤理想城礼域府 2室1厅 东南/东北",
    "community": "鸿坤理想城礼域府",
    "area": "92.28",
    "rooms": "2室1厅",
    "direction": "东南/东北",
    "floor": "",
    "price": "6000",
    "tags": "",
    "source": "",
    "url": "https://bj.lianjia.com/zufang/BJ2155222215354744832.html",
    "rent_type": "整租",
    "location": "大兴区-西红门-鸿坤理想城礼域府",
    "scraped_at": "2026-05-02 22:16:08",
    "region": "xihongmen",
    "unit_price": 65.0,
    "lat": 39.791232,
    "lng": 116.335301
  },
  {
    "title": "整租·熙悦宸著 3室2厅 南/北",
    "community": "熙悦宸著",
    "area": "89.70",
    "rooms": "3室2厅",
    "direction": "南/北",
    "floor": "",
    "price": "7200",
    "tags": "",
    "source": "",
    "url": "https://bj.lianjia.com/zufang/BJ2151167331294773248.html",
    "rent_type": "整租",
    "location": "大兴区-西红门-熙悦宸著",
    "scraped_at": "2026-05-02 22:16:08",
    "region": "xihongmen",
    "unit_price": 80.3,
    "lat": 39.788669,
    "lng": 116.32142
  },
  {
    "title": "整租·熙红印 2室1厅 南",
    "community": "熙红印",
    "area": "89.27",
    "rooms": "2室1厅",
    "direction": "南",
    "floor": "",
    "price": "6390",
    "tags": "",
    "source": "",
    "url": "https://bj.lianjia.com/zufang/BJ2130372716996329472.html",
    "rent_type": "整租",
    "location": "大兴区-西红门-熙红印",
    "scraped_at": "2026-05-02 22:16:08",
    "region": "xihongmen",
    "unit_price": 71.6,
    "lat": 39.788669,
    "lng": 116.32142
  },
  {
    "title": "整租·九龙山庄二区 2室1厅 南/北",
    "community": "九龙山庄二区",
    "area": "111.61",
    "rooms": "2室1厅",
    "direction": "南/北",
    "floor": "",
    "price": "4600",
    "tags": "",
    "source": "",
    "url": "https://bj.lianjia.com/zufang/BJ2096835002313474048.html",
    "rent_type": "整租",
    "location": "大兴区-西红门-九龙山庄二区",
    "scraped_at": "2026-05-02 22:16:08",
    "region": "xihongmen",
    "unit_price": 41.2,
    "lat": 39.802776,
    "lng": 116.338947
  },
  {
    "title": "整租·鸿坤理想城六期 2室1厅 南",
    "community": "鸿坤理想城六期",
    "area": "77.60",
    "rooms": "2室1厅",
    "direction": "南",
    "floor": "",
    "price": "4300",
    "tags": "",
    "source": "",
    "url": "https://bj.lianjia.com/zufang/BJ2148788369541300224.html",
    "rent_type": "整租",
    "location": "大兴区-西红门-鸿坤理想城六期",
    "scraped_at": "2026-05-02 22:16:08",
    "region": "xihongmen",
    "unit_price": 55.4,
    "lat": 39.791279,
    "lng": 116.334834
  },
  {
    "title": "整租·九龙家园北区 3室2厅 南/北",
    "community": "九龙家园北区",
    "area": "127.44",
    "rooms": "3室2厅",
    "direction": "南/北",
    "floor": "",
    "price": "4900",
    "tags": "",
    "source": "",
    "url": "https://bj.lianjia.com/zufang/BJ2103402542238007296.html",
    "rent_type": "整租",
    "location": "大兴区-西红门-九龙家园北区",
    "scraped_at": "2026-05-02 22:16:08",
    "region": "xihongmen",
    "unit_price": 38.4,
    "lat": 39.799054,
    "lng": 116.338261
  },
  {
    "title": "整租·鸿坤理想城礼域府 2室1厅 南/北",
    "community": "鸿坤理想城礼域府",
    "area": "91.48",
    "rooms": "2室1厅",
    "direction": "南/北",
    "floor": "",
    "price": "5900",
    "tags": "",
    "source": "",
    "url": "https://bj.lianjia.com/zufang/BJ2157139949604831232.html",
    "rent_type": "整租",
    "location": "大兴区-西红门-鸿坤理想城礼域府",
    "scraped_at": "2026-05-02 22:16:08",
    "region": "xihongmen",
    "unit_price": 64.5,
    "lat": 39.791232,
    "lng": 116.335301
  },
  {
    "title": "整租·同华园 2室1厅 南/北",
    "community": "同华园",
    "area": "79.00",
    "rooms": "2室1厅",
    "direction": "南/北",
    "floor": "",
    "price": "3800",
    "tags": "",
    "source": "",
    "url": "https://bj.lianjia.com/zufang/BJ2060662225403641856.html",
    "rent_type": "整租",
    "location": "大兴区-西红门-同华园",
    "scraped_at": "2026-05-02 22:16:08",
    "region": "xihongmen",
    "unit_price": 48.1,
    "lat": 39.789388,
    "lng": 116.352208
  },
  {
    "title": "整租·兴海家园月苑 2室1厅 南",
    "community": "兴海家园月苑",
    "area": "58.28",
    "rooms": "2室1厅",
    "direction": "南",
    "floor": "",
    "price": "4400",
    "tags": "",
    "source": "",
    "url": "https://bj.lianjia.com/zufang/BJ2084997810305892352.html",
    "rent_type": "整租",
    "location": "大兴区-西红门-兴海家园月苑",
    "scraped_at": "2026-05-02 22:16:08",
    "region": "xihongmen",
    "unit_price": 75.5,
    "lat": 39.792826,
    "lng": 116.32931
  },
  {
    "title": "整租·同福园 2室1厅 南/北",
    "community": "同福园",
    "area": "71.54",
    "rooms": "2室1厅",
    "direction": "南/北",
    "floor": "",
    "price": "3800",
    "tags": "",
    "source": "",
    "url": "https://bj.lianjia.com/zufang/BJ1970461282385526784.html",
    "rent_type": "整租",
    "location": "大兴区-西红门-同福园",
    "scraped_at": "2026-05-02 22:16:08",
    "region": "xihongmen",
    "unit_price": 53.1,
    "lat": 39.791706,
    "lng": 116.353448
  },
  {
    "title": "整租·兴海家园星苑 2室1厅 南",
    "community": "兴海家园星苑",
    "area": "76.47",
    "rooms": "2室1厅",
    "direction": "南",
    "floor": "",
    "price": "5460",
    "tags": "",
    "source": "",
    "url": "https://bj.lianjia.com/zufang/BJ2159468724162134016.html",
    "rent_type": "整租",
    "location": "大兴区-西红门-兴海家园星苑",
    "scraped_at": "2026-05-02 22:16:08",
    "region": "xihongmen",
    "unit_price": 71.4,
    "lat": 39.789396,
    "lng": 116.330308
  },
  {
    "title": "整租·鸿坤理想城八期 1室0厅 南",
    "community": "鸿坤理想城八期",
    "area": "48.39",
    "rooms": "1室0厅",
    "direction": "南",
    "floor": "",
    "price": "3200",
    "tags": "",
    "source": "",
    "url": "https://bj.lianjia.com/zufang/BJ2089558731082694656.html",
    "rent_type": "整租",
    "location": "大兴区-西红门-鸿坤理想城八期",
    "scraped_at": "2026-05-02 22:16:08",
    "region": "xihongmen",
    "unit_price": 66.1,
    "lat": 39.791279,
    "lng": 116.334834
  },
  {
    "title": "整租·熙悦宸著 3室2厅 南",
    "community": "熙悦宸著",
    "area": "90.00",
    "rooms": "3室2厅",
    "direction": "南",
    "floor": "",
    "price": "6800",
    "tags": "",
    "source": "",
    "url": "https://bj.lianjia.com/zufang/BJ1992446651054161920.html",
    "rent_type": "整租",
    "location": "大兴区-西红门-熙悦宸著",
    "scraped_at": "2026-05-02 22:16:08",
    "region": "xihongmen",
    "unit_price": 75.6,
    "lat": 39.788669,
    "lng": 116.32142
  },
  {
    "title": "整租·兴海家园日苑 1室1厅 南",
    "community": "兴海家园日苑",
    "area": "65.00",
    "rooms": "1室1厅",
    "direction": "南",
    "floor": "",
    "price": "4000",
    "tags": "",
    "source": "",
    "url": "https://bj.lianjia.com/zufang/BJ2156332792705712128.html",
    "rent_type": "整租",
    "location": "大兴区-西红门-兴海家园日苑",
    "scraped_at": "2026-05-02 22:16:08",
    "region": "xihongmen",
    "unit_price": 61.5,
    "lat": 39.790986,
    "lng": 116.326838
  },
  {
    "title": "整租·兴海家园日苑 1室1厅 南/北",
    "community": "兴海家园日苑",
    "area": "65.00",
    "rooms": "1室1厅",
    "direction": "南/北",
    "floor": "",
    "price": "4000",
    "tags": "",
    "source": "",
    "url": "https://bj.lianjia.com/zufang/BJ2155514744285429760.html",
    "rent_type": "整租",
    "location": "大兴区-西红门-兴海家园日苑",
    "scraped_at": "2026-05-02 22:16:08",
    "region": "xihongmen",
    "unit_price": 61.5,
    "lat": 39.790986,
    "lng": 116.326838
  },
  {
    "title": "整租·兴海家园日苑 2室1厅 南/北",
    "community": "兴海家园日苑",
    "area": "78.23",
    "rooms": "2室1厅",
    "direction": "南/北",
    "floor": "",
    "price": "4900",
    "tags": "",
    "source": "",
    "url": "https://bj.lianjia.com/zufang/BJ2158514245795315712.html",
    "rent_type": "整租",
    "location": "大兴区-西红门-兴海家园日苑",
    "scraped_at": "2026-05-02 22:16:08",
    "region": "xihongmen",
    "unit_price": 62.6,
    "lat": 39.790986,
    "lng": 116.326838
  },
  {
    "title": "整租·兴都苑 2室1厅 南/北",
    "community": "兴都苑",
    "area": "80.00",
    "rooms": "2室1厅",
    "direction": "南/北",
    "floor": "",
    "price": "4200",
    "tags": "",
    "source": "",
    "url": "https://bj.lianjia.com/zufang/BJ2141142751528353792.html",
    "rent_type": "整租",
    "location": "大兴区-西红门-兴都苑",
    "scraped_at": "2026-05-02 22:16:08",
    "region": "xihongmen",
    "unit_price": 52.5,
    "lat": 39.795906,
    "lng": 116.333148
  },
  {
    "title": "整租·鸿坤理想城四期 2室1厅 南/北",
    "community": "鸿坤理想城四期",
    "area": "77.72",
    "rooms": "2室1厅",
    "direction": "南/北",
    "floor": "",
    "price": "4800",
    "tags": "",
    "source": "",
    "url": "https://bj.lianjia.com/zufang/BJ2156264826786021376.html",
    "rent_type": "整租",
    "location": "大兴区-西红门-鸿坤理想城四期",
    "scraped_at": "2026-05-02 22:16:08",
    "region": "xihongmen",
    "unit_price": 61.8,
    "lat": 39.791279,
    "lng": 116.334834
  },
  {
    "title": "整租·瑞海家园二区 3室1厅 南/北",
    "community": "瑞海家园二区",
    "area": "123.51",
    "rooms": "3室1厅",
    "direction": "南/北",
    "floor": "",
    "price": "6800",
    "tags": "",
    "source": "",
    "url": "https://bj.lianjia.com/zufang/BJ2149477292777144320.html",
    "rent_type": "整租",
    "location": "大兴区-西红门-瑞海家园二区",
    "scraped_at": "2026-05-02 22:16:08",
    "region": "xihongmen",
    "unit_price": 55.1,
    "lat": 39.784802,
    "lng": 116.325936
  },
  {
    "title": "整租·月桂庄园 3室2厅 南/北",
    "community": "月桂庄园",
    "area": "146.22",
    "rooms": "3室2厅",
    "direction": "南/北",
    "floor": "",
    "price": "7200",
    "tags": "",
    "source": "",
    "url": "https://bj.lianjia.com/zufang/BJ2140739425691238400.html",
    "rent_type": "整租",
    "location": "大兴区-西红门-月桂庄园",
    "scraped_at": "2026-05-02 22:16:08",
    "region": "xihongmen",
    "unit_price": 49.2,
    "lat": 39.784832,
    "lng": 116.330554
  },
  {
    "title": "整租·兴海家园星苑 2室1厅 南/北",
    "community": "兴海家园星苑",
    "area": "84.12",
    "rooms": "2室1厅",
    "direction": "南/北",
    "floor": "",
    "price": "4800",
    "tags": "",
    "source": "",
    "url": "https://bj.lianjia.com/zufang/BJ2144083079940014080.html",
    "rent_type": "整租",
    "location": "大兴区-西红门-兴海家园星苑",
    "scraped_at": "2026-05-02 22:16:08",
    "region": "xihongmen",
    "unit_price": 57.1,
    "lat": 39.789396,
    "lng": 116.330308
  },
  {
    "title": "整租·同兴园 2室1厅 南",
    "community": "同兴园",
    "area": "75.11",
    "rooms": "2室1厅",
    "direction": "南",
    "floor": "",
    "price": "4530",
    "tags": "",
    "source": "",
    "url": "https://bj.lianjia.com/zufang/BJ1903655171427139584.html",
    "rent_type": "整租",
    "location": "大兴区-西红门-同兴园",
    "scraped_at": "2026-05-02 22:16:11",
    "region": "xihongmen",
    "unit_price": 60.3,
    "lat": 39.79569,
    "lng": 116.35796
  },
  {
    "title": "整租·鸿坤理想城八期 2室1厅 南/北",
    "community": "鸿坤理想城八期",
    "area": "79.61",
    "rooms": "2室1厅",
    "direction": "南/北",
    "floor": "",
    "price": "4100",
    "tags": "",
    "source": "",
    "url": "https://bj.lianjia.com/zufang/BJ2154405903284043776.html",
    "rent_type": "整租",
    "location": "大兴区-西红门-鸿坤理想城八期",
    "scraped_at": "2026-05-02 22:16:08",
    "region": "xihongmen",
    "unit_price": 51.5,
    "lat": 39.791279,
    "lng": 116.334834
  },
  {
    "title": "整租·理想家园 1室1厅 南",
    "community": "理想家园",
    "area": "50.44",
    "rooms": "1室1厅",
    "direction": "南",
    "floor": "",
    "price": "3500",
    "tags": "",
    "source": "",
    "url": "https://bj.lianjia.com/zufang/BJ2155507765202649088.html",
    "rent_type": "整租",
    "location": "大兴区-西红门-理想家园",
    "scraped_at": "2026-05-02 22:16:08",
    "region": "xihongmen",
    "unit_price": 69.4,
    "lat": 39.78086,
    "lng": 116.33412
  },
  {
    "title": "整租·瑞海家园一区 2室1厅 南",
    "community": "瑞海家园一区",
    "area": "95.89",
    "rooms": "2室1厅",
    "direction": "南",
    "floor": "",
    "price": "5360",
    "tags": "",
    "source": "",
    "url": "https://bj.lianjia.com/zufang/BJ1929898762012983296.html",
    "rent_type": "整租",
    "location": "大兴区-西红门-瑞海家园一区",
    "scraped_at": "2026-05-02 22:16:11",
    "region": "xihongmen",
    "unit_price": 55.9,
    "lat": 39.788939,
    "lng": 116.323232
  },
  {
    "title": "整租·瑞海家园三区 3室2厅 南/北",
    "community": "瑞海家园三区",
    "area": "123.21",
    "rooms": "3室2厅",
    "direction": "南/北",
    "floor": "",
    "price": "6300",
    "tags": "",
    "source": "",
    "url": "https://bj.lianjia.com/zufang/BJ2154181453485703168.html",
    "rent_type": "整租",
    "location": "大兴区-西红门-瑞海家园三区",
    "scraped_at": "2026-05-02 22:16:11",
    "region": "xihongmen",
    "unit_price": 51.1,
    "lat": 39.781492,
    "lng": 116.324554
  },
  {
    "title": "整租·金华园 2室2厅 南/北",
    "community": "金华园",
    "area": "111.29",
    "rooms": "2室2厅",
    "direction": "南/北",
    "floor": "",
    "price": "3500",
    "tags": "",
    "source": "",
    "url": "https://bj.lianjia.com/zufang/BJ2114668156621422592.html",
    "rent_type": "整租",
    "location": "大兴区-西红门-金华园",
    "scraped_at": "2026-05-02 22:16:11",
    "region": "xihongmen",
    "unit_price": 31.4,
    "lat": 39.764845,
    "lng": 116.376256
  },
  {
    "title": "整租·世嘉博苑 1室0厅 南",
    "community": "世嘉博苑",
    "area": "39.29",
    "rooms": "1室0厅",
    "direction": "南",
    "floor": "",
    "price": "4200",
    "tags": "",
    "source": "",
    "url": "https://bj.lianjia.com/zufang/BJ2157764128381337600.html",
    "rent_type": "整租",
    "location": "大兴区-西红门-世嘉博苑",
    "scraped_at": "2026-05-02 22:16:11",
    "region": "xihongmen",
    "unit_price": 106.9,
    "lat": 39.79002,
    "lng": 116.32157
  },
  {
    "title": "整租·兴都苑 1室1厅 南/北",
    "community": "兴都苑",
    "area": "52.96",
    "rooms": "1室1厅",
    "direction": "南/北",
    "floor": "",
    "price": "3600",
    "tags": "",
    "source": "",
    "url": "https://bj.lianjia.com/zufang/BJ2157468930816344064.html",
    "rent_type": "整租",
    "location": "大兴区-西红门-兴都苑",
    "scraped_at": "2026-05-02 22:16:11",
    "region": "xihongmen",
    "unit_price": 68.0,
    "lat": 39.795906,
    "lng": 116.333148
  },
  {
    "title": "整租·兴海家园月苑 3室1厅 南/北",
    "community": "兴海家园月苑",
    "area": "110.00",
    "rooms": "3室1厅",
    "direction": "南/北",
    "floor": "",
    "price": "5700",
    "tags": "",
    "source": "",
    "url": "https://bj.lianjia.com/zufang/BJ2139940310216605696.html",
    "rent_type": "整租",
    "location": "大兴区-西红门-兴海家园月苑",
    "scraped_at": "2026-05-02 22:16:11",
    "region": "xihongmen",
    "unit_price": 51.8,
    "lat": 39.792826,
    "lng": 116.32931
  },
  {
    "title": "整租·同兴园 2室1厅 南/北",
    "community": "同兴园",
    "area": "72.00",
    "rooms": "2室1厅",
    "direction": "南/北",
    "floor": "",
    "price": "4200",
    "tags": "",
    "source": "",
    "url": "https://bj.lianjia.com/zufang/BJ2145394804622622720.html",
    "rent_type": "整租",
    "location": "大兴区-西红门-同兴园",
    "scraped_at": "2026-05-02 22:16:11",
    "region": "xihongmen",
    "unit_price": 58.3,
    "lat": 39.79569,
    "lng": 116.35796
  },
  {
    "title": "整租·鸿坤理想城礼域府 3室1厅 南/北",
    "community": "鸿坤理想城礼域府",
    "area": "141.99",
    "rooms": "3室1厅",
    "direction": "南/北",
    "floor": "",
    "price": "8200",
    "tags": "",
    "source": "",
    "url": "https://bj.lianjia.com/zufang/BJ2160731729080352768.html",
    "rent_type": "整租",
    "location": "大兴区-西红门-鸿坤理想城礼域府",
    "scraped_at": "2026-05-02 22:16:11",
    "region": "xihongmen",
    "unit_price": 57.8,
    "lat": 39.791232,
    "lng": 116.335301
  },
  {
    "title": "整租·金华园 4室2厅 南/北",
    "community": "金华园",
    "area": "207.19",
    "rooms": "4室2厅",
    "direction": "南/北",
    "floor": "",
    "price": "10000",
    "tags": "",
    "source": "",
    "url": "https://bj.lianjia.com/zufang/BJ2013480851966263296.html",
    "rent_type": "整租",
    "location": "大兴区-西红门-金华园",
    "scraped_at": "2026-05-02 22:16:11",
    "region": "xihongmen",
    "unit_price": 48.3,
    "lat": 39.764845,
    "lng": 116.376256
  },
  {
    "title": "整租·林枫家园 2室1厅 南/北",
    "community": "林枫家园",
    "area": "76.65",
    "rooms": "2室1厅",
    "direction": "南/北",
    "floor": "",
    "price": "3600",
    "tags": "",
    "source": "",
    "url": "https://bj.lianjia.com/zufang/BJ2137809474809757696.html",
    "rent_type": "整租",
    "location": "大兴区-西红门-林枫家园",
    "scraped_at": "2026-05-02 22:16:11",
    "region": "xihongmen",
    "unit_price": 47.0,
    "lat": 39.791558,
    "lng": 116.352206
  },
  {
    "title": "整租·鸿坤理想城礼域府 2室1厅 南/北",
    "community": "鸿坤理想城礼域府",
    "area": "96.53",
    "rooms": "2室1厅",
    "direction": "南/北",
    "floor": "",
    "price": "6900",
    "tags": "",
    "source": "",
    "url": "https://bj.lianjia.com/zufang/BJ2158430992988110848.html",
    "rent_type": "整租",
    "location": "大兴区-西红门-鸿坤理想城礼域府",
    "scraped_at": "2026-05-02 22:16:11",
    "region": "xihongmen",
    "unit_price": 71.5,
    "lat": 39.791232,
    "lng": 116.335301
  },
  {
    "title": "整租·鸿坤理想城礼域府 2室1厅 南/北",
    "community": "鸿坤理想城礼域府",
    "area": "93.75",
    "rooms": "2室1厅",
    "direction": "南/北",
    "floor": "",
    "price": "6300",
    "tags": "",
    "source": "",
    "url": "https://bj.lianjia.com/zufang/BJ2141728812323307520.html",
    "rent_type": "整租",
    "location": "大兴区-西红门-鸿坤理想城礼域府",
    "scraped_at": "2026-05-02 22:16:11",
    "region": "xihongmen",
    "unit_price": 67.2,
    "lat": 39.791232,
    "lng": 116.335301
  },
  {
    "title": "整租·世嘉博苑 2室1厅 东南/北",
    "community": "世嘉博苑",
    "area": "76.27",
    "rooms": "2室1厅",
    "direction": "东南/北",
    "floor": "",
    "price": "5000",
    "tags": "",
    "source": "",
    "url": "https://bj.lianjia.com/zufang/BJ2143253961170223104.html",
    "rent_type": "整租",
    "location": "大兴区-西红门-世嘉博苑",
    "scraped_at": "2026-05-02 22:16:11",
    "region": "xihongmen",
    "unit_price": 65.6,
    "lat": 39.79002,
    "lng": 116.32157
  },
  {
    "title": "整租·同兴园 2室1厅 南/北",
    "community": "同兴园",
    "area": "71.95",
    "rooms": "2室1厅",
    "direction": "南/北",
    "floor": "",
    "price": "5000",
    "tags": "",
    "source": "",
    "url": "https://bj.lianjia.com/zufang/BJ2118260526566866944.html",
    "rent_type": "整租",
    "location": "大兴区-西红门-同兴园",
    "scraped_at": "2026-05-02 22:16:11",
    "region": "xihongmen",
    "unit_price": 69.5,
    "lat": 39.79569,
    "lng": 116.35796
  },
  {
    "title": "整租·同兴园 2室1厅 南/北",
    "community": "同兴园",
    "area": "72.00",
    "rooms": "2室1厅",
    "direction": "南/北",
    "floor": "",
    "price": "3900",
    "tags": "",
    "source": "",
    "url": "https://bj.lianjia.com/zufang/BJ2140681217274544128.html",
    "rent_type": "整租",
    "location": "大兴区-西红门-同兴园",
    "scraped_at": "2026-05-02 22:16:11",
    "region": "xihongmen",
    "unit_price": 54.2,
    "lat": 39.79569,
    "lng": 116.35796
  },
  {
    "title": "整租·绿林苑 3室2厅 南/北",
    "community": "绿林苑",
    "area": "108.31",
    "rooms": "3室2厅",
    "direction": "南/北",
    "floor": "",
    "price": "6000",
    "tags": "",
    "source": "",
    "url": "https://bj.lianjia.com/zufang/BJ2145743641941901312.html",
    "rent_type": "整租",
    "location": "大兴区-西红门-绿林苑",
    "scraped_at": "2026-05-02 22:16:11",
    "region": "xihongmen",
    "unit_price": 55.4,
    "lat": 39.795662,
    "lng": 116.360819
  },
  {
    "title": "整租·鸿坤理想城礼域府 3室1厅 西南",
    "community": "鸿坤理想城礼域府",
    "area": "128.36",
    "rooms": "3室1厅",
    "direction": "西南",
    "floor": "",
    "price": "8200",
    "tags": "",
    "source": "",
    "url": "https://bj.lianjia.com/zufang/BJ2159573060217208832.html",
    "rent_type": "整租",
    "location": "大兴区-西红门-鸿坤理想城礼域府",
    "scraped_at": "2026-05-02 22:16:11",
    "region": "xihongmen",
    "unit_price": 63.9,
    "lat": 39.791232,
    "lng": 116.335301
  },
  {
    "title": "整租·兴海家园星苑 2室1厅 南/北",
    "community": "兴海家园星苑",
    "area": "77.41",
    "rooms": "2室1厅",
    "direction": "南/北",
    "floor": "",
    "price": "4900",
    "tags": "",
    "source": "",
    "url": "https://bj.lianjia.com/zufang/BJ1880160121510690816.html",
    "rent_type": "整租",
    "location": "大兴区-西红门-兴海家园星苑",
    "scraped_at": "2026-05-02 22:16:11",
    "region": "xihongmen",
    "unit_price": 63.3,
    "lat": 39.789396,
    "lng": 116.330308
  },
  {
    "title": "整租·鸿坤林语墅 5室2厅 复式 南/北",
    "community": "鸿坤林语墅",
    "area": "333.00",
    "rooms": "5室2厅",
    "direction": "",
    "floor": "",
    "price": "40000",
    "tags": "",
    "source": "",
    "url": "https://bj.lianjia.com/zufang/BJ2076613693126213632.html",
    "rent_type": "整租",
    "location": "大兴区-西红门-鸿坤林语墅",
    "scraped_at": "2026-05-02 22:16:11",
    "region": "xihongmen",
    "unit_price": 120.1,
    "lat": 39.790742,
    "lng": 116.333607
  },
  {
    "title": "整租·金华园 4室2厅 南/北",
    "community": "金华园",
    "area": "163.64",
    "rooms": "4室2厅",
    "direction": "南/北",
    "floor": "",
    "price": "6500",
    "tags": "",
    "source": "",
    "url": "https://bj.lianjia.com/zufang/BJ2161085318646726656.html",
    "rent_type": "整租",
    "location": "大兴区-西红门-金华园",
    "scraped_at": "2026-05-02 22:16:11",
    "region": "xihongmen",
    "unit_price": 39.7,
    "lat": 39.764845,
    "lng": 116.376256
  },
  {
    "title": "整租·鸿坤理想城八期 1室0厅 南",
    "community": "鸿坤理想城八期",
    "area": "44.00",
    "rooms": "1室0厅",
    "direction": "南",
    "floor": "",
    "price": "3200",
    "tags": "",
    "source": "",
    "url": "https://bj.lianjia.com/zufang/BJ2161008934725353472.html",
    "rent_type": "整租",
    "location": "大兴区-西红门-鸿坤理想城八期",
    "scraped_at": "2026-05-02 22:16:11",
    "region": "xihongmen",
    "unit_price": 72.7,
    "lat": 39.791279,
    "lng": 116.334834
  },
  {
    "title": "整租·瑞海家园二区 2室1厅 南",
    "community": "瑞海家园二区",
    "area": "97.46",
    "rooms": "2室1厅",
    "direction": "南",
    "floor": "",
    "price": "5170",
    "tags": "",
    "source": "",
    "url": "https://bj.lianjia.com/zufang/BJ1966146568226603008.html",
    "rent_type": "整租",
    "location": "大兴区-西红门-瑞海家园二区",
    "scraped_at": "2026-05-02 22:16:11",
    "region": "xihongmen",
    "unit_price": 53.0,
    "lat": 39.784802,
    "lng": 116.325936
  },
  {
    "title": "整租·鸿坤理想城大满贯 1室1厅 南",
    "community": "鸿坤理想城大满贯",
    "area": "68.02",
    "rooms": "1室1厅",
    "direction": "南",
    "floor": "",
    "price": "4130",
    "tags": "",
    "source": "",
    "url": "https://bj.lianjia.com/zufang/BJ1927014258076286976.html",
    "rent_type": "整租",
    "location": "大兴区-西红门-鸿坤理想城大满贯",
    "scraped_at": "2026-05-02 22:16:11",
    "region": "xihongmen",
    "unit_price": 60.7,
    "lat": 39.790766,
    "lng": 116.333565
  },
  {
    "title": "整租·兴海家园日苑 1室1厅 南",
    "community": "兴海家园日苑",
    "area": "65.00",
    "rooms": "1室1厅",
    "direction": "南",
    "floor": "",
    "price": "4430",
    "tags": "",
    "source": "",
    "url": "https://bj.lianjia.com/zufang/BJ1807765615558000640.html",
    "rent_type": "整租",
    "location": "大兴区-西红门-兴海家园日苑",
    "scraped_at": "2026-05-02 22:16:11",
    "region": "xihongmen",
    "unit_price": 68.2,
    "lat": 39.790986,
    "lng": 116.326838
  },
  {
    "title": "整租·理想家园 2室1厅 东",
    "community": "理想家园",
    "area": "71.67",
    "rooms": "2室1厅",
    "direction": "东",
    "floor": "",
    "price": "4590",
    "tags": "",
    "source": "",
    "url": "https://bj.lianjia.com/zufang/BJ1794660086837149696.html",
    "rent_type": "整租",
    "location": "大兴区-西红门-理想家园",
    "scraped_at": "2026-05-02 22:16:11",
    "region": "xihongmen",
    "unit_price": 64.0,
    "lat": 39.78086,
    "lng": 116.33412
  },
  {
    "title": "整租·瑞海家园三区 2室1厅 南",
    "community": "瑞海家园三区",
    "area": "95.96",
    "rooms": "2室1厅",
    "direction": "南",
    "floor": "",
    "price": "5005",
    "tags": "",
    "source": "",
    "url": "https://bj.lianjia.com/zufang/BJ1766105773428965376.html",
    "rent_type": "整租",
    "location": "大兴区-西红门-瑞海家园三区",
    "scraped_at": "2026-05-02 22:16:11",
    "region": "xihongmen",
    "unit_price": 52.2,
    "lat": 39.781492,
    "lng": 116.324554
  },
  {
    "title": "整租·兴海家园月苑 2室1厅 南",
    "community": "兴海家园月苑",
    "area": "78.22",
    "rooms": "2室1厅",
    "direction": "南",
    "floor": "",
    "price": "4890",
    "tags": "",
    "source": "",
    "url": "https://bj.lianjia.com/zufang/BJ1828052962379825152.html",
    "rent_type": "整租",
    "location": "大兴区-西红门-兴海家园月苑",
    "scraped_at": "2026-05-02 22:16:11",
    "region": "xihongmen",
    "unit_price": 62.5,
    "lat": 39.792826,
    "lng": 116.32931
  },
  {
    "title": "整租·兴海家园星苑 2室1厅 南",
    "community": "兴海家园星苑",
    "area": "83.41",
    "rooms": "2室1厅",
    "direction": "南",
    "floor": "",
    "price": "5590",
    "tags": "",
    "source": "",
    "url": "https://bj.lianjia.com/zufang/BJ1817621217977303040.html",
    "rent_type": "整租",
    "location": "大兴区-西红门-兴海家园星苑",
    "scraped_at": "2026-05-02 22:16:11",
    "region": "xihongmen",
    "unit_price": 67.0,
    "lat": 39.789396,
    "lng": 116.330308
  },
  {
    "title": "整租·瑞海家园五区 3室1厅 南",
    "community": "瑞海家园五区",
    "area": "109.75",
    "rooms": "3室1厅",
    "direction": "南",
    "floor": "",
    "price": "5890",
    "tags": "",
    "source": "",
    "url": "https://bj.lianjia.com/zufang/BJ1890754221058293760.html",
    "rent_type": "整租",
    "location": "大兴区-西红门-瑞海家园五区",
    "scraped_at": "2026-05-02 22:16:11",
    "region": "xihongmen",
    "unit_price": 53.7,
    "lat": 39.783324,
    "lng": 116.330645
  },
  {
    "title": "整租·鸿坤理想城礼域府 2室1厅 南/北",
    "community": "鸿坤理想城礼域府",
    "area": "98.38",
    "rooms": "2室1厅",
    "direction": "南/北",
    "floor": "",
    "price": "5800",
    "tags": "",
    "source": "",
    "url": "https://bj.lianjia.com/zufang/BJ1838916842094067712.html",
    "rent_type": "整租",
    "location": "大兴区-西红门-鸿坤理想城礼域府",
    "scraped_at": "2026-05-02 22:16:17",
    "region": "xihongmen",
    "unit_price": 59.0,
    "lat": 39.791232,
    "lng": 116.335301
  },
  {
    "title": "整租·瑞海家园五区 2室1厅 东/西",
    "community": "瑞海家园五区",
    "area": "72.16",
    "rooms": "2室1厅",
    "direction": "东/西",
    "floor": "",
    "price": "4400",
    "tags": "",
    "source": "",
    "url": "https://bj.lianjia.com/zufang/BJ1848020774774898688.html",
    "rent_type": "整租",
    "location": "大兴区-西红门-瑞海家园五区",
    "scraped_at": "2026-05-02 22:16:14",
    "region": "xihongmen",
    "unit_price": 61.0,
    "lat": 39.783324,
    "lng": 116.330645
  },
  {
    "title": "整租·鸿坤理想城大满贯 1室0厅 西",
    "community": "鸿坤理想城大满贯",
    "area": "60.48",
    "rooms": "1室0厅",
    "direction": "西",
    "floor": "",
    "price": "3950",
    "tags": "",
    "source": "",
    "url": "https://bj.lianjia.com/zufang/BJ1852012406725672960.html",
    "rent_type": "整租",
    "location": "大兴区-西红门-鸿坤理想城大满贯",
    "scraped_at": "2026-05-02 22:16:17",
    "region": "xihongmen",
    "unit_price": 65.3,
    "lat": 39.790766,
    "lng": 116.333565
  },
  {
    "title": "整租·兴海家园星苑 1室1厅 南/北",
    "community": "兴海家园星苑",
    "area": "61.58",
    "rooms": "1室1厅",
    "direction": "南/北",
    "floor": "",
    "price": "4300",
    "tags": "",
    "source": "",
    "url": "https://bj.lianjia.com/zufang/BJ1887822094050263040.html",
    "rent_type": "整租",
    "location": "大兴区-西红门-兴海家园星苑",
    "scraped_at": "2026-05-02 22:16:17",
    "region": "xihongmen",
    "unit_price": 69.8,
    "lat": 39.789396,
    "lng": 116.330308
  },
  {
    "title": "整租·同兴园 2室1厅 南/北",
    "community": "同兴园",
    "area": "71.07",
    "rooms": "2室1厅",
    "direction": "南/北",
    "floor": "",
    "price": "3600",
    "tags": "",
    "source": "",
    "url": "https://bj.lianjia.com/zufang/BJ1890328341899116544.html",
    "rent_type": "整租",
    "location": "大兴区-西红门-同兴园",
    "scraped_at": "2026-05-02 22:16:17",
    "region": "xihongmen",
    "unit_price": 50.7,
    "lat": 39.79569,
    "lng": 116.35796
  },
  {
    "title": "整租·兴海家园日苑 3室1厅 南/北",
    "community": "兴海家园日苑",
    "area": "111.84",
    "rooms": "3室1厅",
    "direction": "南/北",
    "floor": "",
    "price": "5980",
    "tags": "",
    "source": "",
    "url": "https://bj.lianjia.com/zufang/BJ1871505382635995136.html",
    "rent_type": "整租",
    "location": "大兴区-西红门-兴海家园日苑",
    "scraped_at": "2026-05-02 22:16:17",
    "region": "xihongmen",
    "unit_price": 53.5,
    "lat": 39.790986,
    "lng": 116.326838
  },
  {
    "title": "整租·理想家园 2室1厅 东南",
    "community": "理想家园",
    "area": "71.32",
    "rooms": "2室1厅",
    "direction": "东南",
    "floor": "",
    "price": "4500",
    "tags": "",
    "source": "",
    "url": "https://bj.lianjia.com/zufang/BJ1876469034728292352.html",
    "rent_type": "整租",
    "location": "大兴区-西红门-理想家园",
    "scraped_at": "2026-05-02 22:16:14",
    "region": "xihongmen",
    "unit_price": 63.1,
    "lat": 39.78086,
    "lng": 116.33412
  },
  {
    "title": "整租·鸿坤理想城大满贯 1室1厅 南",
    "community": "鸿坤理想城大满贯",
    "area": "67.84",
    "rooms": "1室1厅",
    "direction": "南",
    "floor": "",
    "price": "4000",
    "tags": "",
    "source": "",
    "url": "https://bj.lianjia.com/zufang/BJ1884843121116708864.html",
    "rent_type": "整租",
    "location": "大兴区-西红门-鸿坤理想城大满贯",
    "scraped_at": "2026-05-02 22:16:14",
    "region": "xihongmen",
    "unit_price": 59.0,
    "lat": 39.790766,
    "lng": 116.333565
  },
  {
    "title": "整租·西宏苑 2室1厅 南/北",
    "community": "西宏苑",
    "area": "79.72",
    "rooms": "2室1厅",
    "direction": "南/北",
    "floor": "",
    "price": "3500",
    "tags": "",
    "source": "",
    "url": "https://bj.lianjia.com/zufang/BJ1801100718392737792.html",
    "rent_type": "整租",
    "location": "丰台区-西红门-西宏苑",
    "scraped_at": "2026-05-02 22:16:14",
    "region": "xihongmen",
    "unit_price": 43.9,
    "lat": 39.79345,
    "lng": 116.365277
  },
  {
    "title": "整租·鸿坤理想城大满贯 1室0厅 南",
    "community": "鸿坤理想城大满贯",
    "area": "67.05",
    "rooms": "1室0厅",
    "direction": "南",
    "floor": "",
    "price": "4150",
    "tags": "",
    "source": "",
    "url": "https://bj.lianjia.com/zufang/BJ1806971114497245184.html",
    "rent_type": "整租",
    "location": "大兴区-西红门-鸿坤理想城大满贯",
    "scraped_at": "2026-05-02 22:16:14",
    "region": "xihongmen",
    "unit_price": 61.9,
    "lat": 39.790766,
    "lng": 116.333565
  },
  {
    "title": "整租·瑞海家园二区 3室2厅 南/北",
    "community": "瑞海家园二区",
    "area": "123.38",
    "rooms": "3室2厅",
    "direction": "南/北",
    "floor": "",
    "price": "6480",
    "tags": "",
    "source": "",
    "url": "https://bj.lianjia.com/zufang/BJ1816492094034804736.html",
    "rent_type": "整租",
    "location": "大兴区-西红门-瑞海家园二区",
    "scraped_at": "2026-05-02 22:16:17",
    "region": "xihongmen",
    "unit_price": 52.5,
    "lat": 39.784802,
    "lng": 116.325936
  },
  {
    "title": "整租·瑞海家园三区 2室1厅 南/北",
    "community": "瑞海家园三区",
    "area": "95.72",
    "rooms": "2室1厅",
    "direction": "南/北",
    "floor": "",
    "price": "4800",
    "tags": "",
    "source": "",
    "url": "https://bj.lianjia.com/zufang/BJ1837471286771580928.html",
    "rent_type": "整租",
    "location": "大兴区-西红门-瑞海家园三区",
    "scraped_at": "2026-05-02 22:16:17",
    "region": "xihongmen",
    "unit_price": 50.1,
    "lat": 39.781492,
    "lng": 116.324554
  },
  {
    "title": "整租·兴海家园日苑 2室1厅 南/北",
    "community": "兴海家园日苑",
    "area": "84.73",
    "rooms": "2室1厅",
    "direction": "南/北",
    "floor": "",
    "price": "4900",
    "tags": "",
    "source": "",
    "url": "https://bj.lianjia.com/zufang/BJ1627600577003257856.html",
    "rent_type": "整租",
    "location": "大兴区-西红门-兴海家园日苑",
    "scraped_at": "2026-05-02 22:16:14",
    "region": "xihongmen",
    "unit_price": 57.8,
    "lat": 39.790986,
    "lng": 116.326838
  },
  {
    "title": "整租·兴海家园星苑 3室2厅 南/北",
    "community": "兴海家园星苑",
    "area": "110.38",
    "rooms": "3室2厅",
    "direction": "南/北",
    "floor": "",
    "price": "6500",
    "tags": "",
    "source": "",
    "url": "https://bj.lianjia.com/zufang/BJ1664985891908616192.html",
    "rent_type": "整租",
    "location": "大兴区-西红门-兴海家园星苑",
    "scraped_at": "2026-05-02 22:16:14",
    "region": "xihongmen",
    "unit_price": 58.9,
    "lat": 39.789396,
    "lng": 116.330308
  },
  {
    "title": "整租·兴海家园日苑 1室1厅 南/北",
    "community": "兴海家园日苑",
    "area": "61.93",
    "rooms": "1室1厅",
    "direction": "南/北",
    "floor": "",
    "price": "4260",
    "tags": "",
    "source": "",
    "url": "https://bj.lianjia.com/zufang/BJ1692470643825573888.html",
    "rent_type": "整租",
    "location": "大兴区-西红门-兴海家园日苑",
    "scraped_at": "2026-05-02 22:16:14",
    "region": "xihongmen",
    "unit_price": 68.8,
    "lat": 39.790986,
    "lng": 116.326838
  },
  {
    "title": "整租·世嘉博苑 2室1厅 东南",
    "community": "世嘉博苑",
    "area": "82.11",
    "rooms": "2室1厅",
    "direction": "东南",
    "floor": "",
    "price": "5600",
    "tags": "",
    "source": "",
    "url": "https://bj.lianjia.com/zufang/BJ1689578872028266496.html",
    "rent_type": "整租",
    "location": "大兴区-西红门-世嘉博苑",
    "scraped_at": "2026-05-02 22:16:14",
    "region": "xihongmen",
    "unit_price": 68.2,
    "lat": 39.79002,
    "lng": 116.32157
  },
  {
    "title": "整租·理想家园 1室0厅 南",
    "community": "理想家园",
    "area": "34.95",
    "rooms": "1室0厅",
    "direction": "南",
    "floor": "",
    "price": "3400",
    "tags": "",
    "source": "",
    "url": "https://bj.lianjia.com/zufang/BJ1734121479102005248.html",
    "rent_type": "整租",
    "location": "大兴区-西红门-理想家园",
    "scraped_at": "2026-05-02 22:16:14",
    "region": "xihongmen",
    "unit_price": 97.3,
    "lat": 39.78086,
    "lng": 116.33412
  },
  {
    "title": "整租·兴海家园月苑 1室1厅 复式 南",
    "community": "兴海家园月苑",
    "area": "58.35",
    "rooms": "1室1厅",
    "direction": "",
    "floor": "",
    "price": "4100",
    "tags": "",
    "source": "",
    "url": "https://bj.lianjia.com/zufang/BJ1635157898361307136.html",
    "rent_type": "整租",
    "location": "大兴区-西红门-兴海家园月苑",
    "scraped_at": "2026-05-02 22:16:14",
    "region": "xihongmen",
    "unit_price": 70.3,
    "lat": 39.792826,
    "lng": 116.32931
  },
  {
    "title": "整租·兴海家园月苑 2室1厅 南/北",
    "community": "兴海家园月苑",
    "area": "84.00",
    "rooms": "2室1厅",
    "direction": "南/北",
    "floor": "",
    "price": "5400",
    "tags": "",
    "source": "",
    "url": "https://bj.lianjia.com/zufang/BJ1665333764550557696.html",
    "rent_type": "整租",
    "location": "大兴区-西红门-兴海家园月苑",
    "scraped_at": "2026-05-02 22:16:14",
    "region": "xihongmen",
    "unit_price": 64.3,
    "lat": 39.792826,
    "lng": 116.32931
  },
  {
    "title": "整租·世嘉博苑 2室1厅 东南/西",
    "community": "世嘉博苑",
    "area": "82.11",
    "rooms": "2室1厅",
    "direction": "东南/西",
    "floor": "",
    "price": "6000",
    "tags": "",
    "source": "",
    "url": "https://bj.lianjia.com/zufang/BJ1677302334117380096.html",
    "rent_type": "整租",
    "location": "大兴区-西红门-世嘉博苑",
    "scraped_at": "2026-05-02 22:16:14",
    "region": "xihongmen",
    "unit_price": 73.1,
    "lat": 39.79002,
    "lng": 116.32157
  },
  {
    "title": "整租·兴海家园日苑 3室1厅 南/北",
    "community": "兴海家园日苑",
    "area": "110.22",
    "rooms": "3室1厅",
    "direction": "南/北",
    "floor": "",
    "price": "6000",
    "tags": "",
    "source": "",
    "url": "https://bj.lianjia.com/zufang/BJ1872989530533920768.html",
    "rent_type": "整租",
    "location": "大兴区-西红门-兴海家园日苑",
    "scraped_at": "2026-05-02 22:16:17",
    "region": "xihongmen",
    "unit_price": 54.4,
    "lat": 39.790986,
    "lng": 116.326838
  },
  {
    "title": "整租·宏盛家园文物局 2室1厅 南/北",
    "community": "宏盛家园文物局",
    "area": "81.00",
    "rooms": "2室1厅",
    "direction": "南/北",
    "floor": "",
    "price": "3800",
    "tags": "",
    "source": "",
    "url": "https://bj.lianjia.com/zufang/BJ1882406661553913856.html",
    "rent_type": "整租",
    "location": "大兴区-西红门-宏盛家园文物局",
    "scraped_at": "2026-05-02 22:16:17",
    "region": "xihongmen",
    "unit_price": 46.9,
    "lat": 39.792813,
    "lng": 116.329525
  },
  {
    "title": "整租·理想家园 1室1厅 南",
    "community": "理想家园",
    "area": "48.00",
    "rooms": "1室1厅",
    "direction": "南",
    "floor": "",
    "price": "3600",
    "tags": "",
    "source": "",
    "url": "https://bj.lianjia.com/zufang/BJ1885807351349379072.html",
    "rent_type": "整租",
    "location": "大兴区-西红门-理想家园",
    "scraped_at": "2026-05-02 22:16:17",
    "region": "xihongmen",
    "unit_price": 75.0,
    "lat": 39.78086,
    "lng": 116.33412
  },
  {
    "title": "整租·鸿坤理想城大满贯 1室1厅 西南",
    "community": "鸿坤理想城大满贯",
    "area": "47.30",
    "rooms": "1室1厅",
    "direction": "西南",
    "floor": "",
    "price": "4400",
    "tags": "",
    "source": "",
    "url": "https://bj.lianjia.com/zufang/BJ1885885738352902144.html",
    "rent_type": "整租",
    "location": "大兴区-西红门-鸿坤理想城大满贯",
    "scraped_at": "2026-05-02 22:16:17",
    "region": "xihongmen",
    "unit_price": 93.0,
    "lat": 39.790766,
    "lng": 116.333565
  },
  {
    "title": "整租·兴海家园月苑 2室1厅 南/北",
    "community": "兴海家园月苑",
    "area": "76.54",
    "rooms": "2室1厅",
    "direction": "南/北",
    "floor": "",
    "price": "4800",
    "tags": "",
    "source": "",
    "url": "https://bj.lianjia.com/zufang/BJ2005671818580459520.html",
    "rent_type": "整租",
    "location": "大兴区-西红门-兴海家园月苑",
    "scraped_at": "2026-05-02 22:16:14",
    "region": "xihongmen",
    "unit_price": 62.7,
    "lat": 39.792826,
    "lng": 116.32931
  },
  {
    "title": "整租·宏福园 3室1厅 南/北",
    "community": "宏福园",
    "area": "85.50",
    "rooms": "3室1厅",
    "direction": "南/北",
    "floor": "",
    "price": "4800",
    "tags": "",
    "source": "",
    "url": "https://bj.lianjia.com/zufang/BJ1962383031134060544.html",
    "rent_type": "整租",
    "location": "大兴区-西红门-宏福园",
    "scraped_at": "2026-05-02 22:16:17",
    "region": "xihongmen",
    "unit_price": 56.1,
    "lat": 39.796506,
    "lng": 116.334518
  },
  {
    "title": "整租·世嘉博苑 2室1厅 东南/北",
    "community": "世嘉博苑",
    "area": "87.88",
    "rooms": "2室1厅",
    "direction": "东南/北",
    "floor": "",
    "price": "5500",
    "tags": "",
    "source": "",
    "url": "https://bj.lianjia.com/zufang/BJ1980942411303485440.html",
    "rent_type": "整租",
    "location": "大兴区-西红门-世嘉博苑",
    "scraped_at": "2026-05-02 22:16:17",
    "region": "xihongmen",
    "unit_price": 62.6,
    "lat": 39.79002,
    "lng": 116.32157
  },
  {
    "title": "整租·宏盛家园文物局 2室1厅 南/北",
    "community": "宏盛家园文物局",
    "area": "81.08",
    "rooms": "2室1厅",
    "direction": "南/北",
    "floor": "",
    "price": "5000",
    "tags": "",
    "source": "",
    "url": "https://bj.lianjia.com/zufang/BJ2014722655113969664.html",
    "rent_type": "整租",
    "location": "大兴区-西红门-宏盛家园文物局",
    "scraped_at": "2026-05-02 22:16:17",
    "region": "xihongmen",
    "unit_price": 61.7,
    "lat": 39.792813,
    "lng": 116.329525
  },
  {
    "title": "整租·宏盛东区 3室1厅 南/北",
    "community": "宏盛东区",
    "area": "115.31",
    "rooms": "3室1厅",
    "direction": "南/北",
    "floor": "",
    "price": "5670",
    "tags": "",
    "source": "",
    "url": "https://bj.lianjia.com/zufang/BJ2017083405325303808.html",
    "rent_type": "整租",
    "location": "大兴区-西红门-宏盛东区",
    "scraped_at": "2026-05-02 22:16:17",
    "region": "xihongmen",
    "unit_price": 49.2,
    "lat": 39.793986,
    "lng": 116.327528
  },
  {
    "title": "整租·瑞海家园一区 2室1厅 南/西北",
    "community": "瑞海家园一区",
    "area": "95.89",
    "rooms": "2室1厅",
    "direction": "南/西北",
    "floor": "",
    "price": "5000",
    "tags": "",
    "source": "",
    "url": "https://bj.lianjia.com/zufang/BJ2158914385316151296.html",
    "rent_type": "整租",
    "location": "大兴区-西红门-瑞海家园一区",
    "scraped_at": "2026-05-02 22:16:17",
    "region": "xihongmen",
    "unit_price": 52.1,
    "lat": 39.788939,
    "lng": 116.323232
  },
  {
    "title": "整租·兴都苑 2室1厅 南/北",
    "community": "兴都苑",
    "area": "76.48",
    "rooms": "2室1厅",
    "direction": "南/北",
    "floor": "",
    "price": "4100",
    "tags": "",
    "source": "",
    "url": "https://bj.lianjia.com/zufang/BJ2158928856730304512.html",
    "rent_type": "整租",
    "location": "大兴区-西红门-兴都苑",
    "scraped_at": "2026-05-02 22:16:17",
    "region": "xihongmen",
    "unit_price": 53.6,
    "lat": 39.795906,
    "lng": 116.333148
  },
  {
    "title": "整租·橡树湾一期西区 2室1厅 南",
    "community": "橡树湾一期西区",
    "area": "76.59",
    "rooms": "2室1厅",
    "direction": "南",
    "floor": "",
    "price": "5650",
    "tags": "",
    "source": "",
    "url": "https://bj.lianjia.com/zufang/BJ2159213170143526912.html",
    "rent_type": "整租",
    "location": "大兴区-西红门-橡树湾一期西区",
    "scraped_at": "2026-05-02 22:16:17",
    "region": "xihongmen",
    "unit_price": 73.8,
    "lat": 39.788669,
    "lng": 116.32142
  },
  {
    "title": "整租·世嘉博苑 1室0厅 南",
    "community": "世嘉博苑",
    "area": "40.66",
    "rooms": "1室0厅",
    "direction": "南",
    "floor": "",
    "price": "4225",
    "tags": "",
    "source": "",
    "url": "https://bj.lianjia.com/zufang/BJ1999833959680180224.html",
    "rent_type": "整租",
    "location": "大兴区-西红门-世嘉博苑",
    "scraped_at": "2026-05-02 22:16:17",
    "region": "xihongmen",
    "unit_price": 103.9,
    "lat": 39.79002,
    "lng": 116.32157
  },
  {
    "title": "整租·瑞海家园五区 3室2厅 南/北",
    "community": "瑞海家园五区",
    "area": "134.67",
    "rooms": "3室2厅",
    "direction": "南/北",
    "floor": "",
    "price": "6300",
    "tags": "",
    "source": "",
    "url": "https://bj.lianjia.com/zufang/BJ1999788670147624960.html",
    "rent_type": "整租",
    "location": "大兴区-西红门-瑞海家园五区",
    "scraped_at": "2026-05-02 22:16:17",
    "region": "xihongmen",
    "unit_price": 46.8,
    "lat": 39.783324,
    "lng": 116.330645
  },
  {
    "title": "整租·鸿坤理想城曦望山 3室1厅 南/北",
    "community": "鸿坤理想城曦望山",
    "area": "117.00",
    "rooms": "3室1厅",
    "direction": "南/北",
    "floor": "",
    "price": "7300",
    "tags": "",
    "source": "",
    "url": "https://bj.lianjia.com/zufang/BJ2008774908695281664.html",
    "rent_type": "整租",
    "location": "大兴区-西红门-鸿坤理想城曦望山",
    "scraped_at": "2026-05-02 22:16:17",
    "region": "xihongmen",
    "unit_price": 62.4,
    "lat": 39.790766,
    "lng": 116.333565
  },
  {
    "title": "整租·鸿坤理想城六期 1室1厅 南",
    "community": "鸿坤理想城六期",
    "area": "51.72",
    "rooms": "1室1厅",
    "direction": "南",
    "floor": "",
    "price": "3600",
    "tags": "",
    "source": "",
    "url": "https://bj.lianjia.com/zufang/BJ2157082962938560512.html",
    "rent_type": "整租",
    "location": "大兴区-西红门-鸿坤理想城六期",
    "scraped_at": "2026-05-02 22:16:17",
    "region": "xihongmen",
    "unit_price": 69.6,
    "lat": 39.791279,
    "lng": 116.334834
  },
  {
    "title": "整租·世嘉博苑 2室1厅 东南/北",
    "community": "世嘉博苑",
    "area": "76.27",
    "rooms": "2室1厅",
    "direction": "东南/北",
    "floor": "",
    "price": "5460",
    "tags": "",
    "source": "",
    "url": "https://bj.lianjia.com/zufang/BJ2159531155563479040.html",
    "rent_type": "整租",
    "location": "大兴区-西红门-世嘉博苑",
    "scraped_at": "2026-05-02 22:16:17",
    "region": "xihongmen",
    "unit_price": 71.6,
    "lat": 39.79002,
    "lng": 116.32157
  },
  {
    "title": "整租·林枫家园 2室2厅 南/北",
    "community": "林枫家园",
    "area": "90.31",
    "rooms": "2室2厅",
    "direction": "南/北",
    "floor": "",
    "price": "4300",
    "tags": "",
    "source": "",
    "url": "https://bj.lianjia.com/zufang/BJ2159878842422919168.html",
    "rent_type": "整租",
    "location": "大兴区-西红门-林枫家园",
    "scraped_at": "2026-05-02 22:16:17",
    "region": "xihongmen",
    "unit_price": 47.6,
    "lat": 39.791558,
    "lng": 116.352206
  },
  {
    "title": "整租·瑞海家园二区 3室2厅 南/北",
    "community": "瑞海家园二区",
    "area": "123.38",
    "rooms": "3室2厅",
    "direction": "南/北",
    "floor": "",
    "price": "6500",
    "tags": "",
    "source": "",
    "url": "https://bj.lianjia.com/zufang/BJ2160664614281412608.html",
    "rent_type": "整租",
    "location": "大兴区-西红门-瑞海家园二区",
    "scraped_at": "2026-05-02 22:16:17",
    "region": "xihongmen",
    "unit_price": 52.7,
    "lat": 39.784802,
    "lng": 116.325936
  },
  {
    "title": "整租·理想家园 1室0厅 南",
    "community": "理想家园",
    "area": "34.00",
    "rooms": "1室0厅",
    "direction": "南",
    "floor": "",
    "price": "2800",
    "tags": "",
    "source": "",
    "url": "https://bj.lianjia.com/zufang/BJ2036667354057801728.html",
    "rent_type": "整租",
    "location": "大兴区-西红门-理想家园",
    "scraped_at": "2026-05-02 22:16:20",
    "region": "xihongmen",
    "unit_price": 82.4,
    "lat": 39.78086,
    "lng": 116.33412
  },
  {
    "title": "整租·瑞海家园三区 3室2厅 南/北",
    "community": "瑞海家园三区",
    "area": "123.75",
    "rooms": "3室2厅",
    "direction": "南/北",
    "floor": "",
    "price": "6500",
    "tags": "",
    "source": "",
    "url": "https://bj.lianjia.com/zufang/BJ2023983598343815168.html",
    "rent_type": "整租",
    "location": "大兴区-西红门-瑞海家园三区",
    "scraped_at": "2026-05-02 22:16:20",
    "region": "xihongmen",
    "unit_price": 52.5,
    "lat": 39.781492,
    "lng": 116.324554
  },
  {
    "title": "整租·九龙山庄二区 4室2厅 南/北",
    "community": "九龙山庄二区",
    "area": "159.00",
    "rooms": "4室2厅",
    "direction": "南/北",
    "floor": "",
    "price": "9500",
    "tags": "",
    "source": "",
    "url": "https://bj.lianjia.com/zufang/BJ2026133218830319616.html",
    "rent_type": "整租",
    "location": "大兴区-西红门-九龙山庄二区",
    "scraped_at": "2026-05-02 22:16:20",
    "region": "xihongmen",
    "unit_price": 59.7,
    "lat": 39.802776,
    "lng": 116.338947
  },
  {
    "title": "整租·鸿坤理想城八期 2室1厅 南",
    "community": "鸿坤理想城八期",
    "area": "75.18",
    "rooms": "2室1厅",
    "direction": "南",
    "floor": "",
    "price": "4300",
    "tags": "",
    "source": "",
    "url": "https://bj.lianjia.com/zufang/BJ2045872871141539840.html",
    "rent_type": "整租",
    "location": "大兴区-西红门-鸿坤理想城八期",
    "scraped_at": "2026-05-02 22:16:20",
    "region": "xihongmen",
    "unit_price": 57.2,
    "lat": 39.791279,
    "lng": 116.334834
  },
  {
    "title": "整租·鸿坤理想城八期 3室1厅 南/北",
    "community": "鸿坤理想城八期",
    "area": "93.74",
    "rooms": "3室1厅",
    "direction": "南/北",
    "floor": "",
    "price": "4800",
    "tags": "",
    "source": "",
    "url": "https://bj.lianjia.com/zufang/BJ2047336234526703616.html",
    "rent_type": "整租",
    "location": "大兴区-西红门-鸿坤理想城八期",
    "scraped_at": "2026-05-02 22:16:20",
    "region": "xihongmen",
    "unit_price": 51.2,
    "lat": 39.791279,
    "lng": 116.334834
  },
  {
    "title": "整租·兴海家园星苑 2室1厅 南/北",
    "community": "兴海家园星苑",
    "area": "84.00",
    "rooms": "2室1厅",
    "direction": "南/北",
    "floor": "",
    "price": "5124",
    "tags": "",
    "source": "",
    "url": "https://bj.lianjia.com/zufang/BJ2049006093819969536.html",
    "rent_type": "整租",
    "location": "大兴区-西红门-兴海家园星苑",
    "scraped_at": "2026-05-02 22:16:20",
    "region": "xihongmen",
    "unit_price": 61.0,
    "lat": 39.789396,
    "lng": 116.330308
  },
  {
    "title": "整租·橡树湾一期东区 3室2厅 南/北",
    "community": "橡树湾一期东区",
    "area": "107.97",
    "rooms": "3室2厅",
    "direction": "南/北",
    "floor": "",
    "price": "7035",
    "tags": "",
    "source": "",
    "url": "https://bj.lianjia.com/zufang/BJ2026915003637956608.html",
    "rent_type": "整租",
    "location": "大兴区-西红门-橡树湾一期东区",
    "scraped_at": "2026-05-02 22:16:20",
    "region": "xihongmen",
    "unit_price": 65.2,
    "lat": 39.788669,
    "lng": 116.32142
  },
  {
    "title": "整租·鸿坤理想城八期 1室1厅 南",
    "community": "鸿坤理想城八期",
    "area": "45.11",
    "rooms": "1室1厅",
    "direction": "南",
    "floor": "",
    "price": "3308",
    "tags": "",
    "source": "",
    "url": "https://bj.lianjia.com/zufang/BJ2029436949143486464.html",
    "rent_type": "整租",
    "location": "大兴区-西红门-鸿坤理想城八期",
    "scraped_at": "2026-05-02 22:16:20",
    "region": "xihongmen",
    "unit_price": 73.3,
    "lat": 39.791279,
    "lng": 116.334834
  },
  {
    "title": "整租·世嘉博苑 2室1厅 南",
    "community": "世嘉博苑",
    "area": "87.79",
    "rooms": "2室1厅",
    "direction": "南",
    "floor": "",
    "price": "6825",
    "tags": "",
    "source": "",
    "url": "https://bj.lianjia.com/zufang/BJ2031603519525486592.html",
    "rent_type": "整租",
    "location": "大兴区-西红门-世嘉博苑",
    "scraped_at": "2026-05-02 22:16:20",
    "region": "xihongmen",
    "unit_price": 77.7,
    "lat": 39.79002,
    "lng": 116.32157
  },
  {
    "title": "整租·世嘉博苑 2室1厅 南/北",
    "community": "世嘉博苑",
    "area": "90.00",
    "rooms": "2室1厅",
    "direction": "南/北",
    "floor": "",
    "price": "5500",
    "tags": "",
    "source": "",
    "url": "https://bj.lianjia.com/zufang/BJ1892490888525905920.html",
    "rent_type": "整租",
    "location": "大兴区-西红门-世嘉博苑",
    "scraped_at": "2026-05-02 22:16:20",
    "region": "xihongmen",
    "unit_price": 61.1,
    "lat": 39.79002,
    "lng": 116.32157
  },
  {
    "title": "整租·鸿坤理想城七期 1室1厅 南",
    "community": "鸿坤理想城七期",
    "area": "52.79",
    "rooms": "1室1厅",
    "direction": "南",
    "floor": "",
    "price": "3200",
    "tags": "",
    "source": "",
    "url": "https://bj.lianjia.com/zufang/BJ2080876481726119936.html",
    "rent_type": "整租",
    "location": "大兴区-西红门-鸿坤理想城七期",
    "scraped_at": "2026-05-02 22:16:20",
    "region": "xihongmen",
    "unit_price": 60.6,
    "lat": 39.791279,
    "lng": 116.334834
  },
  {
    "title": "整租·瑞海家园一区 2室1厅 南/北",
    "community": "瑞海家园一区",
    "area": "97.27",
    "rooms": "2室1厅",
    "direction": "南/北",
    "floor": "",
    "price": "5000",
    "tags": "",
    "source": "",
    "url": "https://bj.lianjia.com/zufang/BJ2126239083607883776.html",
    "rent_type": "整租",
    "location": "大兴区-西红门-瑞海家园一区",
    "scraped_at": "2026-05-02 22:16:20",
    "region": "xihongmen",
    "unit_price": 51.4,
    "lat": 39.788939,
    "lng": 116.323232
  },
  {
    "title": "整租·世嘉博苑 1室0厅 东/南",
    "community": "世嘉博苑",
    "area": "53.30",
    "rooms": "1室0厅",
    "direction": "东/南",
    "floor": "",
    "price": "4200",
    "tags": "",
    "source": "",
    "url": "https://bj.lianjia.com/zufang/BJ2140626432605290496.html",
    "rent_type": "整租",
    "location": "大兴区-西红门-世嘉博苑",
    "scraped_at": "2026-05-02 22:16:20",
    "region": "xihongmen",
    "unit_price": 78.8,
    "lat": 39.79002,
    "lng": 116.32157
  },
  {
    "title": "整租·理想家园 2室1厅 南/西南",
    "community": "理想家园",
    "area": "70.87",
    "rooms": "2室1厅",
    "direction": "南/西南",
    "floor": "",
    "price": "3990",
    "tags": "",
    "source": "",
    "url": "https://bj.lianjia.com/zufang/BJ2151546306282127360.html",
    "rent_type": "整租",
    "location": "大兴区-西红门-理想家园",
    "scraped_at": "2026-05-02 22:16:20",
    "region": "xihongmen",
    "unit_price": 56.3,
    "lat": 39.78086,
    "lng": 116.33412
  },
  {
    "title": "整租·五爱屯东街64号院 3室1厅 南/北",
    "community": "五爱屯东街64号院",
    "area": "69.75",
    "rooms": "3室1厅",
    "direction": "南/北",
    "floor": "",
    "price": "3890",
    "tags": "",
    "source": "",
    "url": "https://bj.lianjia.com/zufang/BJ2152338565315428352.html",
    "rent_type": "整租",
    "location": "丰台区-西红门-五爱屯东街",
    "scraped_at": "2026-05-02 22:16:20",
    "region": "xihongmen",
    "unit_price": 55.8,
    "lat": 39.79711,
    "lng": 116.373962
  }
]