[
  {
    "title": "整租·宝星国际二期 1室0厅 东",
    "community": "宝星国际二期",
    "area": "64.11",
    "rooms": "1室0厅",
    "direction": "东",
    "floor": "",
    "price": "6300",
    "tags": "",
    "source": "",
    "url": "https://bj.lianjia.com/zufang/BJ2157774087278034944.html",
    "rent_type": "整租",
    "location": "朝阳区-望京-宝星国际二期",
    "scraped_at": "2026-05-02 21:11:53",
    "region": "望京",
    "unit_price": 98.3,
    "lat": 39.999595,
    "lng": 116.474926
  },
  {
    "title": "整租·望京西园三区 3室2厅 南/北",
    "community": "望京西园三区",
    "area": "137.57",
    "rooms": "3室2厅",
    "direction": "南/北",
    "floor": "",
    "price": "8100",
    "tags": "",
    "source": "",
    "url": "https://bj.lianjia.com/zufang/BJ2146553919881347072.html",
    "rent_type": "整租",
    "location": "朝阳区-望京-望京西园三区",
    "scraped_at": "2026-05-02 21:10:21",
    "region": "望京",
    "unit_price": 58.9,
    "lat": 39.999276,
    "lng": 116.470198
  },
  {
    "title": "整租·中环南路11号院 2室1厅 南",
    "community": "中环南路11号院",
    "area": "60.00",
    "rooms": "2室1厅",
    "direction": "南",
    "floor": "",
    "price": "5200",
    "tags": "",
    "source": "",
    "url": "https://bj.lianjia.com/zufang/BJ2158395476062240768.html",
    "rent_type": "整租",
    "location": "朝阳区-望京-中环南路",
    "scraped_at": "2026-05-02 21:12:19",
    "region": "望京",
    "unit_price": 86.7,
    "lat": 39.984902,
    "lng": 116.464733
  },
  {
    "title": "整租·中建宸园 4室3厅 南/北",
    "community": "中建宸园",
    "area": "278.00",
    "rooms": "4室3厅",
    "direction": "南/北",
    "floor": "",
    "price": "30000",
    "tags": "",
    "source": "",
    "url": "https://bj.lianjia.com/zufang/BJ2112813835642470400.html",
    "rent_type": "整租",
    "location": "朝阳区-望京-中建宸园",
    "scraped_at": "2026-05-02 21:10:21",
    "region": "望京",
    "unit_price": 107.9,
    "lat": 39.987806,
    "lng": 116.463631
  },
  {
    "title": "整租·北京香颂三期 2室2厅 南",
    "community": "北京香颂三期",
    "area": "115.88",
    "rooms": "2室2厅",
    "direction": "南",
    "floor": "",
    "price": "7200",
    "tags": "",
    "source": "",
    "url": "https://bj.lianjia.com/zufang/BJ2145875160811438080.html",
    "rent_type": "整租",
    "location": "朝阳区-望京-北京香颂三期",
    "scraped_at": "2026-05-02 21:14:34",
    "region": "望京",
    "unit_price": 62.1,
    "lat": 39.99238,
    "lng": 116.446
  },
  {
    "title": "独栋·好房子 望京地铁店 【真房+真价+预约看】望京 地铁旁 希尔顿风 无竞品 抢购 送空调+供暖 1室1厅",
    "community": "好房子 望京地铁店 【真房+真价+预约看】望京 地铁旁 希尔顿风 无竞品 抢购 送空调+供暖",
    "area": "35.00",
    "rooms": "1室1厅",
    "direction": "",
    "floor": "",
    "price": "4300-4500",
    "tags": "",
    "source": "",
    "url": "https://bj.lianjia.com/apartment/103841.html",
    "rent_type": "独栋",
    "location": "",
    "scraped_at": "2026-05-02 21:10:21",
    "region": "望京",
    "unit_price": "",
    "lat": 40.002086,
    "lng": 116.456448
  },
  {
    "title": "整租·利泽西园 1室0厅 南",
    "community": "利泽西园",
    "area": "63.48",
    "rooms": "1室0厅",
    "direction": "南",
    "floor": "",
    "price": "6300",
    "tags": "",
    "source": "",
    "url": "https://bj.lianjia.com/zufang/BJ2160636328880898048.html",
    "rent_type": "整租",
    "location": "朝阳区-望京-利泽西园",
    "scraped_at": "2026-05-02 21:17:16",
    "region": "望京",
    "unit_price": 99.2,
    "lat": 40.011789,
    "lng": 116.460433
  },
  {
    "title": "整租·首开金茂·望京樾 4室2厅 南/北",
    "community": "首开金茂·望京樾",
    "area": "122.00",
    "rooms": "4室2厅",
    "direction": "南/北",
    "floor": "",
    "price": "12800",
    "tags": "",
    "source": "",
    "url": "https://bj.lianjia.com/zufang/BJ2146599620027875328.html",
    "rent_type": "整租",
    "location": "朝阳区-望京-首开金茂",
    "scraped_at": "2026-05-02 21:10:21",
    "region": "望京",
    "unit_price": 104.9,
    "lat": 39.992925,
    "lng": 116.480478
  },
  {
    "title": "整租·合生麒麟社 1房间 北",
    "community": "合生麒麟社 1房间 北",
    "area": "64.00",
    "rooms": "",
    "direction": "",
    "floor": "",
    "price": "5800",
    "tags": "",
    "source": "",
    "url": "https://bj.lianjia.com/zufang/BJ2127779609050087424.html",
    "rent_type": "整租",
    "location": "朝阳区-望京-合生麒麟社",
    "scraped_at": "2026-05-02 21:10:21",
    "region": "望京",
    "unit_price": 90.6,
    "lat": 39.995364,
    "lng": 116.471615
  },
  {
    "title": "整租·宝星园一区 3室2厅 南",
    "community": "宝星园一区",
    "area": "126.00",
    "rooms": "3室2厅",
    "direction": "南",
    "floor": "",
    "price": "11500",
    "tags": "",
    "source": "",
    "url": "https://bj.lianjia.com/zufang/BJ2150477520946855936.html",
    "rent_type": "整租",
    "location": "朝阳区-望京-宝星园一区",
    "scraped_at": "2026-05-02 21:10:21",
    "region": "望京",
    "unit_price": 91.3,
    "lat": 39.999934,
    "lng": 116.474186
  },
  {
    "title": "整租·望京西园三区 2室2厅 东/南/北",
    "community": "望京西园三区",
    "area": "112.00",
    "rooms": "2室2厅",
    "direction": "东/南/北",
    "floor": "",
    "price": "8800",
    "tags": "",
    "source": "",
    "url": "https://bj.lianjia.com/zufang/BJ2154099789371801600.html",
    "rent_type": "整租",
    "location": "朝阳区-望京-望京西园三区",
    "scraped_at": "2026-05-02 21:10:21",
    "region": "望京",
    "unit_price": 78.6,
    "lat": 39.999276,
    "lng": 116.470198
  },
  {
    "title": "整租·朝悦居 1室1厅 南",
    "community": "朝悦居",
    "area": "56.00",
    "rooms": "1室1厅",
    "direction": "南",
    "floor": "",
    "price": "6300",
    "tags": "",
    "source": "",
    "url": "https://bj.lianjia.com/zufang/BJ1956228817781522432.html",
    "rent_type": "整租",
    "location": "朝阳区-望京-朝悦居",
    "scraped_at": "2026-05-02 21:16:47",
    "region": "望京",
    "unit_price": 112.5,
    "lat": 40.000786,
    "lng": 116.463018
  },
  {
    "title": "整租·北纬40度二期 2室1厅 南/北",
    "community": "北纬40度二期",
    "area": "98.43",
    "rooms": "2室1厅",
    "direction": "南/北",
    "floor": "",
    "price": "8500",
    "tags": "",
    "source": "",
    "url": "https://bj.lianjia.com/zufang/BJ2156424076292259840.html",
    "rent_type": "整租",
    "location": "朝阳区-望京-北纬",
    "scraped_at": "2026-05-02 21:11:46",
    "region": "望京",
    "unit_price": 86.4,
    "lat": 40.011829,
    "lng": 116.456016
  },
  {
    "title": "整租·华樾北京一期 3室2厅 南/北",
    "community": "华樾北京一期",
    "area": "88.04",
    "rooms": "3室2厅",
    "direction": "南/北",
    "floor": "",
    "price": "9500",
    "tags": "",
    "source": "",
    "url": "https://bj.lianjia.com/zufang/BJ2126922861347078144.html",
    "rent_type": "整租",
    "location": "朝阳区-望京-华樾北京一期",
    "scraped_at": "2026-05-02 21:10:42",
    "region": "望京",
    "unit_price": 107.9,
    "lat": 40.009716,
    "lng": 116.463088
  },
  {
    "title": "整租·望京花园东区 2室1厅 西南",
    "community": "望京花园东区",
    "area": "102.55",
    "rooms": "2室1厅",
    "direction": "西南",
    "floor": "",
    "price": "7800",
    "tags": "",
    "source": "",
    "url": "https://bj.lianjia.com/zufang/BJ2153435981603143680.html",
    "rent_type": "整租",
    "location": "朝阳区-望京-望京花园东区",
    "scraped_at": "2026-05-02 21:16:35",
    "region": "望京",
    "unit_price": 76.1,
    "lat": 40.00698,
    "lng": 116.461996
  },
  {
    "title": "整租·保利中央公园 4室2厅 南/北",
    "community": "保利中央公园",
    "area": "148.01",
    "rooms": "4室2厅",
    "direction": "南/北",
    "floor": "",
    "price": "21000",
    "tags": "",
    "source": "",
    "url": "https://bj.lianjia.com/zufang/BJ2159512710532825088.html",
    "rent_type": "整租",
    "location": "朝阳区-望京-保利中央公园",
    "scraped_at": "2026-05-02 21:12:19",
    "region": "望京",
    "unit_price": 141.9,
    "lat": 39.997009,
    "lng": 116.483345
  },
  {
    "title": "整租·世安家园 1室1厅 西南",
    "community": "世安家园",
    "area": "62.28",
    "rooms": "1室1厅",
    "direction": "西南",
    "floor": "",
    "price": "5900",
    "tags": "",
    "source": "",
    "url": "https://bj.lianjia.com/zufang/BJ2158887749271158784.html",
    "rent_type": "整租",
    "location": "朝阳区-望京-世安家园",
    "scraped_at": "2026-05-02 21:12:19",
    "region": "望京",
    "unit_price": 94.7,
    "lat": 39.984316,
    "lng": 116.461788
  },
  {
    "title": "整租·炫彩嘉轩 2室1厅 东",
    "community": "炫彩嘉轩",
    "area": "90.90",
    "rooms": "2室1厅",
    "direction": "东",
    "floor": "",
    "price": "8000",
    "tags": "",
    "source": "",
    "url": "https://bj.lianjia.com/zufang/BJ2155535602152374272.html",
    "rent_type": "整租",
    "location": "朝阳区-望京-炫彩嘉轩",
    "scraped_at": "2026-05-02 21:10:21",
    "region": "望京",
    "unit_price": 88.0,
    "lat": 39.988875,
    "lng": 116.476467
  },
  {
    "title": "整租·朝庭 1室1厅 西南",
    "community": "朝庭",
    "area": "68.00",
    "rooms": "1室1厅",
    "direction": "西南",
    "floor": "",
    "price": "7900",
    "tags": "",
    "source": "",
    "url": "https://bj.lianjia.com/zufang/BJ2154853405024059392.html",
    "rent_type": "整租",
    "location": "朝阳区-望京-朝庭",
    "scraped_at": "2026-05-02 21:10:21",
    "region": "望京",
    "unit_price": 116.2,
    "lat": 39.986922,
    "lng": 116.47725
  },
  {
    "title": "整租·东洲家园 2室1厅 南",
    "community": "东洲家园",
    "area": "86.00",
    "rooms": "2室1厅",
    "direction": "南",
    "floor": "",
    "price": "6200",
    "tags": "",
    "source": "",
    "url": "https://bj.lianjia.com/zufang/BJ2148078003714785280.html",
    "rent_type": "整租",
    "location": "朝阳区-望京-东洲家园",
    "scraped_at": "2026-05-02 21:11:34",
    "region": "望京",
    "unit_price": 72.1,
    "lat": 39.995046,
    "lng": 116.478368
  },
  {
    "title": "整租·悠乐汇 1房间 东",
    "community": "悠乐汇 1房间 东",
    "area": "55.89",
    "rooms": "",
    "direction": "",
    "floor": "",
    "price": "4800",
    "tags": "",
    "source": "",
    "url": "https://bj.lianjia.com/zufang/BJ2049510740548648960.html",
    "rent_type": "整租",
    "location": "朝阳区-望京-悠乐汇",
    "scraped_at": "2026-05-02 21:15:04",
    "region": "望京",
    "unit_price": 85.9,
    "lat": 39.987996,
    "lng": 116.471828
  },
  {
    "title": "整租·融科橄榄城二期 2室1厅 南",
    "community": "融科橄榄城二期",
    "area": "95.62",
    "rooms": "2室1厅",
    "direction": "南",
    "floor": "",
    "price": "10000",
    "tags": "",
    "source": "",
    "url": "https://bj.lianjia.com/zufang/BJ2148726776208031744.html",
    "rent_type": "整租",
    "location": "朝阳区-望京-融科橄榄城二期",
    "scraped_at": "2026-05-02 21:11:34",
    "region": "望京",
    "unit_price": 104.6,
    "lat": 39.995796,
    "lng": 116.477718
  },
  {
    "title": "整租·望京新城 3室1厅 西南",
    "community": "望京新城",
    "area": "126.00",
    "rooms": "3室1厅",
    "direction": "西南",
    "floor": "",
    "price": "9300",
    "tags": "",
    "source": "",
    "url": "https://bj.lianjia.com/zufang/BJ2158478027502125056.html",
    "rent_type": "整租",
    "location": "朝阳区-望京-望京新城",
    "scraped_at": "2026-05-02 21:12:19",
    "region": "望京",
    "unit_price": 73.8,
    "lat": 39.996056,
    "lng": 116.468108
  },
  {
    "title": "整租·博雅国际 1室0厅 西",
    "community": "博雅国际",
    "area": "50.00",
    "rooms": "1室0厅",
    "direction": "西",
    "floor": "",
    "price": "5000",
    "tags": "",
    "source": "",
    "url": "https://bj.lianjia.com/zufang/BJ2020084612721541120.html",
    "rent_type": "整租",
    "location": "朝阳区-望京-博雅国际",
    "scraped_at": "2026-05-02 21:16:35",
    "region": "望京",
    "unit_price": 100.0,
    "lat": 40.012612,
    "lng": 116.463274
  },
  {
    "title": "整租·夏都盈座 1室0厅 东",
    "community": "夏都盈座",
    "area": "55.00",
    "rooms": "1室0厅",
    "direction": "东",
    "floor": "",
    "price": "6000",
    "tags": "",
    "source": "",
    "url": "https://bj.lianjia.com/zufang/BJ2151590416267345920.html",
    "rent_type": "整租",
    "location": "朝阳区-望京-夏都盈座",
    "scraped_at": "2026-05-02 21:12:27",
    "region": "望京",
    "unit_price": 109.1,
    "lat": 39.995116,
    "lng": 116.461238
  },
  {
    "title": "独栋·青柚•公寓 望京店 短租特惠，15号线望京东站，明窗，实体墙，可养宠物，开间 开间",
    "community": "青柚•公寓 望京店 短租特惠，15号线望京东站，明窗，实体墙，可养宠物，开间 开间",
    "area": "30.00",
    "rooms": "",
    "direction": "",
    "floor": "",
    "price": "5400",
    "tags": "",
    "source": "",
    "url": "https://bj.lianjia.com/apartment/103144.html",
    "rent_type": "独栋",
    "location": "",
    "scraped_at": "2026-05-02 21:10:25",
    "region": "望京",
    "unit_price": 180.0,
    "lat": 40.130526,
    "lng": 116.683172
  },
  {
    "title": "整租·夏都盈座 3室2厅 南/北",
    "community": "夏都盈座",
    "area": "146.17",
    "rooms": "3室2厅",
    "direction": "南/北",
    "floor": "",
    "price": "12400",
    "tags": "",
    "source": "",
    "url": "https://bj.lianjia.com/zufang/BJ2154184069817040896.html",
    "rent_type": "整租",
    "location": "朝阳区-望京-夏都盈座",
    "scraped_at": "2026-05-02 21:17:16",
    "region": "望京",
    "unit_price": 84.8,
    "lat": 39.995116,
    "lng": 116.461238
  },
  {
    "title": "整租·首开知语城 4室2厅 南/北",
    "community": "首开知语城",
    "area": "182.44",
    "rooms": "4室2厅",
    "direction": "南/北",
    "floor": "",
    "price": "16800",
    "tags": "",
    "source": "",
    "url": "https://bj.lianjia.com/zufang/BJ2146595617164492800.html",
    "rent_type": "整租",
    "location": "朝阳区-望京-首开知语城",
    "scraped_at": "2026-05-02 21:10:21",
    "region": "望京",
    "unit_price": 92.1,
    "lat": 39.992925,
    "lng": 116.480478
  },
  {
    "title": "整租·望京新城 2室1厅 东南",
    "community": "望京新城",
    "area": "86.36",
    "rooms": "2室1厅",
    "direction": "东南",
    "floor": "",
    "price": "8000",
    "tags": "",
    "source": "",
    "url": "https://bj.lianjia.com/zufang/BJ2159501452333023232.html",
    "rent_type": "整租",
    "location": "朝阳区-望京-望京新城",
    "scraped_at": "2026-05-02 21:12:19",
    "region": "望京",
    "unit_price": 92.6,
    "lat": 39.996056,
    "lng": 116.468108
  },
  {
    "title": "整租·上京新航线 2室1厅 西北",
    "community": "上京新航线",
    "area": "80.46",
    "rooms": "2室1厅",
    "direction": "西北",
    "floor": "",
    "price": "7500",
    "tags": "",
    "source": "",
    "url": "https://bj.lianjia.com/zufang/BJ2148779907776249856.html",
    "rent_type": "整租",
    "location": "朝阳区-望京-上京新航线",
    "scraped_at": "2026-05-02 21:14:34",
    "region": "望京",
    "unit_price": 93.2,
    "lat": 39.991666,
    "lng": 116.462678
  },
  {
    "title": "整租·宝星国际二期 1室1厅 南",
    "community": "宝星国际二期",
    "area": "63.30",
    "rooms": "1室1厅",
    "direction": "南",
    "floor": "",
    "price": "6300",
    "tags": "",
    "source": "",
    "url": "https://bj.lianjia.com/zufang/BJ2140819808466239488.html",
    "rent_type": "整租",
    "location": "朝阳区-望京-宝星国际二期",
    "scraped_at": "2026-05-02 21:10:25",
    "region": "望京",
    "unit_price": 99.5,
    "lat": 39.999595,
    "lng": 116.474926
  },
  {
    "title": "整租·臻园 3室2厅 东/南/北",
    "community": "臻园",
    "area": "177.44",
    "rooms": "3室2厅",
    "direction": "东/南/北",
    "floor": "",
    "price": "22500",
    "tags": "",
    "source": "",
    "url": "https://bj.lianjia.com/zufang/BJ2137998766446215168.html",
    "rent_type": "整租",
    "location": "朝阳区-望京-臻园",
    "scraped_at": "2026-05-02 21:11:37",
    "region": "望京",
    "unit_price": 126.8,
    "lat": 39.988875,
    "lng": 116.476467
  },
  {
    "title": "整租·悠乐汇 1房间 东",
    "community": "悠乐汇 1房间 东",
    "area": "45.00",
    "rooms": "",
    "direction": "",
    "floor": "",
    "price": "4500",
    "tags": "",
    "source": "",
    "url": "https://bj.lianjia.com/zufang/BJ2143914775090823168.html",
    "rent_type": "整租",
    "location": "朝阳区-望京-悠乐汇",
    "scraped_at": "2026-05-02 21:10:25",
    "region": "望京",
    "unit_price": 100.0,
    "lat": 39.987996,
    "lng": 116.471828
  },
  {
    "title": "整租·南湖渠西里 3室1厅 南/北",
    "community": "南湖渠西里",
    "area": "69.28",
    "rooms": "3室1厅",
    "direction": "南/北",
    "floor": "",
    "price": "6800",
    "tags": "",
    "source": "",
    "url": "https://bj.lianjia.com/zufang/BJ2158225147662696448.html",
    "rent_type": "整租",
    "location": "朝阳区-望京-南湖渠西里",
    "scraped_at": "2026-05-02 21:11:53",
    "region": "望京",
    "unit_price": 98.2,
    "lat": 39.991296,
    "lng": 116.449637
  },
  {
    "title": "整租·上京新航线 1室0厅 西",
    "community": "上京新航线",
    "area": "45.23",
    "rooms": "1室0厅",
    "direction": "西",
    "floor": "",
    "price": "6500",
    "tags": "",
    "source": "",
    "url": "https://bj.lianjia.com/zufang/BJ2155300689633345536.html",
    "rent_type": "整租",
    "location": "朝阳区-望京-上京新航线",
    "scraped_at": "2026-05-02 21:13:40",
    "region": "望京",
    "unit_price": 143.7,
    "lat": 39.991666,
    "lng": 116.462678
  },
  {
    "title": "整租·朝悦居 2室1厅 南",
    "community": "朝悦居",
    "area": "79.09",
    "rooms": "2室1厅",
    "direction": "南",
    "floor": "",
    "price": "7500",
    "tags": "",
    "source": "",
    "url": "https://bj.lianjia.com/zufang/BJ2147710707209076736.html",
    "rent_type": "整租",
    "location": "朝阳区-望京-朝悦居",
    "scraped_at": "2026-05-02 21:10:25",
    "region": "望京",
    "unit_price": 94.8,
    "lat": 40.000786,
    "lng": 116.463018
  },
  {
    "title": "整租·望京花园东区 3室1厅 东南",
    "community": "望京花园东区",
    "area": "130.56",
    "rooms": "3室1厅",
    "direction": "东南",
    "floor": "",
    "price": "11000",
    "tags": "",
    "source": "",
    "url": "https://bj.lianjia.com/zufang/BJ2158228737714290688.html",
    "rent_type": "整租",
    "location": "朝阳区-望京-望京花园东区",
    "scraped_at": "2026-05-02 21:12:19",
    "region": "望京",
    "unit_price": 84.3,
    "lat": 40.00698,
    "lng": 116.461996
  },
  {
    "title": "整租·利泽西园 3室1厅 南/北",
    "community": "利泽西园",
    "area": "106.98",
    "rooms": "3室1厅",
    "direction": "南/北",
    "floor": "",
    "price": "9200",
    "tags": "",
    "source": "",
    "url": "https://bj.lianjia.com/zufang/BJ2137936865980841984.html",
    "rent_type": "整租",
    "location": "朝阳区-望京-利泽西园",
    "scraped_at": "2026-05-02 21:11:37",
    "region": "望京",
    "unit_price": 86.0,
    "lat": 40.011789,
    "lng": 116.460433
  },
  {
    "title": "整租·悠乐汇 1房间 东北",
    "community": "悠乐汇 1房间 东北",
    "area": "55.89",
    "rooms": "",
    "direction": "",
    "floor": "",
    "price": "5000",
    "tags": "",
    "source": "",
    "url": "https://bj.lianjia.com/zufang/BJ2110383670685597696.html",
    "rent_type": "整租",
    "location": "朝阳区-望京-悠乐汇",
    "scraped_at": "2026-05-02 21:15:25",
    "region": "望京",
    "unit_price": 89.5,
    "lat": 39.987996,
    "lng": 116.471828
  },
  {
    "title": "整租·季景沁园 1室1厅 东",
    "community": "季景沁园",
    "area": "75.00",
    "rooms": "1室1厅",
    "direction": "东",
    "floor": "",
    "price": "8000",
    "tags": "",
    "source": "",
    "url": "https://bj.lianjia.com/zufang/BJ2158187344354607104.html",
    "rent_type": "整租",
    "location": "朝阳区-望京-季景沁园",
    "scraped_at": "2026-05-02 21:11:53",
    "region": "望京",
    "unit_price": 106.7,
    "lat": 39.988875,
    "lng": 116.476467
  },
  {
    "title": "整租·华樾北京二期 3室1厅 南/北",
    "community": "华樾北京二期",
    "area": "88.68",
    "rooms": "3室1厅",
    "direction": "南/北",
    "floor": "",
    "price": "9700",
    "tags": "",
    "source": "",
    "url": "https://bj.lianjia.com/zufang/BJ2139675832916901888.html",
    "rent_type": "整租",
    "location": "朝阳区-望京-华樾北京二期",
    "scraped_at": "2026-05-02 21:10:25",
    "region": "望京",
    "unit_price": 109.4,
    "lat": 40.009716,
    "lng": 116.463088
  },
  {
    "title": "整租·博雅国际 1室0厅 北",
    "community": "博雅国际",
    "area": "49.33",
    "rooms": "1室0厅",
    "direction": "北",
    "floor": "",
    "price": "5200",
    "tags": "",
    "source": "",
    "url": "https://bj.lianjia.com/zufang/BJ1654848083005014016.html",
    "rent_type": "整租",
    "location": "朝阳区-望京-博雅国际",
    "scraped_at": "2026-05-02 21:10:25",
    "region": "望京",
    "unit_price": 105.4,
    "lat": 40.012612,
    "lng": 116.463274
  },
  {
    "title": "整租·利泽西园 3室1厅 南/北",
    "community": "利泽西园",
    "area": "106.98",
    "rooms": "3室1厅",
    "direction": "南/北",
    "floor": "",
    "price": "8900",
    "tags": "",
    "source": "",
    "url": "https://bj.lianjia.com/zufang/BJ2141459804302868480.html",
    "rent_type": "整租",
    "location": "朝阳区-望京-利泽西园",
    "scraped_at": "2026-05-02 21:10:25",
    "region": "望京",
    "unit_price": 83.2,
    "lat": 40.011789,
    "lng": 116.460433
  },
  {
    "title": "整租·湖光壹号 1室1厅 南",
    "community": "湖光壹号",
    "area": "90.00",
    "rooms": "1室1厅",
    "direction": "南",
    "floor": "",
    "price": "8700",
    "tags": "",
    "source": "",
    "url": "https://bj.lianjia.com/zufang/BJ2148993820191096832.html",
    "rent_type": "整租",
    "location": "朝阳区-望京-湖光壹号",
    "scraped_at": "2026-05-02 21:11:34",
    "region": "望京",
    "unit_price": 96.7,
    "lat": 39.996109,
    "lng": 116.460053
  },
  {
    "title": "整租·望京花园东区 3室1厅 西南",
    "community": "望京花园东区",
    "area": "120.92",
    "rooms": "3室1厅",
    "direction": "西南",
    "floor": "",
    "price": "10000",
    "tags": "",
    "source": "",
    "url": "https://bj.lianjia.com/zufang/BJ1900775199117148160.html",
    "rent_type": "整租",
    "location": "朝阳区-望京-望京花园东区",
    "scraped_at": "2026-05-02 21:15:34",
    "region": "望京",
    "unit_price": 82.7,
    "lat": 40.00698,
    "lng": 116.461996
  },
  {
    "title": "整租·北纬40度二期 1室1厅 南",
    "community": "北纬40度二期",
    "area": "67.08",
    "rooms": "1室1厅",
    "direction": "南",
    "floor": "",
    "price": "7200",
    "tags": "",
    "source": "",
    "url": "https://bj.lianjia.com/zufang/BJ2155211238949257216.html",
    "rent_type": "整租",
    "location": "朝阳区-望京-北纬",
    "scraped_at": "2026-05-02 21:10:25",
    "region": "望京",
    "unit_price": 107.3,
    "lat": 40.011829,
    "lng": 116.456016
  },
  {
    "title": "整租·花家地西里二区 3室1厅 东/西",
    "community": "花家地西里二区",
    "area": "86.00",
    "rooms": "3室1厅",
    "direction": "东/西",
    "floor": "",
    "price": "7200",
    "tags": "",
    "source": "",
    "url": "https://bj.lianjia.com/zufang/BJ2140305155424256000.html",
    "rent_type": "整租",
    "location": "朝阳区-望京-花家地西里二区",
    "scraped_at": "2026-05-02 21:10:25",
    "region": "望京",
    "unit_price": 83.7,
    "lat": 39.986865,
    "lng": 116.457541
  },
  {
    "title": "整租·朝悦居 2室1厅 南/北",
    "community": "朝悦居",
    "area": "78.46",
    "rooms": "2室1厅",
    "direction": "南/北",
    "floor": "",
    "price": "7500",
    "tags": "",
    "source": "",
    "url": "https://bj.lianjia.com/zufang/BJ2035739546825523200.html",
    "rent_type": "整租",
    "location": "朝阳区-望京-朝悦居",
    "scraped_at": "2026-05-02 21:10:27",
    "region": "望京",
    "unit_price": 95.6,
    "lat": 40.000786,
    "lng": 116.463018
  },
  {
    "title": "整租·世安家园 1室1厅 东南",
    "community": "世安家园",
    "area": "88.00",
    "rooms": "1室1厅",
    "direction": "东南",
    "floor": "",
    "price": "6300",
    "tags": "",
    "source": "",
    "url": "https://bj.lianjia.com/zufang/BJ2122615933582180352.html",
    "rent_type": "整租",
    "location": "朝阳区-望京-世安家园",
    "scraped_at": "2026-05-02 21:10:25",
    "region": "望京",
    "unit_price": 71.6,
    "lat": 39.984316,
    "lng": 116.461788
  },
  {
    "title": "整租·博雅国际 1室1厅 南/西",
    "community": "博雅国际",
    "area": "101.38",
    "rooms": "1室1厅",
    "direction": "南/西",
    "floor": "",
    "price": "7600",
    "tags": "",
    "source": "",
    "url": "https://bj.lianjia.com/zufang/BJ2140385434490896384.html",
    "rent_type": "整租",
    "location": "朝阳区-望京-博雅国际",
    "scraped_at": "2026-05-02 21:10:25",
    "region": "望京",
    "unit_price": 75.0,
    "lat": 40.012612,
    "lng": 116.463274
  },
  {
    "title": "整租·澳洲康都 2室2厅 东/北",
    "community": "澳洲康都",
    "area": "90.80",
    "rooms": "2室2厅",
    "direction": "东/北",
    "floor": "",
    "price": "7000",
    "tags": "",
    "source": "",
    "url": "https://bj.lianjia.com/zufang/BJ1881975078149685248.html",
    "rent_type": "整租",
    "location": "朝阳区-望京-澳洲康都",
    "scraped_at": "2026-05-02 21:10:27",
    "region": "望京",
    "unit_price": 77.1,
    "lat": 39.988875,
    "lng": 116.476467
  },
  {
    "title": "整租·臻园 4室2厅 南/北",
    "community": "臻园",
    "area": "188.00",
    "rooms": "4室2厅",
    "direction": "南/北",
    "floor": "",
    "price": "24000",
    "tags": "",
    "source": "",
    "url": "https://bj.lianjia.com/zufang/BJ2103070188755746816.html",
    "rent_type": "整租",
    "location": "朝阳区-望京-臻园",
    "scraped_at": "2026-05-02 21:11:26",
    "region": "望京",
    "unit_price": 127.7,
    "lat": 39.988875,
    "lng": 116.476467
  },
  {
    "title": "独栋·鹏丰欣寓 望京店 西南户型--精装修 阳光充足 拎包入住 开间",
    "community": "鹏丰欣寓 望京店 西南户型--精装修 阳光充足 拎包入住 开间",
    "area": "25.00",
    "rooms": "",
    "direction": "",
    "floor": "",
    "price": "4450",
    "tags": "",
    "source": "",
    "url": "https://bj.lianjia.com/apartment/92614.html",
    "rent_type": "独栋",
    "location": "",
    "scraped_at": "2026-05-02 21:10:25",
    "region": "望京",
    "unit_price": 178.0,
    "lat": 39.898796,
    "lng": 116.666908
  },
  {
    "title": "整租·金隅国际 2室1厅 南/北",
    "community": "金隅国际",
    "area": "109.00",
    "rooms": "2室1厅",
    "direction": "南/北",
    "floor": "",
    "price": "7600",
    "tags": "",
    "source": "",
    "url": "https://bj.lianjia.com/zufang/BJ2043949747198230528.html",
    "rent_type": "整租",
    "location": "朝阳区-望京-金隅国际",
    "scraped_at": "2026-05-02 21:16:53",
    "region": "望京",
    "unit_price": 69.7,
    "lat": 39.984271,
    "lng": 116.451643
  },
  {
    "title": "整租·LOFTEL 5室2厅 东/东南/南",
    "community": "LOFTEL",
    "area": "330.00",
    "rooms": "5室2厅",
    "direction": "东/东南/南",
    "floor": "",
    "price": "30000",
    "tags": "",
    "source": "",
    "url": "https://bj.lianjia.com/zufang/BJ2146227432368111616.html",
    "rent_type": "整租",
    "location": "朝阳区-望京",
    "scraped_at": "2026-05-02 21:10:25",
    "region": "望京",
    "unit_price": 90.9,
    "lat": 39.988875,
    "lng": 116.476467
  },
  {
    "title": "整租·宝星国际二期 1室1厅 西",
    "community": "宝星国际二期",
    "area": "82.70",
    "rooms": "1室1厅",
    "direction": "西",
    "floor": "",
    "price": "8100",
    "tags": "",
    "source": "",
    "url": "https://bj.lianjia.com/zufang/BJ2129547605414248448.html",
    "rent_type": "整租",
    "location": "朝阳区-望京-宝星国际二期",
    "scraped_at": "2026-05-02 21:10:27",
    "region": "望京",
    "unit_price": 97.9,
    "lat": 39.999595,
    "lng": 116.474926
  },
  {
    "title": "整租·宝星国际二期 1室1厅 西北",
    "community": "宝星国际二期",
    "area": "80.32",
    "rooms": "1室1厅",
    "direction": "西北",
    "floor": "",
    "price": "7500",
    "tags": "",
    "source": "",
    "url": "https://bj.lianjia.com/zufang/BJ2154209958093127680.html",
    "rent_type": "整租",
    "location": "朝阳区-望京-宝星国际二期",
    "scraped_at": "2026-05-02 21:10:27",
    "region": "望京",
    "unit_price": 93.4,
    "lat": 39.999595,
    "lng": 116.474926
  },
  {
    "title": "整租·上京新航线 3室2厅 南/北",
    "community": "上京新航线",
    "area": "133.65",
    "rooms": "3室2厅",
    "direction": "南/北",
    "floor": "",
    "price": "14000",
    "tags": "",
    "source": "",
    "url": "https://bj.lianjia.com/zufang/BJ2106292091301658624.html",
    "rent_type": "整租",
    "location": "朝阳区-望京-上京新航线",
    "scraped_at": "2026-05-02 21:11:26",
    "region": "望京",
    "unit_price": 104.8,
    "lat": 39.991666,
    "lng": 116.462678
  },
  {
    "title": "整租·东湖湾三期 2室1厅 南",
    "community": "东湖湾三期",
    "area": "133.31",
    "rooms": "2室1厅",
    "direction": "南",
    "floor": "",
    "price": "20999",
    "tags": "",
    "source": "",
    "url": "https://bj.lianjia.com/zufang/BJ2158988710618595328.html",
    "rent_type": "整租",
    "location": "朝阳区-望京-东湖湾三期",
    "scraped_at": "2026-05-02 21:10:27",
    "region": "望京",
    "unit_price": 157.5,
    "lat": 39.996775,
    "lng": 116.482786
  },
  {
    "title": "整租·首开知语城 3室1厅 东南/南",
    "community": "首开知语城",
    "area": "103.19",
    "rooms": "3室1厅",
    "direction": "东南/南",
    "floor": "",
    "price": "10500",
    "tags": "",
    "source": "",
    "url": "https://bj.lianjia.com/zufang/BJ2154066351864414208.html",
    "rent_type": "整租",
    "location": "朝阳区-望京-首开知语城",
    "scraped_at": "2026-05-02 21:10:27",
    "region": "望京",
    "unit_price": 101.8,
    "lat": 39.992925,
    "lng": 116.480478
  },
  {
    "title": "整租·合生麒麟社 2房间 南",
    "community": "合生麒麟社 2房间 南",
    "area": "68.71",
    "rooms": "",
    "direction": "",
    "floor": "",
    "price": "8200",
    "tags": "",
    "source": "",
    "url": "https://bj.lianjia.com/zufang/BJ2148743133456760832.html",
    "rent_type": "整租",
    "location": "朝阳区-望京-合生麒麟社",
    "scraped_at": "2026-05-02 21:11:34",
    "region": "望京",
    "unit_price": 119.3,
    "lat": 39.995364,
    "lng": 116.471615
  },
  {
    "title": "整租·南湖东园二区 1室1厅 东",
    "community": "南湖东园二区",
    "area": "54.14",
    "rooms": "1室1厅",
    "direction": "东",
    "floor": "",
    "price": "5200",
    "tags": "",
    "source": "",
    "url": "https://bj.lianjia.com/zufang/BJ2138186546128355328.html",
    "rent_type": "整租",
    "location": "朝阳区-望京-南湖东园二区",
    "scraped_at": "2026-05-02 21:10:45",
    "region": "望京",
    "unit_price": 96.0,
    "lat": 39.998853,
    "lng": 116.458896
  },
  {
    "title": "整租·国风北京 2室2厅 东南",
    "community": "国风北京",
    "area": "106.23",
    "rooms": "2室2厅",
    "direction": "东南",
    "floor": "",
    "price": "11000",
    "tags": "",
    "source": "",
    "url": "https://bj.lianjia.com/zufang/BJ2148758199690330112.html",
    "rent_type": "整租",
    "location": "朝阳区-望京-国风北京",
    "scraped_at": "2026-05-02 21:11:34",
    "region": "望京",
    "unit_price": 103.5,
    "lat": 39.992406,
    "lng": 116.481028
  },
  {
    "title": "整租·世安家园 3室1厅 南/西",
    "community": "世安家园",
    "area": "106.28",
    "rooms": "3室1厅",
    "direction": "南/西",
    "floor": "",
    "price": "7200",
    "tags": "",
    "source": "",
    "url": "https://bj.lianjia.com/zufang/BJ1998626877190701056.html",
    "rent_type": "整租",
    "location": "朝阳区-望京-世安家园",
    "scraped_at": "2026-05-02 21:15:34",
    "region": "望京",
    "unit_price": 67.7,
    "lat": 39.984316,
    "lng": 116.461788
  },
  {
    "title": "整租·南湖渠西里 1室2厅 南",
    "community": "南湖渠西里",
    "area": "54.38",
    "rooms": "1室2厅",
    "direction": "南",
    "floor": "",
    "price": "6200",
    "tags": "",
    "source": "",
    "url": "https://bj.lianjia.com/zufang/BJ2137914334922145792.html",
    "rent_type": "整租",
    "location": "朝阳区-望京-南湖渠西里",
    "scraped_at": "2026-05-02 21:11:37",
    "region": "望京",
    "unit_price": 114.0,
    "lat": 39.991296,
    "lng": 116.449637
  },
  {
    "title": "整租·世安家园 3室1厅 南",
    "community": "世安家园",
    "area": "88.27",
    "rooms": "3室1厅",
    "direction": "南",
    "floor": "",
    "price": "7500",
    "tags": "",
    "source": "",
    "url": "https://bj.lianjia.com/zufang/BJ2096253210405634048.html",
    "rent_type": "整租",
    "location": "朝阳区-望京-世安家园",
    "scraped_at": "2026-05-02 21:11:26",
    "region": "望京",
    "unit_price": 85.0,
    "lat": 39.984316,
    "lng": 116.461788
  },
  {
    "title": "整租·东亚望京中心 2房间 南",
    "community": "东亚望京中心 2房间 南",
    "area": "39.00",
    "rooms": "",
    "direction": "",
    "floor": "",
    "price": "5000",
    "tags": "",
    "source": "",
    "url": "https://bj.lianjia.com/zufang/BJ1934939689031041024.html",
    "rent_type": "整租",
    "location": "朝阳区-望京-东亚望京中心",
    "scraped_at": "2026-05-02 21:13:57",
    "region": "望京",
    "unit_price": 128.2,
    "lat": 39.990827,
    "lng": 116.466509
  },
  {
    "title": "独栋·嘉阁宜居 昆泰嘉瑞公寓 望京高端景观超大两居 2室2厅",
    "community": "嘉阁宜居 昆泰嘉瑞公寓 望京高端景观超大两居",
    "area": "393.00",
    "rooms": "2室2厅",
    "direction": "",
    "floor": "",
    "price": "68000",
    "tags": "",
    "source": "",
    "url": "https://bj.lianjia.com/apartment/107874.html",
    "rent_type": "独栋",
    "location": "",
    "scraped_at": "2026-05-02 21:10:27",
    "region": "望京",
    "unit_price": 173.0,
    "lat": 39.958586,
    "lng": 116.458638
  },
  {
    "title": "整租·世安家园 2室1厅 东",
    "community": "世安家园",
    "area": "84.00",
    "rooms": "2室1厅",
    "direction": "东",
    "floor": "",
    "price": "6800",
    "tags": "",
    "source": "",
    "url": "https://bj.lianjia.com/zufang/BJ2109217607868481536.html",
    "rent_type": "整租",
    "location": "朝阳区-望京-世安家园",
    "scraped_at": "2026-05-02 21:11:26",
    "region": "望京",
    "unit_price": 81.0,
    "lat": 39.984316,
    "lng": 116.461788
  },
  {
    "title": "整租·圣馨大地 3室2厅 南",
    "community": "圣馨大地",
    "area": "156.37",
    "rooms": "3室2厅",
    "direction": "南",
    "floor": "",
    "price": "10800",
    "tags": "",
    "source": "",
    "url": "https://bj.lianjia.com/zufang/BJ2153354326003679232.html",
    "rent_type": "整租",
    "location": "朝阳区-望京-圣馨大地",
    "scraped_at": "2026-05-02 21:10:27",
    "region": "望京",
    "unit_price": 69.1,
    "lat": 39.99352,
    "lng": 116.455078
  },
  {
    "title": "整租·夏都盈座 2室1厅 东南/西南",
    "community": "夏都盈座",
    "area": "98.40",
    "rooms": "2室1厅",
    "direction": "东南/西南",
    "floor": "",
    "price": "8900",
    "tags": "",
    "source": "",
    "url": "https://bj.lianjia.com/zufang/BJ1896554315892391936.html",
    "rent_type": "整租",
    "location": "朝阳区-望京-夏都盈座",
    "scraped_at": "2026-05-02 21:15:34",
    "region": "望京",
    "unit_price": 90.4,
    "lat": 39.995116,
    "lng": 116.461238
  },
  {
    "title": "整租·北京香颂二期 2室1厅 西北",
    "community": "北京香颂二期",
    "area": "90.00",
    "rooms": "2室1厅",
    "direction": "西北",
    "floor": "",
    "price": "8800",
    "tags": "",
    "source": "",
    "url": "https://bj.lianjia.com/zufang/BJ2139385613902675968.html",
    "rent_type": "整租",
    "location": "朝阳区-望京-北京香颂二期",
    "scraped_at": "2026-05-02 21:10:31",
    "region": "望京",
    "unit_price": 97.8,
    "lat": 39.99238,
    "lng": 116.446
  },
  {
    "title": "整租·南湖东园二区 3室1厅 西南/东北",
    "community": "南湖东园二区",
    "area": "79.00",
    "rooms": "3室1厅",
    "direction": "西南/东北",
    "floor": "",
    "price": "7800",
    "tags": "",
    "source": "",
    "url": "https://bj.lianjia.com/zufang/BJ2154572204132532224.html",
    "rent_type": "整租",
    "location": "朝阳区-望京-南湖东园二区",
    "scraped_at": "2026-05-02 21:11:37",
    "region": "望京",
    "unit_price": 98.7,
    "lat": 39.998853,
    "lng": 116.458896
  },
  {
    "title": "整租·东洲家园 2室1厅 西",
    "community": "东洲家园",
    "area": "86.00",
    "rooms": "2室1厅",
    "direction": "西",
    "floor": "",
    "price": "6000",
    "tags": "",
    "source": "",
    "url": "https://bj.lianjia.com/zufang/BJ2012075458216067072.html",
    "rent_type": "整租",
    "location": "朝阳区-望京-东洲家园",
    "scraped_at": "2026-05-02 21:15:34",
    "region": "望京",
    "unit_price": 69.8,
    "lat": 39.995046,
    "lng": 116.478368
  },
  {
    "title": "整租·望京路10号院 3室1厅 西北",
    "community": "望京路10号院",
    "area": "75.18",
    "rooms": "3室1厅",
    "direction": "西北",
    "floor": "",
    "price": "8100",
    "tags": "",
    "source": "",
    "url": "https://bj.lianjia.com/zufang/BJ2145917199439626240.html",
    "rent_type": "整租",
    "location": "朝阳区-望京-望京路",
    "scraped_at": "2026-05-02 21:10:42",
    "region": "望京",
    "unit_price": 107.7,
    "lat": 39.987607,
    "lng": 116.466844
  },
  {
    "title": "整租·嘉润花园 2室1厅 西北",
    "community": "嘉润花园",
    "area": "106.87",
    "rooms": "2室1厅",
    "direction": "西北",
    "floor": "",
    "price": "8200",
    "tags": "",
    "source": "",
    "url": "https://bj.lianjia.com/zufang/BJ2130982512560701440.html",
    "rent_type": "整租",
    "location": "朝阳区-望京-嘉润花园",
    "scraped_at": "2026-05-02 21:10:31",
    "region": "望京",
    "unit_price": 76.7,
    "lat": 39.98565,
    "lng": 116.47387
  },
  {
    "title": "整租·望京西园一区 3室1厅 南/北",
    "community": "望京西园一区",
    "area": "94.00",
    "rooms": "3室1厅",
    "direction": "南/北",
    "floor": "",
    "price": "8500",
    "tags": "",
    "source": "",
    "url": "https://bj.lianjia.com/zufang/BJ2010745116058189824.html",
    "rent_type": "整租",
    "location": "朝阳区-望京-望京西园一区",
    "scraped_at": "2026-05-02 21:13:57",
    "region": "望京",
    "unit_price": 90.4,
    "lat": 39.992164,
    "lng": 116.463961
  },
  {
    "title": "整租·融科橄榄城一期 4室2厅 南/北",
    "community": "融科橄榄城一期",
    "area": "229.01",
    "rooms": "4室2厅",
    "direction": "南/北",
    "floor": "",
    "price": "19000",
    "tags": "",
    "source": "",
    "url": "https://bj.lianjia.com/zufang/BJ2117188523466424320.html",
    "rent_type": "整租",
    "location": "朝阳区-望京-融科橄榄城一期",
    "scraped_at": "2026-05-02 21:10:31",
    "region": "望京",
    "unit_price": 83.0,
    "lat": 39.995796,
    "lng": 116.477718
  },
  {
    "title": "整租·博雅国际 1室0厅 北",
    "community": "博雅国际",
    "area": "50.00",
    "rooms": "1室0厅",
    "direction": "北",
    "floor": "",
    "price": "4900",
    "tags": "",
    "source": "",
    "url": "https://bj.lianjia.com/zufang/BJ2012898110094704640.html",
    "rent_type": "整租",
    "location": "朝阳区-望京-博雅国际",
    "scraped_at": "2026-05-02 21:15:17",
    "region": "望京",
    "unit_price": 98.0,
    "lat": 40.012612,
    "lng": 116.463274
  },
  {
    "title": "整租·朝悦居 2室1厅 南/北",
    "community": "朝悦居",
    "area": "80.00",
    "rooms": "2室1厅",
    "direction": "南/北",
    "floor": "",
    "price": "7500",
    "tags": "",
    "source": "",
    "url": "https://bj.lianjia.com/zufang/BJ2117521260505202688.html",
    "rent_type": "整租",
    "location": "朝阳区-望京-朝悦居",
    "scraped_at": "2026-05-02 21:10:31",
    "region": "望京",
    "unit_price": 93.8,
    "lat": 40.000786,
    "lng": 116.463018
  },
  {
    "title": "整租·上京新航线 3室2厅 南/北",
    "community": "上京新航线",
    "area": "139.90",
    "rooms": "3室2厅",
    "direction": "南/北",
    "floor": "",
    "price": "12495",
    "tags": "",
    "source": "",
    "url": "https://bj.lianjia.com/zufang/BJ2033434861632487424.html",
    "rent_type": "整租",
    "location": "朝阳区-望京-上京新航线",
    "scraped_at": "2026-05-02 21:15:40",
    "region": "望京",
    "unit_price": 89.3,
    "lat": 39.991666,
    "lng": 116.462678
  },
  {
    "title": "整租·望花路西里 2室1厅 南",
    "community": "望花路西里",
    "area": "58.97",
    "rooms": "2室1厅",
    "direction": "南",
    "floor": "",
    "price": "6300",
    "tags": "",
    "source": "",
    "url": "https://bj.lianjia.com/zufang/BJ2160252195327442944.html",
    "rent_type": "整租",
    "location": "朝阳区-望京-望花路西里",
    "scraped_at": "2026-05-02 21:17:04",
    "region": "望京",
    "unit_price": 106.8,
    "lat": 40.00698,
    "lng": 116.461996
  },
  {
    "title": "整租·望京新城 1室1厅 东",
    "community": "望京新城",
    "area": "58.99",
    "rooms": "1室1厅",
    "direction": "东",
    "floor": "",
    "price": "6660",
    "tags": "",
    "source": "",
    "url": "https://bj.lianjia.com/zufang/BJ1787488345060802560.html",
    "rent_type": "整租",
    "location": "朝阳区-望京-望京新城",
    "scraped_at": "2026-05-02 21:10:31",
    "region": "望京",
    "unit_price": 112.9,
    "lat": 39.996056,
    "lng": 116.468108
  },
  {
    "title": "整租·慧谷阳光 1室0厅 南",
    "community": "慧谷阳光",
    "area": "35.40",
    "rooms": "1室0厅",
    "direction": "南",
    "floor": "",
    "price": "10000",
    "tags": "",
    "source": "",
    "url": "https://bj.lianjia.com/zufang/BJ2159495665359519744.html",
    "rent_type": "整租",
    "location": "朝阳区-望京-慧谷阳光",
    "scraped_at": "2026-05-02 21:17:04",
    "region": "望京",
    "unit_price": 282.5,
    "lat": 40.003686,
    "lng": 116.483508
  },
  {
    "title": "整租·望京新城 2室1厅 东南",
    "community": "望京新城",
    "area": "96.47",
    "rooms": "2室1厅",
    "direction": "东南",
    "floor": "",
    "price": "8500",
    "tags": "",
    "source": "",
    "url": "https://bj.lianjia.com/zufang/BJ2153001162301767680.html",
    "rent_type": "整租",
    "location": "朝阳区-望京-望京新城",
    "scraped_at": "2026-05-02 21:11:29",
    "region": "望京",
    "unit_price": 88.1,
    "lat": 39.996056,
    "lng": 116.468108
  },
  {
    "title": "整租·利泽西园 1室0厅 西北",
    "community": "利泽西园",
    "area": "49.00",
    "rooms": "1室0厅",
    "direction": "西北",
    "floor": "",
    "price": "5300",
    "tags": "",
    "source": "",
    "url": "https://bj.lianjia.com/zufang/BJ1937875984539713536.html",
    "rent_type": "整租",
    "location": "朝阳区-望京-利泽西园",
    "scraped_at": "2026-05-02 21:16:47",
    "region": "望京",
    "unit_price": 108.2,
    "lat": 40.011789,
    "lng": 116.460433
  },
  {
    "title": "整租·望兴居 1室1厅 南/北",
    "community": "望兴居",
    "area": "65.26",
    "rooms": "1室1厅",
    "direction": "南/北",
    "floor": "",
    "price": "6200",
    "tags": "",
    "source": "",
    "url": "https://bj.lianjia.com/zufang/BJ2157857840763502592.html",
    "rent_type": "整租",
    "location": "朝阳区-望京-望兴居",
    "scraped_at": "2026-05-02 21:13:49",
    "region": "望京",
    "unit_price": 95.0,
    "lat": 39.995473,
    "lng": 116.458054
  },
  {
    "title": "整租·望京西园一区 1室1厅 北",
    "community": "望京西园一区",
    "area": "59.28",
    "rooms": "1室1厅",
    "direction": "北",
    "floor": "",
    "price": "6000",
    "tags": "",
    "source": "",
    "url": "https://bj.lianjia.com/zufang/BJ2150082328611782656.html",
    "rent_type": "整租",
    "location": "朝阳区-望京-望京西园一区",
    "scraped_at": "2026-05-02 21:10:31",
    "region": "望京",
    "unit_price": 101.2,
    "lat": 39.992164,
    "lng": 116.463961
  },
  {
    "title": "整租·南湖东园二区 2室1厅 南/北",
    "community": "南湖东园二区",
    "area": "61.17",
    "rooms": "2室1厅",
    "direction": "南/北",
    "floor": "",
    "price": "6000",
    "tags": "",
    "source": "",
    "url": "https://bj.lianjia.com/zufang/BJ2159941643778654208.html",
    "rent_type": "整租",
    "location": "朝阳区-望京-南湖东园二区",
    "scraped_at": "2026-05-02 21:10:31",
    "region": "望京",
    "unit_price": 98.1,
    "lat": 39.998853,
    "lng": 116.458896
  },
  {
    "title": "整租·国风北京 1室1厅 南",
    "community": "国风北京",
    "area": "81.20",
    "rooms": "1室1厅",
    "direction": "南",
    "floor": "",
    "price": "8630",
    "tags": "",
    "source": "",
    "url": "https://bj.lianjia.com/zufang/BJ2120088834967339008.html",
    "rent_type": "整租",
    "location": "朝阳区-望京-国风北京",
    "scraped_at": "2026-05-02 21:10:31",
    "region": "望京",
    "unit_price": 106.3,
    "lat": 39.992406,
    "lng": 116.481028
  },
  {
    "title": "整租·东湖湾二期 3室2厅 东南/西北",
    "community": "东湖湾二期",
    "area": "150.00",
    "rooms": "3室2厅",
    "direction": "东南/西北",
    "floor": "",
    "price": "17500",
    "tags": "",
    "source": "",
    "url": "https://bj.lianjia.com/zufang/BJ2139223601008607232.html",
    "rent_type": "整租",
    "location": "朝阳区-望京-东湖湾二期",
    "scraped_at": "2026-05-02 21:10:31",
    "region": "望京",
    "unit_price": 116.7,
    "lat": 39.996775,
    "lng": 116.482786
  },
  {
    "title": "整租·融科橄榄城一期 2室2厅 南",
    "community": "融科橄榄城一期",
    "area": "93.92",
    "rooms": "2室2厅",
    "direction": "南",
    "floor": "",
    "price": "11000",
    "tags": "",
    "source": "",
    "url": "https://bj.lianjia.com/zufang/BJ2156346352680828928.html",
    "rent_type": "整租",
    "location": "朝阳区-望京-融科橄榄城一期",
    "scraped_at": "2026-05-02 21:11:46",
    "region": "望京",
    "unit_price": 117.1,
    "lat": 39.995796,
    "lng": 116.477718
  },
  {
    "title": "整租·望京新城 2室1厅 西南",
    "community": "望京新城",
    "area": "83.76",
    "rooms": "2室1厅",
    "direction": "西南",
    "floor": "",
    "price": "8000",
    "tags": "",
    "source": "",
    "url": "https://bj.lianjia.com/zufang/BJ2158579714405433344.html",
    "rent_type": "整租",
    "location": "朝阳区-望京-望京新城",
    "scraped_at": "2026-05-02 21:13:49",
    "region": "望京",
    "unit_price": 95.5,
    "lat": 39.996056,
    "lng": 116.468108
  },
  {
    "title": "整租·国风北京 2室2厅 南/北",
    "community": "国风北京",
    "area": "121.24",
    "rooms": "2室2厅",
    "direction": "南/北",
    "floor": "",
    "price": "11000",
    "tags": "",
    "source": "",
    "url": "https://bj.lianjia.com/zufang/BJ2119077454013267968.html",
    "rent_type": "整租",
    "location": "朝阳区-望京-国风北京",
    "scraped_at": "2026-05-02 21:11:34",
    "region": "望京",
    "unit_price": 90.7,
    "lat": 39.992406,
    "lng": 116.481028
  },
  {
    "title": "整租·保利中央公园 3室2厅 南/北",
    "community": "保利中央公园",
    "area": "134.20",
    "rooms": "3室2厅",
    "direction": "南/北",
    "floor": "",
    "price": "18000",
    "tags": "",
    "source": "",
    "url": "https://bj.lianjia.com/zufang/BJ2148338592261341184.html",
    "rent_type": "整租",
    "location": "朝阳区-望京-保利中央公园",
    "scraped_at": "2026-05-02 21:11:37",
    "region": "望京",
    "unit_price": 134.1,
    "lat": 39.997009,
    "lng": 116.483345
  },
  {
    "title": "整租·博雅国际 1室1厅 南",
    "community": "博雅国际",
    "area": "45.80",
    "rooms": "1室1厅",
    "direction": "南",
    "floor": "",
    "price": "5200",
    "tags": "",
    "source": "",
    "url": "https://bj.lianjia.com/zufang/BJ2146174982382682112.html",
    "rent_type": "整租",
    "location": "朝阳区-望京-博雅国际",
    "scraped_at": "2026-05-02 21:13:49",
    "region": "望京",
    "unit_price": 113.5,
    "lat": 40.012612,
    "lng": 116.463274
  },
  {
    "title": "整租·朝悦居 2室1厅 南",
    "community": "朝悦居",
    "area": "78.46",
    "rooms": "2室1厅",
    "direction": "南",
    "floor": "",
    "price": "7600",
    "tags": "",
    "source": "",
    "url": "https://bj.lianjia.com/zufang/BJ2125907153750327296.html",
    "rent_type": "整租",
    "location": "朝阳区-望京-朝悦居",
    "scraped_at": "2026-05-02 21:10:34",
    "region": "望京",
    "unit_price": 96.9,
    "lat": 40.000786,
    "lng": 116.463018
  },
  {
    "title": "整租·望京花园西区 2室1厅 东南",
    "community": "望京花园西区",
    "area": "83.47",
    "rooms": "2室1厅",
    "direction": "东南",
    "floor": "",
    "price": "7500",
    "tags": "",
    "source": "",
    "url": "https://bj.lianjia.com/zufang/BJ2138480744786296832.html",
    "rent_type": "整租",
    "location": "朝阳区-望京-望京花园西区",
    "scraped_at": "2026-05-02 21:10:45",
    "region": "望京",
    "unit_price": 89.9,
    "lat": 40.00698,
    "lng": 116.461996
  },
  {
    "title": "整租·望馨花园 2室1厅 南/北",
    "community": "望馨花园",
    "area": "105.96",
    "rooms": "2室1厅",
    "direction": "南/北",
    "floor": "",
    "price": "8200",
    "tags": "",
    "source": "",
    "url": "https://bj.lianjia.com/zufang/BJ2142914803688013824.html",
    "rent_type": "整租",
    "location": "朝阳区-望京-望馨花园",
    "scraped_at": "2026-05-02 21:10:34",
    "region": "望京",
    "unit_price": 77.4,
    "lat": 40.007533,
    "lng": 116.456105
  },
  {
    "title": "整租·中建宸园 4室2厅 南",
    "community": "中建宸园",
    "area": "200.00",
    "rooms": "4室2厅",
    "direction": "南",
    "floor": "",
    "price": "18000",
    "tags": "",
    "source": "",
    "url": "https://bj.lianjia.com/zufang/BJ2108068609174536192.html",
    "rent_type": "整租",
    "location": "朝阳区-望京-中建宸园",
    "scraped_at": "2026-05-02 21:11:26",
    "region": "望京",
    "unit_price": 90.0,
    "lat": 39.987806,
    "lng": 116.463631
  },
  {
    "title": "整租·东洲家园 2室1厅 南",
    "community": "东洲家园",
    "area": "86.85",
    "rooms": "2室1厅",
    "direction": "南",
    "floor": "",
    "price": "5760",
    "tags": "",
    "source": "",
    "url": "https://bj.lianjia.com/zufang/BJ1812142455785521152.html",
    "rent_type": "整租",
    "location": "朝阳区-望京-东洲家园",
    "scraped_at": "2026-05-02 21:10:31",
    "region": "望京",
    "unit_price": 66.3,
    "lat": 39.995046,
    "lng": 116.478368
  },
  {
    "title": "整租·首开国风尚樾 4室2厅 南",
    "community": "首开国风尚樾",
    "area": "208.61",
    "rooms": "4室2厅",
    "direction": "南",
    "floor": "",
    "price": "32000",
    "tags": "",
    "source": "",
    "url": "https://bj.lianjia.com/zufang/BJ2156311980514738176.html",
    "rent_type": "整租",
    "location": "朝阳区-望京-首开国风尚樾",
    "scraped_at": "2026-05-02 21:11:46",
    "region": "望京",
    "unit_price": 153.4,
    "lat": 39.992925,
    "lng": 116.480478
  },
  {
    "title": "整租·鹿港嘉苑 3室2厅 南/北",
    "community": "鹿港嘉苑",
    "area": "142.00",
    "rooms": "3室2厅",
    "direction": "南/北",
    "floor": "",
    "price": "16800",
    "tags": "",
    "source": "",
    "url": "https://bj.lianjia.com/zufang/BJ2159944704492306432.html",
    "rent_type": "整租",
    "location": "朝阳区-望京-鹿港嘉苑",
    "scraped_at": "2026-05-02 21:12:19",
    "region": "望京",
    "unit_price": 118.3,
    "lat": 39.990644,
    "lng": 116.462878
  },
  {
    "title": "整租·宝星国际二期 1室1厅 东南",
    "community": "宝星国际二期",
    "area": "63.58",
    "rooms": "1室1厅",
    "direction": "东南",
    "floor": "",
    "price": "6590",
    "tags": "",
    "source": "",
    "url": "https://bj.lianjia.com/zufang/BJ1784202670416855040.html",
    "rent_type": "整租",
    "location": "朝阳区-望京-宝星国际二期",
    "scraped_at": "2026-05-02 21:10:31",
    "region": "望京",
    "unit_price": 103.6,
    "lat": 39.999595,
    "lng": 116.474926
  },
  {
    "title": "整租·悠乐汇 1室1厅 西北",
    "community": "悠乐汇",
    "area": "49.68",
    "rooms": "1室1厅",
    "direction": "西北",
    "floor": "",
    "price": "5460",
    "tags": "",
    "source": "",
    "url": "https://bj.lianjia.com/zufang/BJ1820761881762070528.html",
    "rent_type": "整租",
    "location": "朝阳区-望京-悠乐汇",
    "scraped_at": "2026-05-02 21:10:34",
    "region": "望京",
    "unit_price": 109.9,
    "lat": 39.987996,
    "lng": 116.471828
  },
  {
    "title": "整租·东洲家园 2室1厅 南",
    "community": "东洲家园",
    "area": "86.85",
    "rooms": "2室1厅",
    "direction": "南",
    "floor": "",
    "price": "4900",
    "tags": "",
    "source": "",
    "url": "https://bj.lianjia.com/zufang/BJ2106297982939824128.html",
    "rent_type": "整租",
    "location": "朝阳区-望京-东洲家园",
    "scraped_at": "2026-05-02 21:10:34",
    "region": "望京",
    "unit_price": 56.4,
    "lat": 39.995046,
    "lng": 116.478368
  },
  {
    "title": "整租·南湖东园二区 3室1厅 南/北",
    "community": "南湖东园二区",
    "area": "80.09",
    "rooms": "3室1厅",
    "direction": "南/北",
    "floor": "",
    "price": "7800",
    "tags": "",
    "source": "",
    "url": "https://bj.lianjia.com/zufang/BJ2157140274151686144.html",
    "rent_type": "整租",
    "location": "朝阳区-望京-南湖东园二区",
    "scraped_at": "2026-05-02 21:11:46",
    "region": "望京",
    "unit_price": 97.4,
    "lat": 39.998853,
    "lng": 116.458896
  },
  {
    "title": "整租·望馨花园 2室1厅 东",
    "community": "望馨花园",
    "area": "96.06",
    "rooms": "2室1厅",
    "direction": "东",
    "floor": "",
    "price": "8500",
    "tags": "",
    "source": "",
    "url": "https://bj.lianjia.com/zufang/BJ2160274097030823936.html",
    "rent_type": "整租",
    "location": "朝阳区-望京-望馨花园",
    "scraped_at": "2026-05-02 21:10:34",
    "region": "望京",
    "unit_price": 88.5,
    "lat": 40.007533,
    "lng": 116.456105
  },
  {
    "title": "整租·南湖东园一区 2室2厅 东/西",
    "community": "南湖东园一区",
    "area": "91.67",
    "rooms": "2室2厅",
    "direction": "东/西",
    "floor": "",
    "price": "7800",
    "tags": "",
    "source": "",
    "url": "https://bj.lianjia.com/zufang/BJ2155692902108364800.html",
    "rent_type": "整租",
    "location": "朝阳区-望京-南湖东园一区",
    "scraped_at": "2026-05-02 21:11:42",
    "region": "望京",
    "unit_price": 85.1,
    "lat": 40.003796,
    "lng": 116.459148
  },
  {
    "title": "整租·融科橄榄城一期 1室1厅 南",
    "community": "融科橄榄城一期",
    "area": "27.44",
    "rooms": "1室1厅",
    "direction": "南",
    "floor": "",
    "price": "5290",
    "tags": "",
    "source": "",
    "url": "https://bj.lianjia.com/zufang/BJ1817117221453824000.html",
    "rent_type": "整租",
    "location": "朝阳区-望京-融科橄榄城一期",
    "scraped_at": "2026-05-02 21:10:34",
    "region": "望京",
    "unit_price": 192.8,
    "lat": 39.995796,
    "lng": 116.477718
  },
  {
    "title": "整租·华彩国际公寓 3室2厅 南/北",
    "community": "华彩国际公寓",
    "area": "171.54",
    "rooms": "3室2厅",
    "direction": "南/北",
    "floor": "",
    "price": "15800",
    "tags": "",
    "source": "",
    "url": "https://bj.lianjia.com/zufang/BJ2150105479244677120.html",
    "rent_type": "整租",
    "location": "朝阳区-望京-华彩国际公寓",
    "scraped_at": "2026-05-02 21:10:34",
    "region": "望京",
    "unit_price": 92.1,
    "lat": 40.008606,
    "lng": 116.462718
  },
  {
    "title": "整租·夏都盈座 3室2厅 南/北",
    "community": "夏都盈座",
    "area": "170.00",
    "rooms": "3室2厅",
    "direction": "南/北",
    "floor": "",
    "price": "21000",
    "tags": "",
    "source": "",
    "url": "https://bj.lianjia.com/zufang/BJ2113518778342965248.html",
    "rent_type": "整租",
    "location": "朝阳区-望京-夏都盈座",
    "scraped_at": "2026-05-02 21:10:34",
    "region": "望京",
    "unit_price": 123.5,
    "lat": 39.995116,
    "lng": 116.461238
  },
  {
    "title": "整租·星源国际 3室2厅 西南/东北",
    "community": "星源国际",
    "area": "158.56",
    "rooms": "3室2厅",
    "direction": "西南/东北",
    "floor": "",
    "price": "12000",
    "tags": "",
    "source": "",
    "url": "https://bj.lianjia.com/zufang/BJ2034589671203274752.html",
    "rent_type": "整租",
    "location": "朝阳区-望京-星源国际",
    "scraped_at": "2026-05-02 21:10:34",
    "region": "望京",
    "unit_price": 75.7,
    "lat": 40.000826,
    "lng": 116.462738
  },
  {
    "title": "整租·望京花园东区 1室0厅 东北",
    "community": "望京花园东区",
    "area": "48.92",
    "rooms": "1室0厅",
    "direction": "东北",
    "floor": "",
    "price": "5000",
    "tags": "",
    "source": "",
    "url": "https://bj.lianjia.com/zufang/BJ2102969998451408896.html",
    "rent_type": "整租",
    "location": "朝阳区-望京-望京花园东区",
    "scraped_at": "2026-05-02 21:11:26",
    "region": "望京",
    "unit_price": 102.2,
    "lat": 40.00698,
    "lng": 116.461996
  },
  {
    "title": "整租·融科橄榄城二期 4室2厅 南/北",
    "community": "融科橄榄城二期",
    "area": "207.30",
    "rooms": "4室2厅",
    "direction": "南/北",
    "floor": "",
    "price": "21000",
    "tags": "",
    "source": "",
    "url": "https://bj.lianjia.com/zufang/BJ2160243003946434560.html",
    "rent_type": "整租",
    "location": "朝阳区-望京-融科橄榄城二期",
    "scraped_at": "2026-05-02 21:10:34",
    "region": "望京",
    "unit_price": 101.3,
    "lat": 39.995796,
    "lng": 116.477718
  },
  {
    "title": "整租·望京新城 3室1厅 西/北",
    "community": "望京新城",
    "area": "150.00",
    "rooms": "3室1厅",
    "direction": "西/北",
    "floor": "",
    "price": "12000",
    "tags": "",
    "source": "",
    "url": "https://bj.lianjia.com/zufang/BJ2161035905207369728.html",
    "rent_type": "整租",
    "location": "朝阳区-望京-望京新城",
    "scraped_at": "2026-05-02 21:13:49",
    "region": "望京",
    "unit_price": 80.0,
    "lat": 39.996056,
    "lng": 116.468108
  },
  {
    "title": "整租·花家地西里三区 1室1厅 南",
    "community": "花家地西里三区",
    "area": "48.20",
    "rooms": "1室1厅",
    "direction": "南",
    "floor": "",
    "price": "5900",
    "tags": "",
    "source": "",
    "url": "https://bj.lianjia.com/zufang/BJ2161433516670189568.html",
    "rent_type": "整租",
    "location": "朝阳区-望京-花家地西里三区",
    "scraped_at": "2026-05-02 21:13:49",
    "region": "望京",
    "unit_price": 122.4,
    "lat": 39.986865,
    "lng": 116.457541
  },
  {
    "title": "整租·花家地西里一区 2室1厅 南/北",
    "community": "花家地西里一区",
    "area": "64.20",
    "rooms": "2室1厅",
    "direction": "南/北",
    "floor": "",
    "price": "6000",
    "tags": "",
    "source": "",
    "url": "https://bj.lianjia.com/zufang/BJ2160956464582098944.html",
    "rent_type": "整租",
    "location": "朝阳区-望京-花家地西里一区",
    "scraped_at": "2026-05-02 21:13:49",
    "region": "望京",
    "unit_price": 93.5,
    "lat": 39.986865,
    "lng": 116.457541
  },
  {
    "title": "整租·南湖东园二区 3室1厅 南/北",
    "community": "南湖东园二区",
    "area": "86.95",
    "rooms": "3室1厅",
    "direction": "南/北",
    "floor": "",
    "price": "8000",
    "tags": "",
    "source": "",
    "url": "https://bj.lianjia.com/zufang/BJ2158226035525550080.html",
    "rent_type": "整租",
    "location": "朝阳区-望京-南湖东园二区",
    "scraped_at": "2026-05-02 21:13:49",
    "region": "望京",
    "unit_price": 92.0,
    "lat": 39.998853,
    "lng": 116.458896
  },
  {
    "title": "整租·上京新航线 3室2厅 南/北",
    "community": "上京新航线",
    "area": "147.00",
    "rooms": "3室2厅",
    "direction": "南/北",
    "floor": "",
    "price": "17000",
    "tags": "",
    "source": "",
    "url": "https://bj.lianjia.com/zufang/BJ2160575965984456704.html",
    "rent_type": "整租",
    "location": "朝阳区-望京-上京新航线",
    "scraped_at": "2026-05-02 21:10:34",
    "region": "望京",
    "unit_price": 115.6,
    "lat": 39.991666,
    "lng": 116.462678
  },
  {
    "title": "整租·东洲家园 2室1厅 南",
    "community": "东洲家园",
    "area": "89.03",
    "rooms": "2室1厅",
    "direction": "南",
    "floor": "",
    "price": "5430",
    "tags": "",
    "source": "",
    "url": "https://bj.lianjia.com/zufang/BJ1784552821719302144.html",
    "rent_type": "整租",
    "location": "朝阳区-望京-东洲家园",
    "scraped_at": "2026-05-02 21:10:37",
    "region": "望京",
    "unit_price": 61.0,
    "lat": 39.995046,
    "lng": 116.478368
  },
  {
    "title": "整租·西八间北里 2室1厅 南",
    "community": "西八间北里",
    "area": "72.00",
    "rooms": "2室1厅",
    "direction": "南",
    "floor": "",
    "price": "6200",
    "tags": "",
    "source": "",
    "url": "https://bj.lianjia.com/zufang/BJ2150553315895672832.html",
    "rent_type": "整租",
    "location": "朝阳区-望京-西八间北里",
    "scraped_at": "2026-05-02 21:10:34",
    "region": "望京",
    "unit_price": 86.1,
    "lat": 39.986616,
    "lng": 116.46514
  },
  {
    "title": "整租·花家地西里二区 3室2厅 南/北",
    "community": "花家地西里二区",
    "area": "112.13",
    "rooms": "3室2厅",
    "direction": "南/北",
    "floor": "",
    "price": "9000",
    "tags": "",
    "source": "",
    "url": "https://bj.lianjia.com/zufang/BJ2157676531734806528.html",
    "rent_type": "整租",
    "location": "朝阳区-望京-花家地西里二区",
    "scraped_at": "2026-05-02 21:11:53",
    "region": "望京",
    "unit_price": 80.3,
    "lat": 39.986865,
    "lng": 116.457541
  },
  {
    "title": "整租·利泽西园 1室1厅 西南",
    "community": "利泽西园",
    "area": "69.06",
    "rooms": "1室1厅",
    "direction": "西南",
    "floor": "",
    "price": "6730",
    "tags": "",
    "source": "",
    "url": "https://bj.lianjia.com/zufang/BJ1804213511740456960.html",
    "rent_type": "整租",
    "location": "朝阳区-望京-利泽西园",
    "scraped_at": "2026-05-02 21:10:37",
    "region": "望京",
    "unit_price": 97.5,
    "lat": 40.011789,
    "lng": 116.460433
  },
  {
    "title": "整租·博泰国际 1室1厅 东",
    "community": "博泰国际",
    "area": "163.25",
    "rooms": "1室1厅",
    "direction": "东",
    "floor": "",
    "price": "14896",
    "tags": "",
    "source": "",
    "url": "https://bj.lianjia.com/zufang/BJ2155537054870536192.html",
    "rent_type": "整租",
    "location": "朝阳区-望京-博泰国际",
    "scraped_at": "2026-05-02 21:10:37",
    "region": "望京",
    "unit_price": 91.2,
    "lat": 40.000706,
    "lng": 116.460638
  },
  {
    "title": "整租·望花路西里 1室1厅 东南",
    "community": "望花路西里",
    "area": "38.80",
    "rooms": "1室1厅",
    "direction": "东南",
    "floor": "",
    "price": "4300",
    "tags": "",
    "source": "",
    "url": "https://bj.lianjia.com/zufang/BJ2123086979796041728.html",
    "rent_type": "整租",
    "location": "朝阳区-望京-望花路西里",
    "scraped_at": "2026-05-02 21:10:37",
    "region": "望京",
    "unit_price": 110.8,
    "lat": 40.00698,
    "lng": 116.461996
  },
  {
    "title": "整租·上京新航线 3室2厅 南/北",
    "community": "上京新航线",
    "area": "143.00",
    "rooms": "3室2厅",
    "direction": "南/北",
    "floor": "",
    "price": "12500",
    "tags": "",
    "source": "",
    "url": "https://bj.lianjia.com/zufang/BJ2130643813767577600.html",
    "rent_type": "整租",
    "location": "朝阳区-望京-上京新航线",
    "scraped_at": "2026-05-02 21:10:37",
    "region": "望京",
    "unit_price": 87.4,
    "lat": 39.991666,
    "lng": 116.462678
  },
  {
    "title": "整租·鹿港嘉苑 2室2厅 南",
    "community": "鹿港嘉苑",
    "area": "133.00",
    "rooms": "2室2厅",
    "direction": "南",
    "floor": "",
    "price": "12500",
    "tags": "",
    "source": "",
    "url": "https://bj.lianjia.com/zufang/BJ2149373205897281536.html",
    "rent_type": "整租",
    "location": "朝阳区-望京-鹿港嘉苑",
    "scraped_at": "2026-05-02 21:10:37",
    "region": "望京",
    "unit_price": 94.0,
    "lat": 39.990644,
    "lng": 116.462878
  },
  {
    "title": "整租·南湖渠三巷 2室1厅 南",
    "community": "南湖渠三巷",
    "area": "50.44",
    "rooms": "2室1厅",
    "direction": "南",
    "floor": "",
    "price": "4800",
    "tags": "",
    "source": "",
    "url": "https://bj.lianjia.com/zufang/BJ2150480254781620224.html",
    "rent_type": "整租",
    "location": "朝阳区-望京-南湖渠三巷",
    "scraped_at": "2026-05-02 21:10:37",
    "region": "望京",
    "unit_price": 95.2,
    "lat": 39.989155,
    "lng": 116.449534
  },
  {
    "title": "整租·望京新城 3室2厅 南",
    "community": "望京新城",
    "area": "125.33",
    "rooms": "3室2厅",
    "direction": "南",
    "floor": "",
    "price": "11500",
    "tags": "",
    "source": "",
    "url": "https://bj.lianjia.com/zufang/BJ2154480768229834752.html",
    "rent_type": "整租",
    "location": "朝阳区-望京-望京新城",
    "scraped_at": "2026-05-02 21:10:37",
    "region": "望京",
    "unit_price": 91.8,
    "lat": 39.996056,
    "lng": 116.468108
  },
  {
    "title": "整租·远洋万和公馆 3室2厅 南/北",
    "community": "远洋万和公馆",
    "area": "256.00",
    "rooms": "3室2厅",
    "direction": "南/北",
    "floor": "",
    "price": "51888",
    "tags": "",
    "source": "",
    "url": "https://bj.lianjia.com/zufang/BJ2142915260183478272.html",
    "rent_type": "整租",
    "location": "朝阳区-望京-远洋万和公馆",
    "scraped_at": "2026-05-02 21:10:37",
    "region": "望京",
    "unit_price": 202.7,
    "lat": 39.998618,
    "lng": 116.48574
  },
  {
    "title": "整租·南湖渠西里 2室1厅 南",
    "community": "南湖渠西里",
    "area": "71.61",
    "rooms": "2室1厅",
    "direction": "南",
    "floor": "",
    "price": "6600",
    "tags": "",
    "source": "",
    "url": "https://bj.lianjia.com/zufang/BJ2156310184262107136.html",
    "rent_type": "整租",
    "location": "朝阳区-望京-南湖渠西里",
    "scraped_at": "2026-05-02 21:11:46",
    "region": "望京",
    "unit_price": 92.2,
    "lat": 39.991296,
    "lng": 116.449637
  },
  {
    "title": "整租·融科橄榄城一期 2室1厅 南",
    "community": "融科橄榄城一期",
    "area": "94.00",
    "rooms": "2室1厅",
    "direction": "南",
    "floor": "",
    "price": "11500",
    "tags": "",
    "source": "",
    "url": "https://bj.lianjia.com/zufang/BJ2158769794285830144.html",
    "rent_type": "整租",
    "location": "朝阳区-望京-融科橄榄城一期",
    "scraped_at": "2026-05-02 21:12:19",
    "region": "望京",
    "unit_price": 122.3,
    "lat": 39.995796,
    "lng": 116.477718
  },
  {
    "title": "整租·澳洲康都 2室1厅 西北",
    "community": "澳洲康都",
    "area": "91.00",
    "rooms": "2室1厅",
    "direction": "西北",
    "floor": "",
    "price": "9200",
    "tags": "",
    "source": "",
    "url": "https://bj.lianjia.com/zufang/BJ2100054308308385792.html",
    "rent_type": "整租",
    "location": "朝阳区-望京-澳洲康都",
    "scraped_at": "2026-05-02 21:11:26",
    "region": "望京",
    "unit_price": 101.1,
    "lat": 39.988875,
    "lng": 116.476467
  },
  {
    "title": "整租·望京新城 3室1厅 东南",
    "community": "望京新城",
    "area": "130.25",
    "rooms": "3室1厅",
    "direction": "东南",
    "floor": "",
    "price": "10000",
    "tags": "",
    "source": "",
    "url": "https://bj.lianjia.com/zufang/BJ2151984296007565312.html",
    "rent_type": "整租",
    "location": "朝阳区-望京-望京新城",
    "scraped_at": "2026-05-02 21:12:27",
    "region": "望京",
    "unit_price": 76.8,
    "lat": 39.996056,
    "lng": 116.468108
  },
  {
    "title": "整租·国风上观 2室1厅 南",
    "community": "国风上观",
    "area": "94.38",
    "rooms": "2室1厅",
    "direction": "南",
    "floor": "",
    "price": "9500",
    "tags": "",
    "source": "",
    "url": "https://bj.lianjia.com/zufang/BJ2120031215661613056.html",
    "rent_type": "整租",
    "location": "朝阳区-望京-国风上观",
    "scraped_at": "2026-05-02 21:11:34",
    "region": "望京",
    "unit_price": 100.7,
    "lat": 39.992406,
    "lng": 116.481028
  },
  {
    "title": "整租·鹿港嘉苑 2室1厅 南",
    "community": "鹿港嘉苑",
    "area": "94.72",
    "rooms": "2室1厅",
    "direction": "南",
    "floor": "",
    "price": "8900",
    "tags": "",
    "source": "",
    "url": "https://bj.lianjia.com/zufang/BJ2160735457422344192.html",
    "rent_type": "整租",
    "location": "朝阳区-望京-鹿港嘉苑",
    "scraped_at": "2026-05-02 21:10:37",
    "region": "望京",
    "unit_price": 94.0,
    "lat": 39.990644,
    "lng": 116.462878
  },
  {
    "title": "整租·北京香颂二期 3室2厅 南/北",
    "community": "北京香颂二期",
    "area": "179.27",
    "rooms": "3室2厅",
    "direction": "南/北",
    "floor": "",
    "price": "18000",
    "tags": "",
    "source": "",
    "url": "https://bj.lianjia.com/zufang/BJ2145002188139659264.html",
    "rent_type": "整租",
    "location": "朝阳区-望京-北京香颂二期",
    "scraped_at": "2026-05-02 21:10:37",
    "region": "望京",
    "unit_price": 100.4,
    "lat": 39.99238,
    "lng": 116.446
  },
  {
    "title": "整租·北京香颂三期 2室2厅 东/西/北",
    "community": "北京香颂三期",
    "area": "108.77",
    "rooms": "2室2厅",
    "direction": "东/西/北",
    "floor": "",
    "price": "9500",
    "tags": "",
    "source": "",
    "url": "https://bj.lianjia.com/zufang/BJ2157167397243453440.html",
    "rent_type": "整租",
    "location": "朝阳区-望京-北京香颂三期",
    "scraped_at": "2026-05-02 21:10:37",
    "region": "望京",
    "unit_price": 87.3,
    "lat": 39.99238,
    "lng": 116.446
  },
  {
    "title": "整租·中建宸园 4室2厅 南/北",
    "community": "中建宸园",
    "area": "210.00",
    "rooms": "4室2厅",
    "direction": "南/北",
    "floor": "",
    "price": "35000",
    "tags": "",
    "source": "",
    "url": "https://bj.lianjia.com/zufang/BJ2103433967448358912.html",
    "rent_type": "整租",
    "location": "朝阳区-望京-中建宸园",
    "scraped_at": "2026-05-02 21:11:26",
    "region": "望京",
    "unit_price": 166.7,
    "lat": 39.987806,
    "lng": 116.463631
  },
  {
    "title": "整租·金隅丽港城 2室1厅 南",
    "community": "金隅丽港城",
    "area": "105.75",
    "rooms": "2室1厅",
    "direction": "南",
    "floor": "",
    "price": "8920",
    "tags": "",
    "source": "",
    "url": "https://bj.lianjia.com/zufang/BJ2144724421238063104.html",
    "rent_type": "整租",
    "location": "朝阳区-望京-金隅丽港城",
    "scraped_at": "2026-05-02 21:10:37",
    "region": "望京",
    "unit_price": 84.3,
    "lat": 39.990911,
    "lng": 116.456275
  },
  {
    "title": "整租·慧谷阳光 1室1厅 东",
    "community": "慧谷阳光",
    "area": "40.36",
    "rooms": "1室1厅",
    "direction": "东",
    "floor": "",
    "price": "6530",
    "tags": "",
    "source": "",
    "url": "https://bj.lianjia.com/zufang/BJ1579427284442415104.html",
    "rent_type": "整租",
    "location": "朝阳区-望京-慧谷阳光",
    "scraped_at": "2026-05-02 21:10:37",
    "region": "望京",
    "unit_price": 161.8,
    "lat": 40.003686,
    "lng": 116.483508
  },
  {
    "title": "整租·嘉润花园 3室1厅 南",
    "community": "嘉润花园",
    "area": "144.91",
    "rooms": "3室1厅",
    "direction": "南",
    "floor": "",
    "price": "10860",
    "tags": "",
    "source": "",
    "url": "https://bj.lianjia.com/zufang/BJ1887511742024515584.html",
    "rent_type": "整租",
    "location": "朝阳区-望京-嘉润花园",
    "scraped_at": "2026-05-02 21:10:37",
    "region": "望京",
    "unit_price": 74.9,
    "lat": 39.98565,
    "lng": 116.47387
  },
  {
    "title": "整租·南湖渠西里 2室1厅 南",
    "community": "南湖渠西里",
    "area": "50.29",
    "rooms": "2室1厅",
    "direction": "南",
    "floor": "",
    "price": "5890",
    "tags": "",
    "source": "",
    "url": "https://bj.lianjia.com/zufang/BJ1923723526284509184.html",
    "rent_type": "整租",
    "location": "朝阳区-望京-南湖渠西里",
    "scraped_at": "2026-05-02 21:10:37",
    "region": "望京",
    "unit_price": 117.1,
    "lat": 39.991296,
    "lng": 116.449637
  },
  {
    "title": "整租·金隅国际 1室1厅 北",
    "community": "金隅国际",
    "area": "52.42",
    "rooms": "1室1厅",
    "direction": "北",
    "floor": "",
    "price": "6990",
    "tags": "",
    "source": "",
    "url": "https://bj.lianjia.com/zufang/BJ1873036225951039488.html",
    "rent_type": "整租",
    "location": "朝阳区-望京-金隅国际",
    "scraped_at": "2026-05-02 21:10:37",
    "region": "望京",
    "unit_price": 133.3,
    "lat": 39.984271,
    "lng": 116.451643
  },
  {
    "title": "整租·望京花园东区 2室1厅 南",
    "community": "望京花园东区",
    "area": "102.55",
    "rooms": "2室1厅",
    "direction": "南",
    "floor": "",
    "price": "10989",
    "tags": "",
    "source": "",
    "url": "https://bj.lianjia.com/zufang/BJ2013730405030559744.html",
    "rent_type": "整租",
    "location": "朝阳区-望京-望京花园东区",
    "scraped_at": "2026-05-02 21:10:37",
    "region": "望京",
    "unit_price": 107.2,
    "lat": 40.00698,
    "lng": 116.461996
  },
  {
    "title": "整租·望京路10号院 2室1厅 南",
    "community": "望京路10号院",
    "area": "55.71",
    "rooms": "2室1厅",
    "direction": "南",
    "floor": "",
    "price": "6290",
    "tags": "",
    "source": "",
    "url": "https://bj.lianjia.com/zufang/BJ1824292622873657344.html",
    "rent_type": "整租",
    "location": "朝阳区-望京-望京路",
    "scraped_at": "2026-05-02 21:10:37",
    "region": "望京",
    "unit_price": 112.9,
    "lat": 39.987607,
    "lng": 116.466844
  },
  {
    "title": "整租·望花路西里 2室1厅 南",
    "community": "望花路西里",
    "area": "62.33",
    "rooms": "2室1厅",
    "direction": "南",
    "floor": "",
    "price": "7060",
    "tags": "",
    "source": "",
    "url": "https://bj.lianjia.com/zufang/BJ1816342933650014208.html",
    "rent_type": "整租",
    "location": "朝阳区-望京-望花路西里",
    "scraped_at": "2026-05-02 21:10:37",
    "region": "望京",
    "unit_price": 113.3,
    "lat": 40.00698,
    "lng": 116.461996
  },
  {
    "title": "整租·华彩国际公寓 2室1厅 南",
    "community": "华彩国际公寓",
    "area": "118.59",
    "rooms": "2室1厅",
    "direction": "南",
    "floor": "",
    "price": "11390",
    "tags": "",
    "source": "",
    "url": "https://bj.lianjia.com/zufang/BJ1980624968911683584.html",
    "rent_type": "整租",
    "location": "朝阳区-望京-华彩国际公寓",
    "scraped_at": "2026-05-02 21:10:37",
    "region": "望京",
    "unit_price": 96.0,
    "lat": 40.008606,
    "lng": 116.462718
  },
  {
    "title": "整租·花家地小区 2室1厅 东",
    "community": "花家地小区",
    "area": "55.24",
    "rooms": "2室1厅",
    "direction": "东",
    "floor": "",
    "price": "7089",
    "tags": "",
    "source": "",
    "url": "https://bj.lianjia.com/zufang/BJ1783268295521075200.html",
    "rent_type": "整租",
    "location": "朝阳区-望京-花家地小区",
    "scraped_at": "2026-05-02 21:10:37",
    "region": "望京",
    "unit_price": 128.3,
    "lat": 39.981763,
    "lng": 116.462119
  },
  {
    "title": "整租·方舟苑一期 2室1厅 南",
    "community": "方舟苑一期",
    "area": "80.13",
    "rooms": "2室1厅",
    "direction": "南",
    "floor": "",
    "price": "7730",
    "tags": "",
    "source": "",
    "url": "https://bj.lianjia.com/zufang/BJ1784587798523674624.html",
    "rent_type": "整租",
    "location": "朝阳区-望京-方舟苑一期",
    "scraped_at": "2026-05-02 21:10:37",
    "region": "望京",
    "unit_price": 96.5,
    "lat": 39.978403,
    "lng": 116.458182
  },
  {
    "title": "整租·望京新城 2室1厅 西",
    "community": "望京新城",
    "area": "90.96",
    "rooms": "2室1厅",
    "direction": "西",
    "floor": "",
    "price": "8890",
    "tags": "",
    "source": "",
    "url": "https://bj.lianjia.com/zufang/BJ2137244510671863808.html",
    "rent_type": "整租",
    "location": "朝阳区-望京-望京新城",
    "scraped_at": "2026-05-02 21:10:37",
    "region": "望京",
    "unit_price": 97.7,
    "lat": 39.996056,
    "lng": 116.468108
  },
  {
    "title": "整租·圣馨大地 2室1厅 西",
    "community": "圣馨大地",
    "area": "113.25",
    "rooms": "2室1厅",
    "direction": "西",
    "floor": "",
    "price": "9000",
    "tags": "",
    "source": "",
    "url": "https://bj.lianjia.com/zufang/BJ2146941491564511232.html",
    "rent_type": "整租",
    "location": "朝阳区-望京-圣馨大地",
    "scraped_at": "2026-05-02 21:10:42",
    "region": "望京",
    "unit_price": 79.5,
    "lat": 39.99352,
    "lng": 116.455078
  },
  {
    "title": "整租·东湖湾三期 2室1厅 南",
    "community": "东湖湾三期",
    "area": "93.95",
    "rooms": "2室1厅",
    "direction": "南",
    "floor": "",
    "price": "14500",
    "tags": "",
    "source": "",
    "url": "https://bj.lianjia.com/zufang/BJ2146985684001357824.html",
    "rent_type": "整租",
    "location": "朝阳区-望京-东湖湾三期",
    "scraped_at": "2026-05-02 21:10:40",
    "region": "望京",
    "unit_price": 154.3,
    "lat": 39.996775,
    "lng": 116.482786
  },
  {
    "title": "整租·花家地北里 1室1厅 南",
    "community": "花家地北里",
    "area": "77.00",
    "rooms": "1室1厅",
    "direction": "南",
    "floor": "",
    "price": "7500",
    "tags": "",
    "source": "",
    "url": "https://bj.lianjia.com/zufang/BJ2146916713705242624.html",
    "rent_type": "整租",
    "location": "朝阳区-望京-花家地北里",
    "scraped_at": "2026-05-02 21:10:40",
    "region": "望京",
    "unit_price": 97.4,
    "lat": 39.985543,
    "lng": 116.460676
  },
  {
    "title": "整租·佳境天城 2室1厅 东南",
    "community": "佳境天城",
    "area": "116.00",
    "rooms": "2室1厅",
    "direction": "东南",
    "floor": "",
    "price": "8300",
    "tags": "",
    "source": "",
    "url": "https://bj.lianjia.com/zufang/BJ2147178803573555200.html",
    "rent_type": "整租",
    "location": "朝阳区-望京-佳境天城",
    "scraped_at": "2026-05-02 21:10:40",
    "region": "望京",
    "unit_price": 71.6,
    "lat": 39.988128,
    "lng": 116.451533
  },
  {
    "title": "整租·星源国际 1室1厅 南",
    "community": "星源国际",
    "area": "90.31",
    "rooms": "1室1厅",
    "direction": "南",
    "floor": "",
    "price": "7500",
    "tags": "",
    "source": "",
    "url": "https://bj.lianjia.com/zufang/BJ2147303972430413824.html",
    "rent_type": "整租",
    "location": "朝阳区-望京-星源国际",
    "scraped_at": "2026-05-02 21:10:40",
    "region": "望京",
    "unit_price": 83.0,
    "lat": 40.000826,
    "lng": 116.462738
  },
  {
    "title": "整租·方恒国际中心 2房间 西南",
    "community": "方恒国际中心 2房间 西南",
    "area": "82.00",
    "rooms": "",
    "direction": "",
    "floor": "",
    "price": "7000",
    "tags": "",
    "source": "",
    "url": "https://bj.lianjia.com/zufang/BJ2147275745519468544.html",
    "rent_type": "整租",
    "location": "朝阳区-望京-方恒国际中心",
    "scraped_at": "2026-05-02 21:10:40",
    "region": "望京",
    "unit_price": 85.4,
    "lat": 39.989736,
    "lng": 116.475868
  },
  {
    "title": "整租·博雅国际 1室0厅 北",
    "community": "博雅国际",
    "area": "50.00",
    "rooms": "1室0厅",
    "direction": "北",
    "floor": "",
    "price": "5500",
    "tags": "",
    "source": "",
    "url": "https://bj.lianjia.com/zufang/BJ2147273505274593280.html",
    "rent_type": "整租",
    "location": "朝阳区-望京-博雅国际",
    "scraped_at": "2026-05-02 21:10:40",
    "region": "望京",
    "unit_price": 110.0,
    "lat": 40.012612,
    "lng": 116.463274
  },
  {
    "title": "整租·博雅国际 1室0厅 北",
    "community": "博雅国际",
    "area": "50.00",
    "rooms": "1室0厅",
    "direction": "北",
    "floor": "",
    "price": "5500",
    "tags": "",
    "source": "",
    "url": "https://bj.lianjia.com/zufang/BJ2147270387510018048.html",
    "rent_type": "整租",
    "location": "朝阳区-望京-博雅国际",
    "scraped_at": "2026-05-02 21:10:40",
    "region": "望京",
    "unit_price": 110.0,
    "lat": 40.012612,
    "lng": 116.463274
  },
  {
    "title": "整租·慧谷阳光 1室1厅 东",
    "community": "慧谷阳光",
    "area": "65.00",
    "rooms": "1室1厅",
    "direction": "东",
    "floor": "",
    "price": "7600",
    "tags": "",
    "source": "",
    "url": "https://bj.lianjia.com/zufang/BJ2147314524250701824.html",
    "rent_type": "整租",
    "location": "朝阳区-望京-慧谷阳光",
    "scraped_at": "2026-05-02 21:10:40",
    "region": "望京",
    "unit_price": 116.9,
    "lat": 40.003686,
    "lng": 116.483508
  },
  {
    "title": "整租·望京西园三区 2室1厅 南",
    "community": "望京西园三区",
    "area": "95.10",
    "rooms": "2室1厅",
    "direction": "南",
    "floor": "",
    "price": "7800",
    "tags": "",
    "source": "",
    "url": "https://bj.lianjia.com/zufang/BJ2147570812951986176.html",
    "rent_type": "整租",
    "location": "朝阳区-望京-望京西园三区",
    "scraped_at": "2026-05-02 21:10:40",
    "region": "望京",
    "unit_price": 82.0,
    "lat": 39.999276,
    "lng": 116.470198
  },
  {
    "title": "整租·大西洋新城E区 3室2厅 东/南",
    "community": "大西洋新城E区",
    "area": "183.00",
    "rooms": "3室2厅",
    "direction": "东/南",
    "floor": "",
    "price": "22000",
    "tags": "",
    "source": "",
    "url": "https://bj.lianjia.com/zufang/BJ2147945788922134528.html",
    "rent_type": "整租",
    "location": "朝阳区-望京-大西洋新城",
    "scraped_at": "2026-05-02 21:10:42",
    "region": "望京",
    "unit_price": 120.2,
    "lat": 39.990216,
    "lng": 116.458008
  },
  {
    "title": "整租·中环南路11号院 2室1厅 南/北",
    "community": "中环南路11号院",
    "area": "47.66",
    "rooms": "2室1厅",
    "direction": "南/北",
    "floor": "",
    "price": "6800",
    "tags": "",
    "source": "",
    "url": "https://bj.lianjia.com/zufang/BJ2147979193609093120.html",
    "rent_type": "整租",
    "location": "朝阳区-望京-中环南路",
    "scraped_at": "2026-05-02 21:10:40",
    "region": "望京",
    "unit_price": 142.7,
    "lat": 39.984902,
    "lng": 116.464733
  },
  {
    "title": "整租·宝星国际二期 1室0厅 东/南",
    "community": "宝星国际二期",
    "area": "63.09",
    "rooms": "1室0厅",
    "direction": "东/南",
    "floor": "",
    "price": "6800",
    "tags": "",
    "source": "",
    "url": "https://bj.lianjia.com/zufang/BJ2147926684232318976.html",
    "rent_type": "整租",
    "location": "朝阳区-望京-宝星国际二期",
    "scraped_at": "2026-05-02 21:10:40",
    "region": "望京",
    "unit_price": 107.8,
    "lat": 39.999595,
    "lng": 116.474926
  },
  {
    "title": "整租·东亚望京中心 1房间 东",
    "community": "东亚望京中心 1房间 东",
    "area": "39.66",
    "rooms": "",
    "direction": "",
    "floor": "",
    "price": "4800",
    "tags": "",
    "source": "",
    "url": "https://bj.lianjia.com/zufang/BJ2147979123392249856.html",
    "rent_type": "整租",
    "location": "朝阳区-望京-东亚望京中心",
    "scraped_at": "2026-05-02 21:11:34",
    "region": "望京",
    "unit_price": 121.0,
    "lat": 39.990827,
    "lng": 116.466509
  },
  {
    "title": "整租·南湖渠西里 1室1厅 南",
    "community": "南湖渠西里",
    "area": "42.60",
    "rooms": "1室1厅",
    "direction": "南",
    "floor": "",
    "price": "5100",
    "tags": "",
    "source": "",
    "url": "https://bj.lianjia.com/zufang/BJ2147970085866700800.html",
    "rent_type": "整租",
    "location": "朝阳区-望京-南湖渠西里",
    "scraped_at": "2026-05-02 21:11:34",
    "region": "望京",
    "unit_price": 119.7,
    "lat": 39.991296,
    "lng": 116.449637
  },
  {
    "title": "整租·东亚望京中心 3房间 东南",
    "community": "东亚望京中心 3房间 东南",
    "area": "85.47",
    "rooms": "",
    "direction": "",
    "floor": "",
    "price": "7200",
    "tags": "",
    "source": "",
    "url": "https://bj.lianjia.com/zufang/BJ2148054478673149952.html",
    "rent_type": "整租",
    "location": "朝阳区-望京-东亚望京中心",
    "scraped_at": "2026-05-02 21:11:34",
    "region": "望京",
    "unit_price": 84.2,
    "lat": 39.990827,
    "lng": 116.466509
  },
  {
    "title": "整租·望京路10号院 1室1厅 南/北",
    "community": "望京路10号院",
    "area": "47.00",
    "rooms": "1室1厅",
    "direction": "南/北",
    "floor": "",
    "price": "5200",
    "tags": "",
    "source": "",
    "url": "https://bj.lianjia.com/zufang/BJ2148385705863151616.html",
    "rent_type": "整租",
    "location": "朝阳区-望京-望京路",
    "scraped_at": "2026-05-02 21:11:37",
    "region": "望京",
    "unit_price": 110.6,
    "lat": 39.987607,
    "lng": 116.466844
  },
  {
    "title": "整租·国风上观 3室2厅 南",
    "community": "国风上观",
    "area": "196.80",
    "rooms": "3室2厅",
    "direction": "南",
    "floor": "",
    "price": "19000",
    "tags": "",
    "source": "",
    "url": "https://bj.lianjia.com/zufang/BJ2148377834337337344.html",
    "rent_type": "整租",
    "location": "朝阳区-望京-国风上观",
    "scraped_at": "2026-05-02 21:11:37",
    "region": "望京",
    "unit_price": 96.5,
    "lat": 39.992406,
    "lng": 116.481028
  },
  {
    "title": "整租·南湖东园二区 1室1厅 西",
    "community": "南湖东园二区",
    "area": "55.16",
    "rooms": "1室1厅",
    "direction": "西",
    "floor": "",
    "price": "5000",
    "tags": "",
    "source": "",
    "url": "https://bj.lianjia.com/zufang/BJ2148047826242764800.html",
    "rent_type": "整租",
    "location": "朝阳区-望京-南湖东园二区",
    "scraped_at": "2026-05-02 21:11:37",
    "region": "望京",
    "unit_price": 90.6,
    "lat": 39.998853,
    "lng": 116.458896
  },
  {
    "title": "整租·东亚望京中心 1房间 西北",
    "community": "东亚望京中心 1房间 西北",
    "area": "39.90",
    "rooms": "",
    "direction": "",
    "floor": "",
    "price": "5100",
    "tags": "",
    "source": "",
    "url": "https://bj.lianjia.com/zufang/BJ2148346389938044928.html",
    "rent_type": "整租",
    "location": "朝阳区-望京-东亚望京中心",
    "scraped_at": "2026-05-02 21:11:37",
    "region": "望京",
    "unit_price": 127.8,
    "lat": 39.990827,
    "lng": 116.466509
  },
  {
    "title": "整租·澳洲康都 1室1厅 东",
    "community": "澳洲康都",
    "area": "62.00",
    "rooms": "1室1厅",
    "direction": "东",
    "floor": "",
    "price": "6800",
    "tags": "",
    "source": "",
    "url": "https://bj.lianjia.com/zufang/BJ2148345284965433344.html",
    "rent_type": "整租",
    "location": "朝阳区-望京-澳洲康都",
    "scraped_at": "2026-05-02 21:11:37",
    "region": "望京",
    "unit_price": 109.7,
    "lat": 39.988875,
    "lng": 116.476467
  },
  {
    "title": "整租·望京路3号院 1室1厅 南",
    "community": "望京路3号院",
    "area": "47.18",
    "rooms": "1室1厅",
    "direction": "南",
    "floor": "",
    "price": "5600",
    "tags": "",
    "source": "",
    "url": "https://bj.lianjia.com/zufang/BJ2148323751018627072.html",
    "rent_type": "整租",
    "location": "朝阳区-望京-望京路",
    "scraped_at": "2026-05-02 21:11:37",
    "region": "望京",
    "unit_price": 118.7,
    "lat": 39.990403,
    "lng": 116.464339
  },
  {
    "title": "整租·望京新城 4室1厅 西南",
    "community": "望京新城",
    "area": "110.14",
    "rooms": "4室1厅",
    "direction": "西南",
    "floor": "",
    "price": "8300",
    "tags": "",
    "source": "",
    "url": "https://bj.lianjia.com/zufang/BJ2046567576544215040.html",
    "rent_type": "整租",
    "location": "朝阳区-望京-望京新城",
    "scraped_at": "2026-05-02 21:10:40",
    "region": "望京",
    "unit_price": 75.4,
    "lat": 39.996056,
    "lng": 116.468108
  },
  {
    "title": "整租·金隅国际 3室2厅 东南",
    "community": "金隅国际",
    "area": "196.93",
    "rooms": "3室2厅",
    "direction": "东南",
    "floor": "",
    "price": "14000",
    "tags": "",
    "source": "",
    "url": "https://bj.lianjia.com/zufang/BJ2045103897915162624.html",
    "rent_type": "整租",
    "location": "朝阳区-望京-金隅国际",
    "scraped_at": "2026-05-02 21:10:40",
    "region": "望京",
    "unit_price": 71.1,
    "lat": 39.984271,
    "lng": 116.451643
  },
  {
    "title": "整租·中环南路3号院 3室1厅 东南",
    "community": "中环南路3号院",
    "area": "71.00",
    "rooms": "3室1厅",
    "direction": "东南",
    "floor": "",
    "price": "6400",
    "tags": "",
    "source": "",
    "url": "https://bj.lianjia.com/zufang/BJ2045493304459526144.html",
    "rent_type": "整租",
    "location": "朝阳区-望京-中环南路",
    "scraped_at": "2026-05-02 21:10:40",
    "region": "望京",
    "unit_price": 90.1,
    "lat": 39.981186,
    "lng": 116.469578
  },
  {
    "title": "整租·鹿港嘉苑 2室1厅 南",
    "community": "鹿港嘉苑",
    "area": "96.89",
    "rooms": "2室1厅",
    "direction": "南",
    "floor": "",
    "price": "11000",
    "tags": "",
    "source": "",
    "url": "https://bj.lianjia.com/zufang/BJ2058490885313658880.html",
    "rent_type": "整租",
    "location": "朝阳区-望京-鹿港嘉苑",
    "scraped_at": "2026-05-02 21:10:40",
    "region": "望京",
    "unit_price": 113.5,
    "lat": 39.990644,
    "lng": 116.462878
  },
  {
    "title": "整租·东亚望京中心 1房间 西北",
    "community": "东亚望京中心 1房间 西北",
    "area": "40.00",
    "rooms": "",
    "direction": "",
    "floor": "",
    "price": "5300",
    "tags": "",
    "source": "",
    "url": "https://bj.lianjia.com/zufang/BJ2073404317385097216.html",
    "rent_type": "整租",
    "location": "朝阳区-望京-东亚望京中心",
    "scraped_at": "2026-05-02 21:10:40",
    "region": "望京",
    "unit_price": 132.5,
    "lat": 39.990827,
    "lng": 116.466509
  },
  {
    "title": "整租·北京香颂二期 3室3厅 复式 南/北",
    "community": "北京香颂二期",
    "area": "196.01",
    "rooms": "3室3厅",
    "direction": "",
    "floor": "",
    "price": "19800",
    "tags": "",
    "source": "",
    "url": "https://bj.lianjia.com/zufang/BJ2073364072711061504.html",
    "rent_type": "整租",
    "location": "朝阳区-望京-北京香颂二期",
    "scraped_at": "2026-05-02 21:10:40",
    "region": "望京",
    "unit_price": 101.0,
    "lat": 39.99238,
    "lng": 116.446
  },
  {
    "title": "整租·南湖东园一区 2室2厅 南/北",
    "community": "南湖东园一区",
    "area": "102.78",
    "rooms": "2室2厅",
    "direction": "南/北",
    "floor": "",
    "price": "7200",
    "tags": "",
    "source": "",
    "url": "https://bj.lianjia.com/zufang/BJ2126879565262356480.html",
    "rent_type": "整租",
    "location": "朝阳区-望京-南湖东园一区",
    "scraped_at": "2026-05-02 21:10:42",
    "region": "望京",
    "unit_price": 70.1,
    "lat": 40.003796,
    "lng": 116.459148
  },
  {
    "title": "整租·星源国际 2室1厅 西",
    "community": "星源国际",
    "area": "103.98",
    "rooms": "2室1厅",
    "direction": "西",
    "floor": "",
    "price": "8000",
    "tags": "",
    "source": "",
    "url": "https://bj.lianjia.com/zufang/BJ2126959113802874880.html",
    "rent_type": "整租",
    "location": "朝阳区-望京-星源国际",
    "scraped_at": "2026-05-02 21:10:42",
    "region": "望京",
    "unit_price": 76.9,
    "lat": 40.000826,
    "lng": 116.462738
  },
  {
    "title": "整租·宝星国际二期 2室2厅 东",
    "community": "宝星国际二期",
    "area": "89.00",
    "rooms": "2室2厅",
    "direction": "东",
    "floor": "",
    "price": "8500",
    "tags": "",
    "source": "",
    "url": "https://bj.lianjia.com/zufang/BJ2127004359827914752.html",
    "rent_type": "整租",
    "location": "朝阳区-望京-宝星国际二期",
    "scraped_at": "2026-05-02 21:10:42",
    "region": "望京",
    "unit_price": 95.5,
    "lat": 39.999595,
    "lng": 116.474926
  },
  {
    "title": "整租·华鼎世家 5室2厅 南/北",
    "community": "华鼎世家",
    "area": "281.11",
    "rooms": "5室2厅",
    "direction": "南/北",
    "floor": "",
    "price": "35000",
    "tags": "",
    "source": "",
    "url": "https://bj.lianjia.com/zufang/BJ2127758251700256768.html",
    "rent_type": "整租",
    "location": "朝阳区-望京-华鼎世家",
    "scraped_at": "2026-05-02 21:10:42",
    "region": "望京",
    "unit_price": 124.5,
    "lat": 39.99259,
    "lng": 116.4685
  },
  {
    "title": "整租·南湖东园一区 2室2厅 南/北",
    "community": "南湖东园一区",
    "area": "103.00",
    "rooms": "2室2厅",
    "direction": "南/北",
    "floor": "",
    "price": "7500",
    "tags": "",
    "source": "",
    "url": "https://bj.lianjia.com/zufang/BJ2128050297384206336.html",
    "rent_type": "整租",
    "location": "朝阳区-望京-南湖东园一区",
    "scraped_at": "2026-05-02 21:10:42",
    "region": "望京",
    "unit_price": 72.8,
    "lat": 40.003796,
    "lng": 116.459148
  },
  {
    "title": "整租·朝悦居 2室1厅 南",
    "community": "朝悦居",
    "area": "78.00",
    "rooms": "2室1厅",
    "direction": "南",
    "floor": "",
    "price": "7500",
    "tags": "",
    "source": "",
    "url": "https://bj.lianjia.com/zufang/BJ2128373010346803200.html",
    "rent_type": "整租",
    "location": "朝阳区-望京-朝悦居",
    "scraped_at": "2026-05-02 21:10:42",
    "region": "望京",
    "unit_price": 96.2,
    "lat": 40.000786,
    "lng": 116.463018
  },
  {
    "title": "整租·嘉瑞公寓 2房间 南/西",
    "community": "嘉瑞公寓 2房间 南/西",
    "area": "123.00",
    "rooms": "",
    "direction": "",
    "floor": "",
    "price": "16000",
    "tags": "",
    "source": "",
    "url": "https://bj.lianjia.com/zufang/BJ2145458199086497792.html",
    "rent_type": "整租",
    "location": "朝阳区-望京-嘉瑞公寓",
    "scraped_at": "2026-05-02 21:10:42",
    "region": "望京",
    "unit_price": 130.1,
    "lat": 40.000186,
    "lng": 116.484562
  },
  {
    "title": "整租·望花路东里 2室1厅 南",
    "community": "望花路东里",
    "area": "60.00",
    "rooms": "2室1厅",
    "direction": "南",
    "floor": "",
    "price": "5400",
    "tags": "",
    "source": "",
    "url": "https://bj.lianjia.com/zufang/BJ2145032857259606016.html",
    "rent_type": "整租",
    "location": "朝阳区-望京-望花路东里",
    "scraped_at": "2026-05-02 21:10:42",
    "region": "望京",
    "unit_price": 90.0,
    "lat": 40.00698,
    "lng": 116.461996
  },
  {
    "title": "整租·夏都盈座 1室1厅 西",
    "community": "夏都盈座",
    "area": "67.00",
    "rooms": "1室1厅",
    "direction": "西",
    "floor": "",
    "price": "6600",
    "tags": "",
    "source": "",
    "url": "https://bj.lianjia.com/zufang/BJ2145448234825285632.html",
    "rent_type": "整租",
    "location": "朝阳区-望京-夏都盈座",
    "scraped_at": "2026-05-02 21:10:42",
    "region": "望京",
    "unit_price": 98.5,
    "lat": 39.995116,
    "lng": 116.461238
  },
  {
    "title": "整租·东亚望京中心 1房间 西",
    "community": "东亚望京中心 1房间 西",
    "area": "124.89",
    "rooms": "",
    "direction": "",
    "floor": "",
    "price": "9000",
    "tags": "",
    "source": "",
    "url": "https://bj.lianjia.com/zufang/BJ2145484111131705344.html",
    "rent_type": "整租",
    "location": "朝阳区-望京-东亚望京中心",
    "scraped_at": "2026-05-02 21:10:42",
    "region": "望京",
    "unit_price": 72.1,
    "lat": 39.990827,
    "lng": 116.466509
  },
  {
    "title": "整租·博雅国际 1室1厅 西",
    "community": "博雅国际",
    "area": "83.00",
    "rooms": "1室1厅",
    "direction": "西",
    "floor": "",
    "price": "7000",
    "tags": "",
    "source": "",
    "url": "https://bj.lianjia.com/zufang/BJ2145450877681401856.html",
    "rent_type": "整租",
    "location": "朝阳区-望京-博雅国际",
    "scraped_at": "2026-05-02 21:10:42",
    "region": "望京",
    "unit_price": 84.3,
    "lat": 40.012612,
    "lng": 116.463274
  },
  {
    "title": "整租·望京明苑 2室1厅 东南",
    "community": "望京明苑",
    "area": "98.00",
    "rooms": "2室1厅",
    "direction": "东南",
    "floor": "",
    "price": "7300",
    "tags": "",
    "source": "",
    "url": "https://bj.lianjia.com/zufang/BJ2145516564563099648.html",
    "rent_type": "整租",
    "location": "朝阳区-望京-望京明苑",
    "scraped_at": "2026-05-02 21:10:42",
    "region": "望京",
    "unit_price": 74.5,
    "lat": 39.995473,
    "lng": 116.458054
  },
  {
    "title": "整租·方恒国际中心 2室1厅 南",
    "community": "方恒国际中心",
    "area": "119.68",
    "rooms": "2室1厅",
    "direction": "南",
    "floor": "",
    "price": "12000",
    "tags": "",
    "source": "",
    "url": "https://bj.lianjia.com/zufang/BJ2145530225977458688.html",
    "rent_type": "整租",
    "location": "朝阳区-望京-方恒国际中心",
    "scraped_at": "2026-05-02 21:10:42",
    "region": "望京",
    "unit_price": 100.3,
    "lat": 39.989736,
    "lng": 116.475868
  },
  {
    "title": "整租·华鼎世家 4室2厅 南/北",
    "community": "华鼎世家",
    "area": "239.00",
    "rooms": "4室2厅",
    "direction": "南/北",
    "floor": "",
    "price": "22000",
    "tags": "",
    "source": "",
    "url": "https://bj.lianjia.com/zufang/BJ2145745321920036864.html",
    "rent_type": "整租",
    "location": "朝阳区-望京-华鼎世家",
    "scraped_at": "2026-05-02 21:10:42",
    "region": "望京",
    "unit_price": 92.1,
    "lat": 39.99259,
    "lng": 116.4685
  },
  {
    "title": "整租·星源国际 2室2厅 西",
    "community": "星源国际",
    "area": "103.98",
    "rooms": "2室2厅",
    "direction": "西",
    "floor": "",
    "price": "8000",
    "tags": "",
    "source": "",
    "url": "https://bj.lianjia.com/zufang/BJ2145768224950583296.html",
    "rent_type": "整租",
    "location": "朝阳区-望京-星源国际",
    "scraped_at": "2026-05-02 21:10:42",
    "region": "望京",
    "unit_price": 76.9,
    "lat": 40.000826,
    "lng": 116.462738
  },
  {
    "title": "整租·南湖东园二区 1室1厅 西",
    "community": "南湖东园二区",
    "area": "54.00",
    "rooms": "1室1厅",
    "direction": "西",
    "floor": "",
    "price": "5780",
    "tags": "",
    "source": "",
    "url": "https://bj.lianjia.com/zufang/BJ2145916637616799744.html",
    "rent_type": "整租",
    "location": "朝阳区-望京-南湖东园二区",
    "scraped_at": "2026-05-02 21:10:42",
    "region": "望京",
    "unit_price": 107.0,
    "lat": 39.998853,
    "lng": 116.458896
  },
  {
    "title": "整租·湖光壹号 1室1厅 南",
    "community": "湖光壹号",
    "area": "75.00",
    "rooms": "1室1厅",
    "direction": "南",
    "floor": "",
    "price": "11000",
    "tags": "",
    "source": "",
    "url": "https://bj.lianjia.com/zufang/BJ2146128336378658816.html",
    "rent_type": "整租",
    "location": "朝阳区-望京-湖光壹号",
    "scraped_at": "2026-05-02 21:10:42",
    "region": "望京",
    "unit_price": 146.7,
    "lat": 39.996109,
    "lng": 116.460053
  },
  {
    "title": "整租·北纬40度二期 1室1厅 南",
    "community": "北纬40度二期",
    "area": "70.86",
    "rooms": "1室1厅",
    "direction": "南",
    "floor": "",
    "price": "6800",
    "tags": "",
    "source": "",
    "url": "https://bj.lianjia.com/zufang/BJ2146091012177526784.html",
    "rent_type": "整租",
    "location": "朝阳区-望京-北纬",
    "scraped_at": "2026-05-02 21:10:42",
    "region": "望京",
    "unit_price": 96.0,
    "lat": 40.011829,
    "lng": 116.456016
  },
  {
    "title": "整租·望京花园西区 2室1厅 西北",
    "community": "望京花园西区",
    "area": "85.27",
    "rooms": "2室1厅",
    "direction": "西北",
    "floor": "",
    "price": "7100",
    "tags": "",
    "source": "",
    "url": "https://bj.lianjia.com/zufang/BJ2146127095669981184.html",
    "rent_type": "整租",
    "location": "朝阳区-望京-望京花园西区",
    "scraped_at": "2026-05-02 21:10:42",
    "region": "望京",
    "unit_price": 83.3,
    "lat": 40.00698,
    "lng": 116.461996
  },
  {
    "title": "整租·悠乐汇 1房间 东南",
    "community": "悠乐汇 1房间 东南",
    "area": "50.00",
    "rooms": "",
    "direction": "",
    "floor": "",
    "price": "4800",
    "tags": "",
    "source": "",
    "url": "https://bj.lianjia.com/zufang/BJ2146841703078690816.html",
    "rent_type": "整租",
    "location": "朝阳区-望京-悠乐汇",
    "scraped_at": "2026-05-02 21:10:42",
    "region": "望京",
    "unit_price": 96.0,
    "lat": 39.987996,
    "lng": 116.471828
  },
  {
    "title": "整租·望馨花园 2室1厅 东南",
    "community": "望馨花园",
    "area": "94.41",
    "rooms": "2室1厅",
    "direction": "东南",
    "floor": "",
    "price": "8000",
    "tags": "",
    "source": "",
    "url": "https://bj.lianjia.com/zufang/BJ2148463317977399296.html",
    "rent_type": "整租",
    "location": "朝阳区-望京-望馨花园",
    "scraped_at": "2026-05-02 21:11:34",
    "region": "望京",
    "unit_price": 84.7,
    "lat": 40.007533,
    "lng": 116.456105
  },
  {
    "title": "整租·博雅国际 1室0厅 北",
    "community": "博雅国际",
    "area": "50.64",
    "rooms": "1室0厅",
    "direction": "北",
    "floor": "",
    "price": "5500",
    "tags": "",
    "source": "",
    "url": "https://bj.lianjia.com/zufang/BJ2148808246683500544.html",
    "rent_type": "整租",
    "location": "朝阳区-望京-博雅国际",
    "scraped_at": "2026-05-02 21:11:34",
    "region": "望京",
    "unit_price": 108.6,
    "lat": 40.012612,
    "lng": 116.463274
  },
  {
    "title": "整租·南湖中园一区 2室1厅 南/北",
    "community": "南湖中园一区",
    "area": "75.00",
    "rooms": "2室1厅",
    "direction": "南/北",
    "floor": "",
    "price": "7500",
    "tags": "",
    "source": "",
    "url": "https://bj.lianjia.com/zufang/BJ2149003922709151744.html",
    "rent_type": "整租",
    "location": "朝阳区-望京-南湖中园一区",
    "scraped_at": "2026-05-02 21:11:34",
    "region": "望京",
    "unit_price": 100.0,
    "lat": 40.000646,
    "lng": 116.456358
  },
  {
    "title": "整租·花家地北里 1室1厅 西南",
    "community": "花家地北里",
    "area": "47.87",
    "rooms": "1室1厅",
    "direction": "西南",
    "floor": "",
    "price": "5000",
    "tags": "",
    "source": "",
    "url": "https://bj.lianjia.com/zufang/BJ2149060330309812224.html",
    "rent_type": "整租",
    "location": "朝阳区-望京-花家地北里",
    "scraped_at": "2026-05-02 21:11:34",
    "region": "望京",
    "unit_price": 104.4,
    "lat": 39.985543,
    "lng": 116.460676
  },
  {
    "title": "整租·蓝色家园 2室1厅 东/北",
    "community": "蓝色家园",
    "area": "76.52",
    "rooms": "2室1厅",
    "direction": "东/北",
    "floor": "",
    "price": "8500",
    "tags": "",
    "source": "",
    "url": "https://bj.lianjia.com/zufang/BJ2149144903475527680.html",
    "rent_type": "整租",
    "location": "朝阳区-望京-蓝色家园",
    "scraped_at": "2026-05-02 21:11:34",
    "region": "望京",
    "unit_price": 111.1,
    "lat": 39.988598,
    "lng": 116.472606
  },
  {
    "title": "整租·宝星国际二期 1室1厅 南",
    "community": "宝星国际二期",
    "area": "53.00",
    "rooms": "1室1厅",
    "direction": "南",
    "floor": "",
    "price": "6800",
    "tags": "",
    "source": "",
    "url": "https://bj.lianjia.com/zufang/BJ2149147714124775424.html",
    "rent_type": "整租",
    "location": "朝阳区-望京-宝星国际二期",
    "scraped_at": "2026-05-02 21:11:34",
    "region": "望京",
    "unit_price": 128.3,
    "lat": 39.999595,
    "lng": 116.474926
  },
  {
    "title": "整租·澳洲康都 1室1厅 南",
    "community": "澳洲康都",
    "area": "66.00",
    "rooms": "1室1厅",
    "direction": "南",
    "floor": "",
    "price": "6600",
    "tags": "",
    "source": "",
    "url": "https://bj.lianjia.com/zufang/BJ2149358727478640640.html",
    "rent_type": "整租",
    "location": "朝阳区-望京-澳洲康都",
    "scraped_at": "2026-05-02 21:11:34",
    "region": "望京",
    "unit_price": 100.0,
    "lat": 39.988875,
    "lng": 116.476467
  },
  {
    "title": "整租·北纬40度一期 2室1厅 南",
    "community": "北纬40度一期",
    "area": "89.19",
    "rooms": "2室1厅",
    "direction": "南",
    "floor": "",
    "price": "8600",
    "tags": "",
    "source": "",
    "url": "https://bj.lianjia.com/zufang/BJ2149154386062868480.html",
    "rent_type": "整租",
    "location": "朝阳区-望京-北纬",
    "scraped_at": "2026-05-02 21:11:37",
    "region": "望京",
    "unit_price": 96.4,
    "lat": 40.011829,
    "lng": 116.456016
  },
  {
    "title": "整租·南湖中园一区 2室1厅 南/北",
    "community": "南湖中园一区",
    "area": "74.85",
    "rooms": "2室1厅",
    "direction": "南/北",
    "floor": "",
    "price": "8500",
    "tags": "",
    "source": "",
    "url": "https://bj.lianjia.com/zufang/BJ2129865417924018176.html",
    "rent_type": "整租",
    "location": "朝阳区-望京-南湖中园一区",
    "scraped_at": "2026-05-02 21:11:37",
    "region": "望京",
    "unit_price": 113.6,
    "lat": 40.000646,
    "lng": 116.456358
  },
  {
    "title": "整租·南湖东园二区 1室1厅 东",
    "community": "南湖东园二区",
    "area": "54.00",
    "rooms": "1室1厅",
    "direction": "东",
    "floor": "",
    "price": "5500",
    "tags": "",
    "source": "",
    "url": "https://bj.lianjia.com/zufang/BJ2133405835613700096.html",
    "rent_type": "整租",
    "location": "朝阳区-望京-南湖东园二区",
    "scraped_at": "2026-05-02 21:11:37",
    "region": "望京",
    "unit_price": 101.9,
    "lat": 39.998853,
    "lng": 116.458896
  },
  {
    "title": "整租·东亚望京中心 3房间 西南",
    "community": "东亚望京中心 3房间 西南",
    "area": "90.00",
    "rooms": "",
    "direction": "",
    "floor": "",
    "price": "8200",
    "tags": "",
    "source": "",
    "url": "https://bj.lianjia.com/zufang/BJ2136679441055612928.html",
    "rent_type": "整租",
    "location": "朝阳区-望京-东亚望京中心",
    "scraped_at": "2026-05-02 21:11:37",
    "region": "望京",
    "unit_price": 91.1,
    "lat": 39.990827,
    "lng": 116.466509
  },
  {
    "title": "整租·首开知语城 3室2厅 南/北",
    "community": "首开知语城",
    "area": "174.92",
    "rooms": "3室2厅",
    "direction": "南/北",
    "floor": "",
    "price": "14500",
    "tags": "",
    "source": "",
    "url": "https://bj.lianjia.com/zufang/BJ2137119704005738496.html",
    "rent_type": "整租",
    "location": "朝阳区-望京-首开知语城",
    "scraped_at": "2026-05-02 21:11:37",
    "region": "望京",
    "unit_price": 82.9,
    "lat": 39.992925,
    "lng": 116.480478
  },
  {
    "title": "整租·星源国际 1室1厅 东",
    "community": "星源国际",
    "area": "55.51",
    "rooms": "1室1厅",
    "direction": "东",
    "floor": "",
    "price": "5000",
    "tags": "",
    "source": "",
    "url": "https://bj.lianjia.com/zufang/BJ2137454442092429312.html",
    "rent_type": "整租",
    "location": "朝阳区-望京-星源国际",
    "scraped_at": "2026-05-02 21:11:37",
    "region": "望京",
    "unit_price": 90.1,
    "lat": 40.000826,
    "lng": 116.462738
  },
  {
    "title": "整租·朝悦居 3室1厅 南/北",
    "community": "朝悦居",
    "area": "100.75",
    "rooms": "3室1厅",
    "direction": "南/北",
    "floor": "",
    "price": "10000",
    "tags": "",
    "source": "",
    "url": "https://bj.lianjia.com/zufang/BJ2137482064394452992.html",
    "rent_type": "整租",
    "location": "朝阳区-望京-朝悦居",
    "scraped_at": "2026-05-02 21:11:37",
    "region": "望京",
    "unit_price": 99.3,
    "lat": 40.000786,
    "lng": 116.463018
  },
  {
    "title": "整租·南湖东园二区 1室1厅 西",
    "community": "南湖东园二区",
    "area": "65.44",
    "rooms": "1室1厅",
    "direction": "西",
    "floor": "",
    "price": "5300",
    "tags": "",
    "source": "",
    "url": "https://bj.lianjia.com/zufang/BJ2137770744032002048.html",
    "rent_type": "整租",
    "location": "朝阳区-望京-南湖东园二区",
    "scraped_at": "2026-05-02 21:11:37",
    "region": "望京",
    "unit_price": 81.0,
    "lat": 39.998853,
    "lng": 116.458896
  },
  {
    "title": "整租·炫彩嘉轩 2室1厅 东",
    "community": "炫彩嘉轩",
    "area": "88.68",
    "rooms": "2室1厅",
    "direction": "东",
    "floor": "",
    "price": "8000",
    "tags": "",
    "source": "",
    "url": "https://bj.lianjia.com/zufang/BJ2137890307562274816.html",
    "rent_type": "整租",
    "location": "朝阳区-望京-炫彩嘉轩",
    "scraped_at": "2026-05-02 21:11:37",
    "region": "望京",
    "unit_price": 90.2,
    "lat": 39.988875,
    "lng": 116.476467
  },
  {
    "title": "整租·北纬40度二期 1室1厅 南",
    "community": "北纬40度二期",
    "area": "68.00",
    "rooms": "1室1厅",
    "direction": "南",
    "floor": "",
    "price": "7800",
    "tags": "",
    "source": "",
    "url": "https://bj.lianjia.com/zufang/BJ2137933731606822912.html",
    "rent_type": "整租",
    "location": "朝阳区-望京-北纬",
    "scraped_at": "2026-05-02 21:11:37",
    "region": "望京",
    "unit_price": 114.7,
    "lat": 40.011829,
    "lng": 116.456016
  },