[
  {
    "title": "整租·东方城市花园(二期) 2室2厅 南",
    "community": "东方城市花园(二期)",
    "area": "118.45",
    "rooms": "2室2厅",
    "direction": "南",
    "floor": "",
    "price": "8300",
    "tags": "",
    "source": "",
    "url": "https://sh.lianjia.com/zufang/SH2154872900732059648.html",
    "rent_type": "整租",
    "location": "浦东-南码头-东方城市花园(二期)",
    "scraped_at": "2026-04-23 10:24:36",
    "region": "nanmatou",
    "unit_price": 70.1,
    "lat": 31.2015,
    "lng": 121.51817
  },
  {
    "title": "整租·保利世博天悦 4室3厅 南/北",
    "community": "保利世博天悦",
    "area": "252.00",
    "rooms": "4室3厅",
    "direction": "南/北",
    "floor": "",
    "price": "70000",
    "tags": "",
    "source": "",
    "url": "https://sh.lianjia.com/zufang/SH2115343581563584512.html",
    "rent_type": "整租",
    "location": "浦东-南码头-保利世博天悦",
    "scraped_at": "2026-04-23 10:24:36",
    "region": "nanmatou",
    "unit_price": 277.8,
    "lat": 31.1821,
    "lng": 121.51621
  },
  {
    "title": "整租·天健浦荟大楼 2室1厅 南",
    "community": "天健浦荟大楼",
    "area": "58.00",
    "rooms": "2室1厅",
    "direction": "南",
    "floor": "",
    "price": "7140",
    "tags": "",
    "source": "",
    "url": "https://sh.lianjia.com/zufang/SH2060684072308441088.html",
    "rent_type": "整租",
    "location": "浦东-南码头-天健浦荟大楼",
    "scraped_at": "2026-04-23 10:24:55",
    "region": "nanmatou",
    "unit_price": 123.1,
    "lat": 31.1821,
    "lng": 121.51621
  },
  {
    "title": "独栋·城方公寓 南浦璟博社区 黄浦滨江 国企直租 一线江景房 民水电燃 可提公积金 1室1厅",
    "community": "城方公寓 南浦璟博社区 黄浦滨江",
    "area": "52.25",
    "rooms": "1室1厅",
    "direction": "",
    "floor": "",
    "price": "7064-7145",
    "tags": "",
    "source": "",
    "url": "https://sh.lianjia.com/apartment/60006.html",
    "rent_type": "独栋",
    "location": "",
    "scraped_at": "2026-04-23 10:24:42",
    "region": "nanmatou",
    "unit_price": "",
    "lat": 39.901054,
    "lng": 116.314698
  },
  {
    "title": "整租·沂南路54弄 1室1厅 南",
    "community": "沂南路54弄",
    "area": "40.50",
    "rooms": "1室1厅",
    "direction": "南",
    "floor": "",
    "price": "3500",
    "tags": "",
    "source": "",
    "url": "https://sh.lianjia.com/zufang/SH2068016774460211200.html",
    "rent_type": "整租",
    "location": "浦东-南码头-沂南路",
    "scraped_at": "2026-04-23 10:24:55",
    "region": "nanmatou",
    "unit_price": 86.4,
    "lat": 31.20069,
    "lng": 121.5049
  },
  {
    "title": "独栋·城方公寓 世博璟尚社区 一线江景三房两卫带地暖 3室2厅",
    "community": "城方公寓 世博璟尚社区",
    "area": "125.00",
    "rooms": "3室2厅",
    "direction": "",
    "floor": "",
    "price": "22465",
    "tags": "",
    "source": "",
    "url": "https://sh.lianjia.com/apartment/74843.html",
    "rent_type": "独栋",
    "location": "",
    "scraped_at": "2026-04-23 10:24:39",
    "region": "nanmatou",
    "unit_price": 179.7,
    "lat": 39.901054,
    "lng": 116.314698
  },
  {
    "title": "整租·明丰佳园 2室1厅 南",
    "community": "明丰佳园",
    "area": "75.00",
    "rooms": "2室1厅",
    "direction": "南",
    "floor": "",
    "price": "6000",
    "tags": "",
    "source": "",
    "url": "https://sh.lianjia.com/zufang/SH2008511136583909376.html",
    "rent_type": "整租",
    "location": "浦东-南码头-明丰佳园",
    "scraped_at": "2026-04-23 10:24:36",
    "region": "nanmatou",
    "unit_price": 80.0,
    "lat": 31.1821,
    "lng": 121.51621
  },
  {
    "title": "整租·东方城市花园(二期) 3室2厅 南",
    "community": "东方城市花园(二期)",
    "area": "151.71",
    "rooms": "3室2厅",
    "direction": "南",
    "floor": "",
    "price": "12000",
    "tags": "",
    "source": "",
    "url": "https://sh.lianjia.com/zufang/SH2108153951420416000.html",
    "rent_type": "整租",
    "location": "浦东-南码头-东方城市花园(二期)",
    "scraped_at": "2026-04-23 10:24:36",
    "region": "nanmatou",
    "unit_price": 79.1,
    "lat": 31.2015,
    "lng": 121.51817
  },
  {
    "title": "整租·银河小区 1室1厅 南/北",
    "community": "银河小区",
    "area": "39.00",
    "rooms": "1室1厅",
    "direction": "南/北",
    "floor": "",
    "price": "3800",
    "tags": "",
    "source": "",
    "url": "https://sh.lianjia.com/zufang/SH2115414285239713792.html",
    "rent_type": "整租",
    "location": "浦东-南码头-银河小区",
    "scraped_at": "2026-04-23 10:24:36",
    "region": "nanmatou",
    "unit_price": 97.4,
    "lat": 31.19976,
    "lng": 121.50771
  },
  {
    "title": "整租·临沂五村 1室1厅 南",
    "community": "临沂五村",
    "area": "41.65",
    "rooms": "1室1厅",
    "direction": "南",
    "floor": "",
    "price": "3800",
    "tags": "",
    "source": "",
    "url": "https://sh.lianjia.com/zufang/SH2156758794858659840.html",
    "rent_type": "整租",
    "location": "浦东-南码头-临沂五村",
    "scraped_at": "2026-04-23 10:24:36",
    "region": "nanmatou",
    "unit_price": 91.2,
    "lat": 31.19276,
    "lng": 121.50614
  },
  {
    "title": "整租·海关大楼 1室1厅 南",
    "community": "海关大楼",
    "area": "60.50",
    "rooms": "1室1厅",
    "direction": "南",
    "floor": "",
    "price": "4200",
    "tags": "",
    "source": "",
    "url": "https://sh.lianjia.com/zufang/SH1970497885808099328.html",
    "rent_type": "整租",
    "location": "浦东-南码头-海关大楼",
    "scraped_at": "2026-04-23 10:24:36",
    "region": "nanmatou",
    "unit_price": 69.4,
    "lat": 31.1821,
    "lng": 121.51621
  },
  {
    "title": "独栋·城方公寓 璟贤社区 精致一房 楼下滨江步道 民用水电拎包入住 宠物友好 1室1厅",
    "community": "城方公寓 璟贤社区",
    "area": "44.00",
    "rooms": "1室1厅",
    "direction": "",
    "floor": "",
    "price": "5960-6370",
    "tags": "",
    "source": "",
    "url": "https://sh.lianjia.com/apartment/97684.html",
    "rent_type": "独栋",
    "location": "",
    "scraped_at": "2026-04-23 10:24:36",
    "region": "nanmatou",
    "unit_price": "",
    "lat": 39.901054,
    "lng": 116.314698
  },
  {
    "title": "整租·塘南路159弄 2室1厅 南",
    "community": "塘南路159弄",
    "area": "57.00",
    "rooms": "2室1厅",
    "direction": "南",
    "floor": "",
    "price": "4300",
    "tags": "",
    "source": "",
    "url": "https://sh.lianjia.com/zufang/SH1979852457869574144.html",
    "rent_type": "整租",
    "location": "浦东-南码头-塘南路",
    "scraped_at": "2026-04-23 10:24:36",
    "region": "nanmatou",
    "unit_price": 75.4,
    "lat": 31.204209,
    "lng": 121.504279
  },
  {
    "title": "整租·东三小区 1室1厅 南",
    "community": "东三小区",
    "area": "35.72",
    "rooms": "1室1厅",
    "direction": "南",
    "floor": "",
    "price": "3600",
    "tags": "",
    "source": "",
    "url": "https://sh.lianjia.com/zufang/SH1734974518989946880.html",
    "rent_type": "整租",
    "location": "浦东-南码头-东三小区",
    "scraped_at": "2026-04-23 10:24:55",
    "region": "nanmatou",
    "unit_price": 100.8,
    "lat": 31.2077,
    "lng": 121.50744
  },
  {
    "title": "整租·鹏欣家园 1室1厅 南",
    "community": "鹏欣家园",
    "area": "59.42",
    "rooms": "1室1厅",
    "direction": "南",
    "floor": "",
    "price": "4500",
    "tags": "",
    "source": "",
    "url": "https://sh.lianjia.com/zufang/SH2151197105106976768.html",
    "rent_type": "整租",
    "location": "浦东-南码头-鹏欣家园",
    "scraped_at": "2026-04-23 10:24:36",
    "region": "nanmatou",
    "unit_price": 75.7,
    "lat": 31.1821,
    "lng": 121.51621
  },
  {
    "title": "整租·临沂八村 1室1厅 南",
    "community": "临沂八村",
    "area": "39.68",
    "rooms": "1室1厅",
    "direction": "南",
    "floor": "",
    "price": "3800",
    "tags": "",
    "source": "",
    "url": "https://sh.lianjia.com/zufang/SH2155659501137559552.html",
    "rent_type": "整租",
    "location": "浦东-南码头-临沂八村",
    "scraped_at": "2026-04-23 10:24:55",
    "region": "nanmatou",
    "unit_price": 95.8,
    "lat": 31.19844,
    "lng": 121.51219
  },
  {
    "title": "整租·沂南路42弄 1室1厅 南",
    "community": "沂南路42弄",
    "area": "32.79",
    "rooms": "1室1厅",
    "direction": "南",
    "floor": "",
    "price": "3800",
    "tags": "",
    "source": "",
    "url": "https://sh.lianjia.com/zufang/SH2151553172454244352.html",
    "rent_type": "整租",
    "location": "浦东-南码头-沂南路",
    "scraped_at": "2026-04-23 10:24:36",
    "region": "nanmatou",
    "unit_price": 115.9,
    "lat": 31.19943,
    "lng": 121.50369
  },
  {
    "title": "整租·天健浦荟大楼 2室1厅 南",
    "community": "天健浦荟大楼",
    "area": "55.95",
    "rooms": "2室1厅",
    "direction": "南",
    "floor": "",
    "price": "7000",
    "tags": "",
    "source": "",
    "url": "https://sh.lianjia.com/zufang/SH1903675486857330688.html",
    "rent_type": "整租",
    "location": "浦东-南码头-天健浦荟大楼",
    "scraped_at": "2026-04-23 10:24:36",
    "region": "nanmatou",
    "unit_price": 125.1,
    "lat": 31.1821,
    "lng": 121.51621
  },
  {
    "title": "整租·鹏欣家园 3室1厅 东北",
    "community": "鹏欣家园",
    "area": "80.18",
    "rooms": "3室1厅",
    "direction": "东北",
    "floor": "",
    "price": "6720",
    "tags": "",
    "source": "",
    "url": "https://sh.lianjia.com/zufang/SH1981966772751826944.html",
    "rent_type": "整租",
    "location": "浦东-南码头-鹏欣家园",
    "scraped_at": "2026-04-23 10:24:55",
    "region": "nanmatou",
    "unit_price": 83.8,
    "lat": 31.1821,
    "lng": 121.51621
  },
  {
    "title": "整租·临沂三村 1室1厅 南",
    "community": "临沂三村",
    "area": "37.17",
    "rooms": "1室1厅",
    "direction": "南",
    "floor": "",
    "price": "4200",
    "tags": "",
    "source": "",
    "url": "https://sh.lianjia.com/zufang/SH2155577508576100352.html",
    "rent_type": "整租",
    "location": "浦东-南码头-临沂三村",
    "scraped_at": "2026-04-23 10:24:36",
    "region": "nanmatou",
    "unit_price": 113.0,
    "lat": 31.1952,
    "lng": 121.50401
  },
  {
    "title": "整租·建业新村 2室1厅 南",
    "community": "建业新村",
    "area": "86.75",
    "rooms": "2室1厅",
    "direction": "南",
    "floor": "",
    "price": "6500",
    "tags": "",
    "source": "",
    "url": "https://sh.lianjia.com/zufang/SH2147562805287452672.html",
    "rent_type": "整租",
    "location": "浦东-南码头-建业新村",
    "scraped_at": "2026-04-23 10:24:36",
    "region": "nanmatou",
    "unit_price": 74.9,
    "lat": 31.19202,
    "lng": 121.51788
  },
  {
    "title": "整租·保利世博天悦 4室2厅 南",
    "community": "保利世博天悦",
    "area": "209.00",
    "rooms": "4室2厅",
    "direction": "南",
    "floor": "",
    "price": "80000",
    "tags": "",
    "source": "",
    "url": "https://sh.lianjia.com/zufang/SH2137420054814261248.html",
    "rent_type": "整租",
    "location": "浦东-南码头-保利世博天悦",
    "scraped_at": "2026-04-23 10:24:36",
    "region": "nanmatou",
    "unit_price": 382.8,
    "lat": 31.1821,
    "lng": 121.51621
  },
  {
    "title": "整租·沈家宅 3室1厅 南",
    "community": "沈家宅",
    "area": "81.05",
    "rooms": "3室1厅",
    "direction": "南",
    "floor": "",
    "price": "6200",
    "tags": "",
    "source": "",
    "url": "https://sh.lianjia.com/zufang/SH2140480168794259456.html",
    "rent_type": "整租",
    "location": "浦东-南码头-沈家宅",
    "scraped_at": "2026-04-23 10:24:36",
    "region": "nanmatou",
    "unit_price": 76.5,
    "lat": 31.1821,
    "lng": 121.51621
  },
  {
    "title": "整租·南码头路193弄 1室1厅 南",
    "community": "南码头路193弄",
    "area": "35.77",
    "rooms": "1室1厅",
    "direction": "南",
    "floor": "",
    "price": "3900",
    "tags": "",
    "source": "",
    "url": "https://sh.lianjia.com/zufang/SH2153151505404788736.html",
    "rent_type": "整租",
    "location": "浦东-南码头-南码头路",
    "scraped_at": "2026-04-23 10:24:39",
    "region": "nanmatou",
    "unit_price": 109.0,
    "lat": 31.2016,
    "lng": 121.50511
  },
  {
    "title": "整租·临沂七村 2室1厅 南",
    "community": "临沂七村",
    "area": "57.18",
    "rooms": "2室1厅",
    "direction": "南",
    "floor": "",
    "price": "5500",
    "tags": "",
    "source": "",
    "url": "https://sh.lianjia.com/zufang/SH2156749544195358720.html",
    "rent_type": "整租",
    "location": "浦东-南码头-临沂七村",
    "scraped_at": "2026-04-23 10:24:39",
    "region": "nanmatou",
    "unit_price": 96.2,
    "lat": 31.19621,
    "lng": 121.5114
  },
  {
    "title": "整租·东三小区 2室1厅 南/北",
    "community": "东三小区",
    "area": "47.00",
    "rooms": "2室1厅",
    "direction": "南/北",
    "floor": "",
    "price": "4400",
    "tags": "",
    "source": "",
    "url": "https://sh.lianjia.com/zufang/SH2056688496168402944.html",
    "rent_type": "整租",
    "location": "浦东-南码头-东三小区",
    "scraped_at": "2026-04-23 10:24:39",
    "region": "nanmatou",
    "unit_price": 93.6,
    "lat": 31.2077,
    "lng": 121.50744
  },
  {
    "title": "独栋·baseLIVING 浦三路店 此为长租价格，短租溢价，新国际博览中心一室一厅，户型方正，宠物友好，租期灵活 1室1厅",
    "community": "baseLIVING 浦三路店",
    "area": "100.00",
    "rooms": "1室1厅",
    "direction": "",
    "floor": "",
    "price": "16000",
    "tags": "",
    "source": "",
    "url": "https://sh.lianjia.com/apartment/82148.html",
    "rent_type": "独栋",
    "location": "",
    "scraped_at": "2026-04-23 10:24:45",
    "region": "nanmatou",
    "unit_price": 160.0,
    "lat": 39.914186,
    "lng": 116.405558
  },
  {
    "title": "整租·临沂七村 1室1厅 南",
    "community": "临沂七村",
    "area": "36.62",
    "rooms": "1室1厅",
    "direction": "南",
    "floor": "",
    "price": "4136",
    "tags": "",
    "source": "",
    "url": "https://sh.lianjia.com/zufang/SH2148095689228288000.html",
    "rent_type": "整租",
    "location": "浦东-南码头-临沂七村",
    "scraped_at": "2026-04-23 10:24:39",
    "region": "nanmatou",
    "unit_price": 112.9,
    "lat": 31.19621,
    "lng": 121.5114
  },
  {
    "title": "整租·港机新村 2室1厅 南",
    "community": "港机新村",
    "area": "52.98",
    "rooms": "2室1厅",
    "direction": "南",
    "floor": "",
    "price": "4500",
    "tags": "",
    "source": "",
    "url": "https://sh.lianjia.com/zufang/SH1849023569191763968.html",
    "rent_type": "整租",
    "location": "浦东-南码头-港机新村",
    "scraped_at": "2026-04-23 10:24:39",
    "region": "nanmatou",
    "unit_price": 84.9,
    "lat": 31.19227,
    "lng": 121.50202
  },
  {
    "title": "整租·沈家宅 2室1厅 南",
    "community": "沈家宅",
    "area": "67.05",
    "rooms": "2室1厅",
    "direction": "南",
    "floor": "",
    "price": "4500",
    "tags": "",
    "source": "",
    "url": "https://sh.lianjia.com/zufang/SH2150589069011189760.html",
    "rent_type": "整租",
    "location": "浦东-南码头-沈家宅",
    "scraped_at": "2026-04-23 10:24:39",
    "region": "nanmatou",
    "unit_price": 67.1,
    "lat": 31.1821,
    "lng": 121.51621
  },
  {
    "title": "整租·临沂六村 2室1厅 南",
    "community": "临沂六村",
    "area": "45.75",
    "rooms": "2室1厅",
    "direction": "南",
    "floor": "",
    "price": "4200",
    "tags": "",
    "source": "",
    "url": "https://sh.lianjia.com/zufang/SH1977236397429358592.html",
    "rent_type": "整租",
    "location": "浦东-南码头-临沂六村",
    "scraped_at": "2026-04-23 10:24:39",
    "region": "nanmatou",
    "unit_price": 91.8,
    "lat": 31.19504,
    "lng": 121.50764
  },
  {
    "title": "整租·沂南路54弄 1室0厅 南",
    "community": "沂南路54弄",
    "area": "40.54",
    "rooms": "1室0厅",
    "direction": "南",
    "floor": "",
    "price": "3600",
    "tags": "",
    "source": "",
    "url": "https://sh.lianjia.com/zufang/SH2154518481423302656.html",
    "rent_type": "整租",
    "location": "浦东-南码头-沂南路",
    "scraped_at": "2026-04-23 10:24:39",
    "region": "nanmatou",
    "unit_price": 88.8,
    "lat": 31.20069,
    "lng": 121.5049
  },
  {
    "title": "整租·锦南浦三小区 1室0厅 南",
    "community": "锦南浦三小区",
    "area": "33.16",
    "rooms": "1室0厅",
    "direction": "南",
    "floor": "",
    "price": "3790",
    "tags": "",
    "source": "",
    "url": "https://sh.lianjia.com/zufang/SH1745678962622726144.html",
    "rent_type": "整租",
    "location": "浦东-南码头-锦南浦三小区",
    "scraped_at": "2026-04-23 10:24:39",
    "region": "nanmatou",
    "unit_price": 114.3,
    "lat": 31.1821,
    "lng": 121.51621
  },
  {
    "title": "整租·锦南浦三小区 3室1厅 南",
    "community": "锦南浦三小区",
    "area": "81.53",
    "rooms": "3室1厅",
    "direction": "南",
    "floor": "",
    "price": "6000",
    "tags": "",
    "source": "",
    "url": "https://sh.lianjia.com/zufang/SH1915660203613749248.html",
    "rent_type": "整租",
    "location": "浦东-南码头-锦南浦三小区",
    "scraped_at": "2026-04-23 10:24:39",
    "region": "nanmatou",
    "unit_price": 73.6,
    "lat": 31.1821,
    "lng": 121.51621
  },
  {
    "title": "整租·东三小区 1室1厅 南",
    "community": "东三小区",
    "area": "37.00",
    "rooms": "1室1厅",
    "direction": "南",
    "floor": "",
    "price": "3675",
    "tags": "",
    "source": "",
    "url": "https://sh.lianjia.com/zufang/SH1843924468909473792.html",
    "rent_type": "整租",
    "location": "浦东-南码头-东三小区",
    "scraped_at": "2026-04-23 10:24:55",
    "region": "nanmatou",
    "unit_price": 99.3,
    "lat": 31.2077,
    "lng": 121.50744
  },
  {
    "title": "整租·金缘坊 3室1厅 南",
    "community": "金缘坊",
    "area": "104.99",
    "rooms": "3室1厅",
    "direction": "南",
    "floor": "",
    "price": "8200",
    "tags": "",
    "source": "",
    "url": "https://sh.lianjia.com/zufang/SH2132714673210916864.html",
    "rent_type": "整租",
    "location": "浦东-南码头-金缘坊",
    "scraped_at": "2026-04-23 10:24:39",
    "region": "nanmatou",
    "unit_price": 78.1,
    "lat": 31.1821,
    "lng": 121.51621
  },
  {
    "title": "整租·临沂七村 1室1厅 南",
    "community": "临沂七村",
    "area": "36.00",
    "rooms": "1室1厅",
    "direction": "南",
    "floor": "",
    "price": "4410",
    "tags": "",
    "source": "",
    "url": "https://sh.lianjia.com/zufang/SH2152360127431180288.html",
    "rent_type": "整租",
    "location": "浦东-南码头-临沂七村",
    "scraped_at": "2026-04-23 10:24:55",
    "region": "nanmatou",
    "unit_price": 122.5,
    "lat": 31.19621,
    "lng": 121.5114
  },
  {
    "title": "整租·建业新村 2室2厅 南",
    "community": "建业新村",
    "area": "89.88",
    "rooms": "2室2厅",
    "direction": "南",
    "floor": "",
    "price": "6500",
    "tags": "",
    "source": "",
    "url": "https://sh.lianjia.com/zufang/SH2081337345906311168.html",
    "rent_type": "整租",
    "location": "浦东-南码头-建业新村",
    "scraped_at": "2026-04-23 10:24:39",
    "region": "nanmatou",
    "unit_price": 72.3,
    "lat": 31.19202,
    "lng": 121.51788
  },
  {
    "title": "整租·东三小区 1室1厅 南",
    "community": "东三小区",
    "area": "40.00",
    "rooms": "1室1厅",
    "direction": "南",
    "floor": "",
    "price": "3780",
    "tags": "",
    "source": "",
    "url": "https://sh.lianjia.com/zufang/SH2007450658940125184.html",
    "rent_type": "整租",
    "location": "浦东-南码头-东三小区",
    "scraped_at": "2026-04-23 10:24:39",
    "region": "nanmatou",
    "unit_price": 94.5,
    "lat": 31.2077,
    "lng": 121.50744
  },
  {
    "title": "整租·锦南浦三小区 3室1厅 南",
    "community": "锦南浦三小区",
    "area": "81.00",
    "rooms": "3室1厅",
    "direction": "南",
    "floor": "",
    "price": "5880",
    "tags": "",
    "source": "",
    "url": "https://sh.lianjia.com/zufang/SH2038999116666634240.html",
    "rent_type": "整租",
    "location": "浦东-南码头-锦南浦三小区",
    "scraped_at": "2026-04-23 10:24:55",
    "region": "nanmatou",
    "unit_price": 72.6,
    "lat": 31.1821,
    "lng": 121.51621
  },
  {
    "title": "整租·东方城市花园(二期) 3室2厅 南",
    "community": "东方城市花园(二期)",
    "area": "121.34",
    "rooms": "3室2厅",
    "direction": "南",
    "floor": "",
    "price": "11500",
    "tags": "",
    "source": "",
    "url": "https://sh.lianjia.com/zufang/SH2140357457585635328.html",
    "rent_type": "整租",
    "location": "浦东-南码头-东方城市花园(二期)",
    "scraped_at": "2026-04-23 10:24:39",
    "region": "nanmatou",
    "unit_price": 94.8,
    "lat": 31.2015,
    "lng": 121.51817
  },
  {
    "title": "整租·东方丰甸苑(公寓) 3室1厅 南/北",
    "community": "东方丰甸苑(公寓)",
    "area": "108.72",
    "rooms": "3室1厅",
    "direction": "南/北",
    "floor": "",
    "price": "9000",
    "tags": "",
    "source": "",
    "url": "https://sh.lianjia.com/zufang/SH2157098450062147584.html",
    "rent_type": "整租",
    "location": "浦东-南码头-东方丰甸苑(公寓)",
    "scraped_at": "2026-04-23 10:24:39",
    "region": "nanmatou",
    "unit_price": 82.8,
    "lat": 31.202016,
    "lng": 121.516326
  },
  {
    "title": "整租·光鸿苑 3室1厅 南",
    "community": "光鸿苑",
    "area": "117.62",
    "rooms": "3室1厅",
    "direction": "南",
    "floor": "",
    "price": "9500",
    "tags": "",
    "source": "",
    "url": "https://sh.lianjia.com/zufang/SH2154126756955553792.html",
    "rent_type": "整租",
    "location": "浦东-南码头-光鸿苑",
    "scraped_at": "2026-04-23 10:24:39",
    "region": "nanmatou",
    "unit_price": 80.8,
    "lat": 31.1821,
    "lng": 121.51621
  },
  {
    "title": "整租·东方名筑 3室1厅 南",
    "community": "东方名筑",
    "area": "105.97",
    "rooms": "3室1厅",
    "direction": "南",
    "floor": "",
    "price": "8600",
    "tags": "",
    "source": "",
    "url": "https://sh.lianjia.com/zufang/SH2112850768955441152.html",
    "rent_type": "整租",
    "location": "浦东-南码头-东方名筑",
    "scraped_at": "2026-04-23 10:24:42",
    "region": "nanmatou",
    "unit_price": 81.2,
    "lat": 31.19021,
    "lng": 121.5059
  },
  {
    "title": "整租·胶南小区 1室1厅 南",
    "community": "胶南小区",
    "area": "33.34",
    "rooms": "1室1厅",
    "direction": "南",
    "floor": "",
    "price": "3990",
    "tags": "",
    "source": "",
    "url": "https://sh.lianjia.com/zufang/SH2088630304053919744.html",
    "rent_type": "整租",
    "location": "浦东-南码头-胶南小区",
    "scraped_at": "2026-04-23 10:24:42",
    "region": "nanmatou",
    "unit_price": 119.7,
    "lat": 31.1821,
    "lng": 121.51621
  },
  {
    "title": "整租·临沂二村 2室1厅 南",
    "community": "临沂二村",
    "area": "57.59",
    "rooms": "2室1厅",
    "direction": "南",
    "floor": "",
    "price": "5200",
    "tags": "",
    "source": "",
    "url": "https://sh.lianjia.com/zufang/SH1842536508435726336.html",
    "rent_type": "整租",
    "location": "浦东-南码头-临沂二村",
    "scraped_at": "2026-04-23 10:24:55",
    "region": "nanmatou",
    "unit_price": 90.3,
    "lat": 31.19774,
    "lng": 121.50633
  },
  {
    "title": "整租·胶南小区 1室1厅 南",
    "community": "胶南小区",
    "area": "42.00",
    "rooms": "1室1厅",
    "direction": "南",
    "floor": "",
    "price": "4200",
    "tags": "",
    "source": "",
    "url": "https://sh.lianjia.com/zufang/SH2056221752282841088.html",
    "rent_type": "整租",
    "location": "浦东-南码头-胶南小区",
    "scraped_at": "2026-04-23 10:24:42",
    "region": "nanmatou",
    "unit_price": 100.0,
    "lat": 31.1821,
    "lng": 121.51621
  },
  {
    "title": "整租·海博大厦 1室0厅 南",
    "community": "海博大厦",
    "area": "40.18",
    "rooms": "1室0厅",
    "direction": "南",
    "floor": "",
    "price": "3990",
    "tags": "",
    "source": "",
    "url": "https://sh.lianjia.com/zufang/SH1858488047776038912.html",
    "rent_type": "整租",
    "location": "浦东-南码头-海博大厦",
    "scraped_at": "2026-04-23 10:24:55",
    "region": "nanmatou",
    "unit_price": 99.3,
    "lat": 31.1821,
    "lng": 121.51621
  },
  {
    "title": "整租·东方城市花园(二期) 3室2厅 南",
    "community": "东方城市花园(二期)",
    "area": "152.00",
    "rooms": "3室2厅",
    "direction": "南",
    "floor": "",
    "price": "15000",
    "tags": "",
    "source": "",
    "url": "https://sh.lianjia.com/zufang/SH2138884753514823680.html",
    "rent_type": "整租",
    "location": "浦东-南码头-东方城市花园(二期)",
    "scraped_at": "2026-04-23 10:24:42",
    "region": "nanmatou",
    "unit_price": 98.7,
    "lat": 31.2015,
    "lng": 121.51817
  },
  {
    "title": "整租·银河小区 2室1厅 南",
    "community": "银河小区",
    "area": "50.73",
    "rooms": "2室1厅",
    "direction": "南",
    "floor": "",
    "price": "4305",
    "tags": "",
    "source": "",
    "url": "https://sh.lianjia.com/zufang/SH1932084653921927168.html",
    "rent_type": "整租",
    "location": "浦东-南码头-银河小区",
    "scraped_at": "2026-04-23 10:24:42",
    "region": "nanmatou",
    "unit_price": 84.9,
    "lat": 31.19976,
    "lng": 121.50771
  },
  {
    "title": "整租·西三里桥路9弄 2室1厅 南",
    "community": "西三里桥路9弄",
    "area": "58.00",
    "rooms": "2室1厅",
    "direction": "南",
    "floor": "",
    "price": "4095",
    "tags": "",
    "source": "",
    "url": "https://sh.lianjia.com/zufang/SH2054861661809934336.html",
    "rent_type": "整租",
    "location": "浦东-南码头-西三里桥路",
    "scraped_at": "2026-04-23 10:24:42",
    "region": "nanmatou",
    "unit_price": 70.6,
    "lat": 31.2014,
    "lng": 121.50249
  },
  {
    "title": "整租·临沂六村 1室1厅 南",
    "community": "临沂六村",
    "area": "39.00",
    "rooms": "1室1厅",
    "direction": "南",
    "floor": "",
    "price": "3885",
    "tags": "",
    "source": "",
    "url": "https://sh.lianjia.com/zufang/SH1832010091130257408.html",
    "rent_type": "整租",
    "location": "浦东-南码头-临沂六村",
    "scraped_at": "2026-04-23 10:24:42",
    "region": "nanmatou",
    "unit_price": 99.6,
    "lat": 31.19504,
    "lng": 121.50764
  },
  {
    "title": "整租·浦东南路3643弄 1室1厅 南",
    "community": "浦东南路3643弄",
    "area": "34.54",
    "rooms": "1室1厅",
    "direction": "南",
    "floor": "",
    "price": "4000",
    "tags": "",
    "source": "",
    "url": "https://sh.lianjia.com/zufang/SH1822260076803522560.html",
    "rent_type": "整租",
    "location": "浦东-南码头-浦东南路",
    "scraped_at": "2026-04-23 10:24:42",
    "region": "nanmatou",
    "unit_price": 115.8,
    "lat": 31.19951,
    "lng": 121.50616
  },
  {
    "title": "整租·东方城市花园(二期) 2室2厅 南",
    "community": "东方城市花园(二期)",
    "area": "114.00",
    "rooms": "2室2厅",
    "direction": "南",
    "floor": "",
    "price": "9200",
    "tags": "",
    "source": "",
    "url": "https://sh.lianjia.com/zufang/SH1678623006928142336.html",
    "rent_type": "整租",
    "location": "浦东-南码头-东方城市花园(二期)",
    "scraped_at": "2026-04-23 10:24:45",
    "region": "nanmatou",
    "unit_price": 80.7,
    "lat": 31.2015,
    "lng": 121.51817
  },
  {
    "title": "整租·临沂大楼 2室1厅 南",
    "community": "临沂大楼",
    "area": "61.77",
    "rooms": "2室1厅",
    "direction": "南",
    "floor": "",
    "price": "6200",
    "tags": "",
    "source": "",
    "url": "https://sh.lianjia.com/zufang/SH2151881827718004736.html",
    "rent_type": "整租",
    "location": "浦东-南码头-临沂大楼",
    "scraped_at": "2026-04-23 10:24:42",
    "region": "nanmatou",
    "unit_price": 100.4,
    "lat": 31.20172,
    "lng": 121.505
  },
  {
    "title": "独栋·你好公寓 浦三店 一居室loft外景A 1室1厅",
    "community": "你好公寓 浦三店",
    "area": "42.00",
    "rooms": "1室1厅",
    "direction": "",
    "floor": "",
    "price": "3800",
    "tags": "",
    "source": "",
    "url": "https://sh.lianjia.com/apartment/41511.html",
    "rent_type": "独栋",
    "location": "",
    "scraped_at": "2026-04-23 10:24:45",
    "region": "nanmatou",
    "unit_price": 90.5,
    "lat": 40.31443,
    "lng": 116.62589
  },
  {
    "title": "整租·锦南浦三小区 1室1厅 南",
    "community": "锦南浦三小区",
    "area": "34.63",
    "rooms": "1室1厅",
    "direction": "南",
    "floor": "",
    "price": "3465",
    "tags": "",
    "source": "",
    "url": "https://sh.lianjia.com/zufang/SH1897979440860758016.html",
    "rent_type": "整租",
    "location": "浦东-南码头-锦南浦三小区",
    "scraped_at": "2026-04-23 10:24:45",
    "region": "nanmatou",
    "unit_price": 100.1,
    "lat": 31.1821,
    "lng": 121.51621
  },
  {
    "title": "整租·胶南小区 1室1厅 南",
    "community": "胶南小区",
    "area": "36.52",
    "rooms": "1室1厅",
    "direction": "南",
    "floor": "",
    "price": "4000",
    "tags": "",
    "source": "",
    "url": "https://sh.lianjia.com/zufang/SH2148668701207953408.html",
    "rent_type": "整租",
    "location": "浦东-南码头-胶南小区",
    "scraped_at": "2026-04-23 10:24:42",
    "region": "nanmatou",
    "unit_price": 109.5,
    "lat": 31.1821,
    "lng": 121.51621
  },
  {
    "title": "整租·东三小区 1室1厅 南",
    "community": "东三小区",
    "area": "40.00",
    "rooms": "1室1厅",
    "direction": "南",
    "floor": "",
    "price": "3800",
    "tags": "",
    "source": "",
    "url": "https://sh.lianjia.com/zufang/SH2157853954187198464.html",
    "rent_type": "整租",
    "location": "浦东-南码头-东三小区",
    "scraped_at": "2026-04-23 10:24:45",
    "region": "nanmatou",
    "unit_price": 95.0,
    "lat": 31.2077,
    "lng": 121.50744
  },
  {
    "title": "整租·临沂六村 1室1厅 南",
    "community": "临沂六村",
    "area": "37.00",
    "rooms": "1室1厅",
    "direction": "南",
    "floor": "",
    "price": "4515",
    "tags": "",
    "source": "",
    "url": "https://sh.lianjia.com/zufang/SH2009502559303106560.html",
    "rent_type": "整租",
    "location": "浦东-南码头-临沂六村",
    "scraped_at": "2026-04-23 10:24:45",
    "region": "nanmatou",
    "unit_price": 122.0,
    "lat": 31.19504,
    "lng": 121.50764
  },
  {
    "title": "整租·东方城市花园(二期) 2室2厅 南",
    "community": "东方城市花园(二期)",
    "area": "118.00",
    "rooms": "2室2厅",
    "direction": "南",
    "floor": "",
    "price": "10300",
    "tags": "",
    "source": "",
    "url": "https://sh.lianjia.com/zufang/SH2146078542931165184.html",
    "rent_type": "整租",
    "location": "浦东-南码头-东方城市花园(二期)",
    "scraped_at": "2026-04-23 10:24:42",
    "region": "nanmatou",
    "unit_price": 87.3,
    "lat": 31.2015,
    "lng": 121.51817
  },
  {
    "title": "整租·东方城市花园(二期) 2室2厅 南",
    "community": "东方城市花园(二期)",
    "area": "121.34",
    "rooms": "2室2厅",
    "direction": "南",
    "floor": "",
    "price": "12000",
    "tags": "",
    "source": "",
    "url": "https://sh.lianjia.com/zufang/SH2154442037158477824.html",
    "rent_type": "整租",
    "location": "浦东-南码头-东方城市花园(二期)",
    "scraped_at": "2026-04-23 10:24:42",
    "region": "nanmatou",
    "unit_price": 98.9,
    "lat": 31.2015,
    "lng": 121.51817
  },
  {
    "title": "整租·建业新村 2室1厅 南",
    "community": "建业新村",
    "area": "64.27",
    "rooms": "2室1厅",
    "direction": "南",
    "floor": "",
    "price": "5700",
    "tags": "",
    "source": "",
    "url": "https://sh.lianjia.com/zufang/SH2133875541055373312.html",
    "rent_type": "整租",
    "location": "浦东-南码头-建业新村",
    "scraped_at": "2026-04-23 10:24:42",
    "region": "nanmatou",
    "unit_price": 88.7,
    "lat": 31.19202,
    "lng": 121.51788
  },
  {
    "title": "整租·天健浦荟大楼 2室1厅 南",
    "community": "天健浦荟大楼",
    "area": "39.98",
    "rooms": "2室1厅",
    "direction": "南",
    "floor": "",
    "price": "6200",
    "tags": "",
    "source": "",
    "url": "https://sh.lianjia.com/zufang/SH2142937814172434432.html",
    "rent_type": "整租",
    "location": "浦东-南码头-天健浦荟大楼",
    "scraped_at": "2026-04-23 10:24:42",
    "region": "nanmatou",
    "unit_price": 155.1,
    "lat": 31.1821,
    "lng": 121.51621
  },
  {
    "title": "整租·东三小区 1室1厅 南",
    "community": "东三小区",
    "area": "30.70",
    "rooms": "1室1厅",
    "direction": "南",
    "floor": "",
    "price": "3900",
    "tags": "",
    "source": "",
    "url": "https://sh.lianjia.com/zufang/SH2154781902190411776.html",
    "rent_type": "整租",
    "location": "浦东-南码头-东三小区",
    "scraped_at": "2026-04-23 10:24:42",
    "region": "nanmatou",
    "unit_price": 127.0,
    "lat": 31.2077,
    "lng": 121.50744
  },
  {
    "title": "整租·临沂一村 1室1厅 南/北",
    "community": "临沂一村",
    "area": "38.78",
    "rooms": "1室1厅",
    "direction": "南/北",
    "floor": "",
    "price": "4500",
    "tags": "",
    "source": "",
    "url": "https://sh.lianjia.com/zufang/SH2086677976535007232.html",
    "rent_type": "整租",
    "location": "浦东-南码头-临沂一村",
    "scraped_at": "2026-04-23 10:24:42",
    "region": "nanmatou",
    "unit_price": 116.0,
    "lat": 31.20033,
    "lng": 121.50954
  },
  {
    "title": "整租·临沂三村 1室1厅 南",
    "community": "临沂三村",
    "area": "37.17",
    "rooms": "1室1厅",
    "direction": "南",
    "floor": "",
    "price": "4300",
    "tags": "",
    "source": "",
    "url": "https://sh.lianjia.com/zufang/SH2138952179346571264.html",
    "rent_type": "整租",
    "location": "浦东-南码头-临沂三村",
    "scraped_at": "2026-04-23 10:24:42",
    "region": "nanmatou",
    "unit_price": 115.7,
    "lat": 31.1952,
    "lng": 121.50401
  },
  {
    "title": "整租·临沂七村 1室1厅 南/北",
    "community": "临沂七村",
    "area": "38.00",
    "rooms": "1室1厅",
    "direction": "南/北",
    "floor": "",
    "price": "4600",
    "tags": "",
    "source": "",
    "url": "https://sh.lianjia.com/zufang/SH2144799994144620544.html",
    "rent_type": "整租",
    "location": "浦东-南码头-临沂七村",
    "scraped_at": "2026-04-23 10:24:45",
    "region": "nanmatou",
    "unit_price": 121.1,
    "lat": 31.19621,
    "lng": 121.5114
  },
  {
    "title": "整租·东三小区 2室0厅 南",
    "community": "东三小区",
    "area": "50.00",
    "rooms": "2室0厅",
    "direction": "南",
    "floor": "",
    "price": "5000",
    "tags": "",
    "source": "",
    "url": "https://sh.lianjia.com/zufang/SH2157064543790956544.html",
    "rent_type": "整租",
    "location": "浦东-南码头-东三小区",
    "scraped_at": "2026-04-23 10:24:45",
    "region": "nanmatou",
    "unit_price": 100.0,
    "lat": 31.2077,
    "lng": 121.50744
  },
  {
    "title": "整租·临沂一村 2室0厅 南/北",
    "community": "临沂一村",
    "area": "51.06",
    "rooms": "2室0厅",
    "direction": "南/北",
    "floor": "",
    "price": "5000",
    "tags": "",
    "source": "",
    "url": "https://sh.lianjia.com/zufang/SH2155882828263325696.html",
    "rent_type": "整租",
    "location": "浦东-南码头-临沂一村",
    "scraped_at": "2026-04-23 10:24:45",
    "region": "nanmatou",
    "unit_price": 97.9,
    "lat": 31.20033,
    "lng": 121.50954
  },
  {
    "title": "整租·临沂二村 1室1厅 南",
    "community": "临沂二村",
    "area": "36.93",
    "rooms": "1室1厅",
    "direction": "南",
    "floor": "",
    "price": "4200",
    "tags": "",
    "source": "",
    "url": "https://sh.lianjia.com/zufang/SH2149810747037712384.html",
    "rent_type": "整租",
    "location": "浦东-南码头-临沂二村",
    "scraped_at": "2026-04-23 10:24:45",
    "region": "nanmatou",
    "unit_price": 113.7,
    "lat": 31.19774,
    "lng": 121.50633
  },
  {
    "title": "整租·临沂六村 1室1厅 南",
    "community": "临沂六村",
    "area": "40.25",
    "rooms": "1室1厅",
    "direction": "南",
    "floor": "",
    "price": "3700",
    "tags": "",
    "source": "",
    "url": "https://sh.lianjia.com/zufang/SH2151662672385409024.html",
    "rent_type": "整租",
    "location": "浦东-南码头-临沂六村",
    "scraped_at": "2026-04-23 10:24:45",
    "region": "nanmatou",
    "unit_price": 91.9,
    "lat": 31.19504,
    "lng": 121.50764
  },
  {
    "title": "整租·南码头路193弄 1室1厅 南",
    "community": "南码头路193弄",
    "area": "36.97",
    "rooms": "1室1厅",
    "direction": "南",
    "floor": "",
    "price": "3800",
    "tags": "",
    "source": "",
    "url": "https://sh.lianjia.com/zufang/SH2155625555196641280.html",
    "rent_type": "整租",
    "location": "浦东-南码头-南码头路",
    "scraped_at": "2026-04-23 10:24:45",
    "region": "nanmatou",
    "unit_price": 102.8,
    "lat": 31.2016,
    "lng": 121.50511
  },
  {
    "title": "整租·临沂六村 2室1厅 南/北",
    "community": "临沂六村",
    "area": "42.05",
    "rooms": "2室1厅",
    "direction": "南/北",
    "floor": "",
    "price": "4700",
    "tags": "",
    "source": "",
    "url": "https://sh.lianjia.com/zufang/SH2149357700650106880.html",
    "rent_type": "整租",
    "location": "浦东-南码头-临沂六村",
    "scraped_at": "2026-04-23 10:24:45",
    "region": "nanmatou",
    "unit_price": 111.8,
    "lat": 31.19504,
    "lng": 121.50764
  },
  {
    "title": "整租·胶南小区 2室0厅 南",
    "community": "胶南小区",
    "area": "46.72",
    "rooms": "2室0厅",
    "direction": "南",
    "floor": "",
    "price": "4600",
    "tags": "",
    "source": "",
    "url": "https://sh.lianjia.com/zufang/SH2131946592175915008.html",
    "rent_type": "整租",
    "location": "浦东-南码头-胶南小区",
    "scraped_at": "2026-04-23 10:24:45",
    "region": "nanmatou",
    "unit_price": 98.5,
    "lat": 31.1821,
    "lng": 121.51621
  },
  {
    "title": "整租·胶南小区 1室0厅 南",
    "community": "胶南小区",
    "area": "33.36",
    "rooms": "1室0厅",
    "direction": "南",
    "floor": "",
    "price": "5000",
    "tags": "",
    "source": "",
    "url": "https://sh.lianjia.com/zufang/SH2152977714733121536.html",
    "rent_type": "整租",
    "location": "浦东-南码头-胶南小区",
    "scraped_at": "2026-04-23 10:24:45",
    "region": "nanmatou",
    "unit_price": 149.9,
    "lat": 31.1821,
    "lng": 121.51621
  },
  {
    "title": "整租·临沂大楼 2室1厅 南",
    "community": "临沂大楼",
    "area": "77.83",
    "rooms": "2室1厅",
    "direction": "南",
    "floor": "",
    "price": "6000",
    "tags": "",
    "source": "",
    "url": "https://sh.lianjia.com/zufang/SH2143220830975295488.html",
    "rent_type": "整租",
    "location": "浦东-南码头-临沂大楼",
    "scraped_at": "2026-04-23 10:24:45",
    "region": "nanmatou",
    "unit_price": 77.1,
    "lat": 31.20172,
    "lng": 121.505
  },
  {
    "title": "整租·塘南路159弄 2室1厅 南",
    "community": "塘南路159弄",
    "area": "57.39",
    "rooms": "2室1厅",
    "direction": "南",
    "floor": "",
    "price": "4700",
    "tags": "",
    "source": "",
    "url": "https://sh.lianjia.com/zufang/SH2148050908213149696.html",
    "rent_type": "整租",
    "location": "浦东-南码头-塘南路",
    "scraped_at": "2026-04-23 10:24:45",
    "region": "nanmatou",
    "unit_price": 81.9,
    "lat": 31.204209,
    "lng": 121.504279
  },
  {
    "title": "整租·东方城市花园(二期) 2室2厅 南",
    "community": "东方城市花园(二期)",
    "area": "121.00",
    "rooms": "2室2厅",
    "direction": "南",
    "floor": "",
    "price": "12000",
    "tags": "",
    "source": "",
    "url": "https://sh.lianjia.com/zufang/SH2143938178187264000.html",
    "rent_type": "整租",
    "location": "浦东-南码头-东方城市花园(二期)",
    "scraped_at": "2026-04-23 10:24:45",
    "region": "nanmatou",
    "unit_price": 99.2,
    "lat": 31.2015,
    "lng": 121.51817
  },
  {
    "title": "整租·临沂二村 2室1厅 南",
    "community": "临沂二村",
    "area": "58.19",
    "rooms": "2室1厅",
    "direction": "南",
    "floor": "",
    "price": "5500",
    "tags": "",
    "source": "",
    "url": "https://sh.lianjia.com/zufang/SH2156423451928166400.html",
    "rent_type": "整租",
    "location": "浦东-南码头-临沂二村",
    "scraped_at": "2026-04-23 10:24:45",
    "region": "nanmatou",
    "unit_price": 94.5,
    "lat": 31.19774,
    "lng": 121.50633
  },
  {
    "title": "整租·西三里桥路9弄 3室1厅 南",
    "community": "西三里桥路9弄",
    "area": "88.75",
    "rooms": "3室1厅",
    "direction": "南",
    "floor": "",
    "price": "5500",
    "tags": "",
    "source": "",
    "url": "https://sh.lianjia.com/zufang/SH2150111364759158784.html",
    "rent_type": "整租",
    "location": "浦东-南码头-西三里桥路",
    "scraped_at": "2026-04-23 10:24:45",
    "region": "nanmatou",
    "unit_price": 62.0,
    "lat": 31.2014,
    "lng": 121.50249
  },
  {
    "title": "整租·临沂六村 1室0厅 南",
    "community": "临沂六村",
    "area": "37.26",
    "rooms": "1室0厅",
    "direction": "南",
    "floor": "",
    "price": "3900",
    "tags": "",
    "source": "",
    "url": "https://sh.lianjia.com/zufang/SH2127623856213458944.html",
    "rent_type": "整租",
    "location": "浦东-南码头-临沂六村",
    "scraped_at": "2026-04-23 10:24:45",
    "region": "nanmatou",
    "unit_price": 104.7,
    "lat": 31.19504,
    "lng": 121.50764
  },
  {
    "title": "整租·港机新村 1室1厅 南",
    "community": "港机新村",
    "area": "34.96",
    "rooms": "1室1厅",
    "direction": "南",
    "floor": "",
    "price": "4200",
    "tags": "",
    "source": "",
    "url": "https://sh.lianjia.com/zufang/SH2152929007589392384.html",
    "rent_type": "整租",
    "location": "浦东-南码头-港机新村",
    "scraped_at": "2026-04-23 10:24:45",
    "region": "nanmatou",
    "unit_price": 120.1,
    "lat": 31.19227,
    "lng": 121.50202
  },
  {
    "title": "整租·天健浦荟大楼 1室1厅 南",
    "community": "天健浦荟大楼",
    "area": "40.00",
    "rooms": "1室1厅",
    "direction": "南",
    "floor": "",
    "price": "4600",
    "tags": "",
    "source": "",
    "url": "https://sh.lianjia.com/zufang/SH2154182414585298944.html",
    "rent_type": "整租",
    "location": "浦东-南码头-天健浦荟大楼",
    "scraped_at": "2026-04-23 10:24:45",
    "region": "nanmatou",
    "unit_price": 115.0,
    "lat": 31.1821,
    "lng": 121.51621
  },
  {
    "title": "整租·临沂三村 1室1厅 南",
    "community": "临沂三村",
    "area": "40.00",
    "rooms": "1室1厅",
    "direction": "南",
    "floor": "",
    "price": "4300",
    "tags": "",
    "source": "",
    "url": "https://sh.lianjia.com/zufang/SH2147646023210631168.html",
    "rent_type": "整租",
    "location": "浦东-南码头-临沂三村",
    "scraped_at": "2026-04-23 10:24:45",
    "region": "nanmatou",
    "unit_price": 107.5,
    "lat": 31.1952,
    "lng": 121.50401
  },
  {
    "title": "整租·临沂八村 1室1厅 南",
    "community": "临沂八村",
    "area": "36.48",
    "rooms": "1室1厅",
    "direction": "南",
    "floor": "",
    "price": "4100",
    "tags": "",
    "source": "",
    "url": "https://sh.lianjia.com/zufang/SH2157353983675465728.html",
    "rent_type": "整租",
    "location": "浦东-南码头-临沂八村",
    "scraped_at": "2026-04-23 10:24:45",
    "region": "nanmatou",
    "unit_price": 112.4,
    "lat": 31.19844,
    "lng": 121.51219
  },
  {
    "title": "整租·鹏欣家园 1室1厅 南",
    "community": "鹏欣家园",
    "area": "70.91",
    "rooms": "1室1厅",
    "direction": "南",
    "floor": "",
    "price": "6300",
    "tags": "",
    "source": "",
    "url": "https://sh.lianjia.com/zufang/SH2151617425232101376.html",
    "rent_type": "整租",
    "location": "浦东-南码头-鹏欣家园",
    "scraped_at": "2026-04-23 10:24:45",
    "region": "nanmatou",
    "unit_price": 88.8,
    "lat": 31.1821,
    "lng": 121.51621
  },
  {
    "title": "整租·天健浦荟大楼 1室1厅 西",
    "community": "天健浦荟大楼",
    "area": "31.06",
    "rooms": "1室1厅",
    "direction": "西",
    "floor": "",
    "price": "4800",
    "tags": "",
    "source": "",
    "url": "https://sh.lianjia.com/zufang/SH2146866100015464448.html",
    "rent_type": "整租",
    "location": "浦东-南码头-天健浦荟大楼",
    "scraped_at": "2026-04-23 10:24:45",
    "region": "nanmatou",
    "unit_price": 154.5,
    "lat": 31.1821,
    "lng": 121.51621
  },
  {
    "title": "整租·东三里桥路79弄 1室1厅 南",
    "community": "东三里桥路79弄",
    "area": "37.07",
    "rooms": "1室1厅",
    "direction": "南",
    "floor": "",
    "price": "4200",
    "tags": "",
    "source": "",
    "url": "https://sh.lianjia.com/zufang/SH2149365340365127680.html",
    "rent_type": "整租",
    "location": "浦东-南码头-东三里桥路",
    "scraped_at": "2026-04-23 10:24:45",
    "region": "nanmatou",
    "unit_price": 113.3,
    "lat": 31.19703,
    "lng": 121.51809
  },
  {
    "title": "整租·临沂六村 1室1厅 南",
    "community": "临沂六村",
    "area": "38.26",
    "rooms": "1室1厅",
    "direction": "南",
    "floor": "",
    "price": "3912",
    "tags": "",
    "source": "",
    "url": "https://sh.lianjia.com/zufang/SH2152315893604941824.html",
    "rent_type": "整租",
    "location": "浦东-南码头-临沂六村",
    "scraped_at": "2026-04-23 10:24:49",
    "region": "nanmatou",
    "unit_price": 102.2,
    "lat": 31.19504,
    "lng": 121.50764
  },
  {
    "title": "整租·临沂七村 1室1厅 南",
    "community": "临沂七村",
    "area": "37.25",
    "rooms": "1室1厅",
    "direction": "南",
    "floor": "",
    "price": "4200",
    "tags": "",
    "source": "",
    "url": "https://sh.lianjia.com/zufang/SH2152623630612168704.html",
    "rent_type": "整租",
    "location": "浦东-南码头-临沂七村",
    "scraped_at": "2026-04-23 10:24:49",
    "region": "nanmatou",
    "unit_price": 112.8,
    "lat": 31.19621,
    "lng": 121.5114
  },
  {
    "title": "整租·东方城市花园(二期) 2室1厅 南",
    "community": "东方城市花园(二期)",
    "area": "119.91",
    "rooms": "2室1厅",
    "direction": "南",
    "floor": "",
    "price": "9500",
    "tags": "",
    "source": "",
    "url": "https://sh.lianjia.com/zufang/SH2146117786806517760.html",
    "rent_type": "整租",
    "location": "浦东-南码头-东方城市花园(二期)",
    "scraped_at": "2026-04-23 10:24:49",
    "region": "nanmatou",
    "unit_price": 79.2,
    "lat": 31.2015,
    "lng": 121.51817
  },
  {
    "title": "整租·欣宇小区 2室2厅 南",
    "community": "欣宇小区",
    "area": "82.34",
    "rooms": "2室2厅",
    "direction": "南",
    "floor": "",
    "price": "7300",
    "tags": "",
    "source": "",
    "url": "https://sh.lianjia.com/zufang/SH2140019238608306176.html",
    "rent_type": "整租",
    "location": "浦东-南码头-欣宇小区",
    "scraped_at": "2026-04-23 10:24:49",
    "region": "nanmatou",
    "unit_price": 88.7,
    "lat": 31.1821,
    "lng": 121.51621
  },
  {
    "title": "整租·南码头路193弄 2室0厅 南",
    "community": "南码头路193弄",
    "area": "51.11",
    "rooms": "2室0厅",
    "direction": "南",
    "floor": "",
    "price": "4500",
    "tags": "",
    "source": "",
    "url": "https://sh.lianjia.com/zufang/SH2073782575318433792.html",
    "rent_type": "整租",
    "location": "浦东-南码头-南码头路",
    "scraped_at": "2026-04-23 10:24:49",
    "region": "nanmatou",
    "unit_price": 88.0,
    "lat": 31.2016,
    "lng": 121.50511
  },
  {
    "title": "整租·临沂三村 2室1厅 南",
    "community": "临沂三村",
    "area": "57.36",
    "rooms": "2室1厅",
    "direction": "南",
    "floor": "",
    "price": "4600",
    "tags": "",
    "source": "",
    "url": "https://sh.lianjia.com/zufang/SH2148374074840055808.html",
    "rent_type": "整租",
    "location": "浦东-南码头-临沂三村",
    "scraped_at": "2026-04-23 10:24:49",
    "region": "nanmatou",
    "unit_price": 80.2,
    "lat": 31.1952,
    "lng": 121.50401
  },
  {
    "title": "整租·东三小区 2室0厅 南",
    "community": "东三小区",
    "area": "47.47",
    "rooms": "2室0厅",
    "direction": "南",
    "floor": "",
    "price": "4800",
    "tags": "",
    "source": "",
    "url": "https://sh.lianjia.com/zufang/SH2139752185439715328.html",
    "rent_type": "整租",
    "location": "浦东-南码头-东三小区",
    "scraped_at": "2026-04-23 10:24:49",
    "region": "nanmatou",
    "unit_price": 101.1,
    "lat": 31.2077,
    "lng": 121.50744
  },
  {
    "title": "整租·南码头路144弄 1室1厅 南",
    "community": "南码头路144弄",
    "area": "30.13",
    "rooms": "1室1厅",
    "direction": "南",
    "floor": "",
    "price": "4800",
    "tags": "",
    "source": "",
    "url": "https://sh.lianjia.com/zufang/SH2118615242916233216.html",
    "rent_type": "整租",
    "location": "浦东-南码头-南码头路",
    "scraped_at": "2026-04-23 10:24:49",
    "region": "nanmatou",
    "unit_price": 159.3,
    "lat": 31.21,
    "lng": 121.50614
  },
  {
    "title": "整租·锦南浦三小区 2室1厅 南",
    "community": "锦南浦三小区",
    "area": "55.68",
    "rooms": "2室1厅",
    "direction": "南",
    "floor": "",
    "price": "4550",
    "tags": "",
    "source": "",
    "url": "https://sh.lianjia.com/zufang/SH2146517512169193472.html",
    "rent_type": "整租",
    "location": "浦东-南码头-锦南浦三小区",
    "scraped_at": "2026-04-23 10:24:49",
    "region": "nanmatou",
    "unit_price": 81.7,
    "lat": 31.1821,
    "lng": 121.51621
  },
  {
    "title": "整租·南码头路155弄 1室1厅 南",
    "community": "南码头路155弄",
    "area": "43.00",
    "rooms": "1室1厅",
    "direction": "南",
    "floor": "",
    "price": "4200",
    "tags": "",
    "source": "",
    "url": "https://sh.lianjia.com/zufang/SH2150897215961300992.html",
    "rent_type": "整租",
    "location": "浦东-南码头-南码头路",
    "scraped_at": "2026-04-23 10:24:49",
    "region": "nanmatou",
    "unit_price": 97.7,
    "lat": 31.19771,
    "lng": 121.50838
  },
  {
    "title": "整租·海关大楼 2室1厅 南",
    "community": "海关大楼",
    "area": "78.00",
    "rooms": "2室1厅",
    "direction": "南",
    "floor": "",
    "price": "5900",
    "tags": "",
    "source": "",
    "url": "https://sh.lianjia.com/zufang/SH2147951012780965888.html",
    "rent_type": "整租",
    "location": "浦东-南码头-海关大楼",
    "scraped_at": "2026-04-23 10:24:49",
    "region": "nanmatou",
    "unit_price": 75.6,
    "lat": 31.1821,
    "lng": 121.51621
  },
  {
    "title": "整租·凯德莲公馆 2室2厅 南",
    "community": "凯德莲公馆",
    "area": "86.94",
    "rooms": "2室2厅",
    "direction": "南",
    "floor": "",
    "price": "12000",
    "tags": "",
    "source": "",
    "url": "https://sh.lianjia.com/zufang/SH2138152019213418496.html",
    "rent_type": "整租",
    "location": "浦东-南码头-凯德莲公馆",
    "scraped_at": "2026-04-23 10:24:49",
    "region": "nanmatou",
    "unit_price": 138.0,
    "lat": 31.1821,
    "lng": 121.51621
  },
  {
    "title": "整租·临沂一村 1室1厅 南",
    "community": "临沂一村",
    "area": "37.18",
    "rooms": "1室1厅",
    "direction": "南",
    "floor": "",
    "price": "4000",
    "tags": "",
    "source": "",
    "url": "https://sh.lianjia.com/zufang/SH2138588126124179456.html",
    "rent_type": "整租",
    "location": "浦东-南码头-临沂一村",
    "scraped_at": "2026-04-23 10:24:49",
    "region": "nanmatou",
    "unit_price": 107.6,
    "lat": 31.20033,
    "lng": 121.50954
  },
  {
    "title": "整租·东方名筑 2室2厅 南",
    "community": "东方名筑",
    "area": "94.41",
    "rooms": "2室2厅",
    "direction": "南",
    "floor": "",
    "price": "7800",
    "tags": "",
    "source": "",
    "url": "https://sh.lianjia.com/zufang/SH2089275608033918976.html",
    "rent_type": "整租",
    "location": "浦东-南码头-东方名筑",
    "scraped_at": "2026-04-23 10:24:49",
    "region": "nanmatou",
    "unit_price": 82.6,
    "lat": 31.19021,
    "lng": 121.5059
  },
  {
    "title": "整租·临沂大楼 2室1厅 南/北",
    "community": "临沂大楼",
    "area": "74.27",
    "rooms": "2室1厅",
    "direction": "南/北",
    "floor": "",
    "price": "6300",
    "tags": "",
    "source": "",
    "url": "https://sh.lianjia.com/zufang/SH2153454553662488576.html",
    "rent_type": "整租",
    "location": "浦东-南码头-临沂大楼",
    "scraped_at": "2026-04-23 10:24:49",
    "region": "nanmatou",
    "unit_price": 84.8,
    "lat": 31.20172,
    "lng": 121.505
  },
  {
    "title": "整租·华丰路12号 2室1厅 南",
    "community": "华丰路12号",
    "area": "66.77",
    "rooms": "2室1厅",
    "direction": "南",
    "floor": "",
    "price": "4800",
    "tags": "",
    "source": "",
    "url": "https://sh.lianjia.com/zufang/SH2146881989834178560.html",
    "rent_type": "整租",
    "location": "浦东-南码头-华丰路",
    "scraped_at": "2026-04-23 10:24:49",
    "region": "nanmatou",
    "unit_price": 71.9,
    "lat": 31.1942,
    "lng": 121.50265
  },
  {
    "title": "整租·东三小区 3室2厅 南",
    "community": "东三小区",
    "area": "102.25",
    "rooms": "3室2厅",
    "direction": "南",
    "floor": "",
    "price": "7800",
    "tags": "",
    "source": "",
    "url": "https://sh.lianjia.com/zufang/SH2149427595303714816.html",
    "rent_type": "整租",
    "location": "浦东-南码头-东三小区",
    "scraped_at": "2026-04-23 10:24:49",
    "region": "nanmatou",
    "unit_price": 76.3,
    "lat": 31.2077,
    "lng": 121.50744
  },
  {
    "title": "整租·塘南小区 1室1厅 南",
    "community": "塘南小区",
    "area": "37.00",
    "rooms": "1室1厅",
    "direction": "南",
    "floor": "",
    "price": "4900",
    "tags": "",
    "source": "",
    "url": "https://sh.lianjia.com/zufang/SH2150777960750120960.html",
    "rent_type": "整租",
    "location": "浦东-南码头-塘南小区",
    "scraped_at": "2026-04-23 10:24:49",
    "region": "nanmatou",
    "unit_price": 132.4,
    "lat": 31.1821,
    "lng": 121.51621
  },
  {
    "title": "整租·南码头路193弄 2室1厅 南",
    "community": "南码头路193弄",
    "area": "46.55",
    "rooms": "2室1厅",
    "direction": "南",
    "floor": "",
    "price": "4500",
    "tags": "",
    "source": "",
    "url": "https://sh.lianjia.com/zufang/SH2140301858189606912.html",
    "rent_type": "整租",
    "location": "浦东-南码头-南码头路",
    "scraped_at": "2026-04-23 10:24:49",
    "region": "nanmatou",
    "unit_price": 96.7,
    "lat": 31.2016,
    "lng": 121.50511
  },
  {
    "title": "整租·临沂七村 1室1厅 南",
    "community": "临沂七村",
    "area": "36.49",
    "rooms": "1室1厅",
    "direction": "南",
    "floor": "",
    "price": "3700",
    "tags": "",
    "source": "",
    "url": "https://sh.lianjia.com/zufang/SH2152386802290262016.html",
    "rent_type": "整租",
    "location": "浦东-南码头-临沂七村",
    "scraped_at": "2026-04-23 10:24:49",
    "region": "nanmatou",
    "unit_price": 101.4,
    "lat": 31.19621,
    "lng": 121.5114
  },
  {
    "title": "整租·天健浦荟大楼 2室1厅 南",
    "community": "天健浦荟大楼",
    "area": "40.00",
    "rooms": "2室1厅",
    "direction": "南",
    "floor": "",
    "price": "6400",
    "tags": "",
    "source": "",
    "url": "https://sh.lianjia.com/zufang/SH2126912663580573696.html",
    "rent_type": "整租",
    "location": "浦东-南码头-天健浦荟大楼",
    "scraped_at": "2026-04-23 10:24:49",
    "region": "nanmatou",
    "unit_price": 160.0,
    "lat": 31.1821,
    "lng": 121.51621
  },
  {
    "title": "整租·临沂八村 2室1厅 南",
    "community": "临沂八村",
    "area": "53.63",
    "rooms": "2室1厅",
    "direction": "南",
    "floor": "",
    "price": "5800",
    "tags": "",
    "source": "",
    "url": "https://sh.lianjia.com/zufang/SH2153377070992850944.html",
    "rent_type": "整租",
    "location": "浦东-南码头-临沂八村",
    "scraped_at": "2026-04-23 10:24:49",
    "region": "nanmatou",
    "unit_price": 108.1,
    "lat": 31.19844,
    "lng": 121.51219
  },
  {
    "title": "整租·东方名筑 1室1厅 南",
    "community": "东方名筑",
    "area": "70.00",
    "rooms": "1室1厅",
    "direction": "南",
    "floor": "",
    "price": "5200",
    "tags": "",
    "source": "",
    "url": "https://sh.lianjia.com/zufang/SH2149351986934317056.html",
    "rent_type": "整租",
    "location": "浦东-南码头-东方名筑",
    "scraped_at": "2026-04-23 10:24:49",
    "region": "nanmatou",
    "unit_price": 74.3,
    "lat": 31.19021,
    "lng": 121.5059
  },
  {
    "title": "整租·西三小区 2室0厅 东南",
    "community": "西三小区",
    "area": "65.92",
    "rooms": "2室0厅",
    "direction": "东南",
    "floor": "",
    "price": "5500",
    "tags": "",
    "source": "",
    "url": "https://sh.lianjia.com/zufang/SH2113216166896861184.html",
    "rent_type": "整租",
    "location": "浦东-南码头-西三小区",
    "scraped_at": "2026-04-23 10:24:49",
    "region": "nanmatou",
    "unit_price": 83.4,
    "lat": 31.1821,
    "lng": 121.51621
  },
  {
    "title": "整租·塘南小区 2室1厅 东南/南",
    "community": "塘南小区",
    "area": "54.97",
    "rooms": "2室1厅",
    "direction": "东南/南",
    "floor": "",
    "price": "6000",
    "tags": "",
    "source": "",
    "url": "https://sh.lianjia.com/zufang/SH2149861154019606528.html",
    "rent_type": "整租",
    "location": "浦东-南码头-塘南小区",
    "scraped_at": "2026-04-23 10:24:49",
    "region": "nanmatou",
    "unit_price": 109.2,
    "lat": 31.1821,
    "lng": 121.51621
  },
  {
    "title": "整租·临沂六村 1室1厅 南",
    "community": "临沂六村",
    "area": "40.20",
    "rooms": "1室1厅",
    "direction": "南",
    "floor": "",
    "price": "4200",
    "tags": "",
    "source": "",
    "url": "https://sh.lianjia.com/zufang/SH2131676764567502848.html",
    "rent_type": "整租",
    "location": "浦东-南码头-临沂六村",
    "scraped_at": "2026-04-23 10:24:49",
    "region": "nanmatou",
    "unit_price": 104.5,
    "lat": 31.19504,
    "lng": 121.50764
  },
  {
    "title": "整租·临沂六村 2室1厅 南",
    "community": "临沂六村",
    "area": "46.32",
    "rooms": "2室1厅",
    "direction": "南",
    "floor": "",
    "price": "4400",
    "tags": "",
    "source": "",
    "url": "https://sh.lianjia.com/zufang/SH2094756077471006720.html",
    "rent_type": "整租",
    "location": "浦东-南码头-临沂六村",
    "scraped_at": "2026-04-23 10:24:49",
    "region": "nanmatou",
    "unit_price": 95.0,
    "lat": 31.19504,
    "lng": 121.50764
  },
  {
    "title": "整租·桥南玉庭 3室2厅 南",
    "community": "桥南玉庭",
    "area": "125.70",
    "rooms": "3室2厅",
    "direction": "南",
    "floor": "",
    "price": "8700",
    "tags": "",
    "source": "",
    "url": "https://sh.lianjia.com/zufang/SH2097004618989961216.html",
    "rent_type": "整租",
    "location": "浦东-南码头-桥南玉庭",
    "scraped_at": "2026-04-23 10:24:49",
    "region": "nanmatou",
    "unit_price": 69.2,
    "lat": 31.1821,
    "lng": 121.51621
  },
  {
    "title": "整租·临沂三村 1室1厅 南",
    "community": "临沂三村",
    "area": "40.16",
    "rooms": "1室1厅",
    "direction": "南",
    "floor": "",
    "price": "4500",
    "tags": "",
    "source": "",
    "url": "https://sh.lianjia.com/zufang/SH2152255933051305984.html",
    "rent_type": "整租",
    "location": "浦东-南码头-临沂三村",
    "scraped_at": "2026-04-23 10:24:49",
    "region": "nanmatou",
    "unit_price": 112.1,
    "lat": 31.1952,
    "lng": 121.50401
  },
  {
    "title": "整租·东三小区 1室0厅 南",
    "community": "东三小区",
    "area": "32.27",
    "rooms": "1室0厅",
    "direction": "南",
    "floor": "",
    "price": "3800",
    "tags": "",
    "source": "",
    "url": "https://sh.lianjia.com/zufang/SH2154534527312068608.html",
    "rent_type": "整租",
    "location": "浦东-南码头-东三小区",
    "scraped_at": "2026-04-23 10:24:49",
    "region": "nanmatou",
    "unit_price": 117.8,
    "lat": 31.2077,
    "lng": 121.50744
  },
  {
    "title": "整租·临沂七村 1室1厅 南",
    "community": "临沂七村",
    "area": "35.78",
    "rooms": "1室1厅",
    "direction": "南",
    "floor": "",
    "price": "4400",
    "tags": "",
    "source": "",
    "url": "https://sh.lianjia.com/zufang/SH2153889403133493248.html",
    "rent_type": "整租",
    "location": "浦东-南码头-临沂七村",
    "scraped_at": "2026-04-23 10:24:52",
    "region": "nanmatou",
    "unit_price": 123.0,
    "lat": 31.19621,
    "lng": 121.5114
  },
  {
    "title": "整租·西三里桥路9弄 2室0厅 南",
    "community": "西三里桥路9弄",
    "area": "54.81",
    "rooms": "2室0厅",
    "direction": "南",
    "floor": "",
    "price": "4200",
    "tags": "",
    "source": "",
    "url": "https://sh.lianjia.com/zufang/SH2143009884575105024.html",
    "rent_type": "整租",
    "location": "浦东-南码头-西三里桥路",
    "scraped_at": "2026-04-23 10:24:52",
    "region": "nanmatou",
    "unit_price": 76.6,
    "lat": 31.2014,
    "lng": 121.50249
  },
  {
    "title": "整租·临沂七村 2室0厅 南",
    "community": "临沂七村",
    "area": "51.58",
    "rooms": "2室0厅",
    "direction": "南",
    "floor": "",
    "price": "5500",
    "tags": "",
    "source": "",
    "url": "https://sh.lianjia.com/zufang/SH2157479449065422848.html",
    "rent_type": "整租",
    "location": "浦东-南码头-临沂七村",
    "scraped_at": "2026-04-23 10:24:52",
    "region": "nanmatou",
    "unit_price": 106.6,
    "lat": 31.19621,
    "lng": 121.5114
  },
  {
    "title": "整租·临沂六村 2室1厅 南/北",
    "community": "临沂六村",
    "area": "45.84",
    "rooms": "2室1厅",
    "direction": "南/北",
    "floor": "",
    "price": "5000",
    "tags": "",
    "source": "",
    "url": "https://sh.lianjia.com/zufang/SH2144387276178718720.html",
    "rent_type": "整租",
    "location": "浦东-南码头-临沂六村",
    "scraped_at": "2026-04-23 10:24:52",
    "region": "nanmatou",
    "unit_price": 109.1,
    "lat": 31.19504,
    "lng": 121.50764
  },
  {
    "title": "整租·临沂八村 2室1厅 南",
    "community": "临沂八村",
    "area": "56.19",
    "rooms": "2室1厅",
    "direction": "南",
    "floor": "",
    "price": "5200",
    "tags": "",
    "source": "",
    "url": "https://sh.lianjia.com/zufang/SH2155683077274206208.html",
    "rent_type": "整租",
    "location": "浦东-南码头-临沂八村",
    "scraped_at": "2026-04-23 10:24:52",
    "region": "nanmatou",
    "unit_price": 92.5,
    "lat": 31.19844,
    "lng": 121.51219
  },
  {
    "title": "整租·鹏欣家园 1室1厅 南",
    "community": "鹏欣家园",
    "area": "70.91",
    "rooms": "1室1厅",
    "direction": "南",
    "floor": "",
    "price": "6000",
    "tags": "",
    "source": "",
    "url": "https://sh.lianjia.com/zufang/SH2156020422385074176.html",
    "rent_type": "整租",
    "location": "浦东-南码头-鹏欣家园",
    "scraped_at": "2026-04-23 10:24:52",
    "region": "nanmatou",
    "unit_price": 84.6,
    "lat": 31.1821,
    "lng": 121.51621
  },
  {
    "title": "整租·锦南浦三小区 1室1厅 南",
    "community": "锦南浦三小区",
    "area": "52.00",
    "rooms": "1室1厅",
    "direction": "南",
    "floor": "",
    "price": "5500",
    "tags": "",
    "source": "",
    "url": "https://sh.lianjia.com/zufang/SH2143986730796056576.html",
    "rent_type": "整租",
    "location": "浦东-南码头-锦南浦三小区",
    "scraped_at": "2026-04-23 10:24:52",
    "region": "nanmatou",
    "unit_price": 105.8,
    "lat": 31.1821,
    "lng": 121.51621
  },
  {
    "title": "整租·临沂七村 2室1厅 南",
    "community": "临沂七村",
    "area": "52.63",
    "rooms": "2室1厅",
    "direction": "南",
    "floor": "",
    "price": "5200",
    "tags": "",
    "source": "",
    "url": "https://sh.lianjia.com/zufang/SH2127623863138254848.html",
    "rent_type": "整租",
    "location": "浦东-南码头-临沂七村",
    "scraped_at": "2026-04-23 10:24:52",
    "region": "nanmatou",
    "unit_price": 98.8,
    "lat": 31.19621,
    "lng": 121.5114
  },
  {
    "title": "整租·临沂三村 2室1厅 南",
    "community": "临沂三村",
    "area": "57.13",
    "rooms": "2室1厅",
    "direction": "南",
    "floor": "",
    "price": "5500",
    "tags": "",
    "source": "",
    "url": "https://sh.lianjia.com/zufang/SH2149498013335158784.html",
    "rent_type": "整租",
    "location": "浦东-南码头-临沂三村",
    "scraped_at": "2026-04-23 10:24:52",
    "region": "nanmatou",
    "unit_price": 96.3,
    "lat": 31.1952,
    "lng": 121.50401
  },
  {
    "title": "整租·临沂八村 1室1厅 南",
    "community": "临沂八村",
    "area": "38.65",
    "rooms": "1室1厅",
    "direction": "南",
    "floor": "",
    "price": "3500",
    "tags": "",
    "source": "",
    "url": "https://sh.lianjia.com/zufang/SH2074493464355012608.html",
    "rent_type": "整租",
    "location": "浦东-南码头-临沂八村",
    "scraped_at": "2026-04-23 10:24:52",
    "region": "nanmatou",
    "unit_price": 90.6,
    "lat": 31.19844,
    "lng": 121.51219
  },
  {
    "title": "整租·天健浦荟大楼 1室1厅 南",
    "community": "天健浦荟大楼",
    "area": "35.00",
    "rooms": "1室1厅",
    "direction": "南",
    "floor": "",
    "price": "5200",
    "tags": "",
    "source": "",
    "url": "https://sh.lianjia.com/zufang/SH2158047079597867008.html",
    "rent_type": "整租",
    "location": "浦东-南码头-天健浦荟大楼",
    "scraped_at": "2026-04-23 10:24:52",
    "region": "nanmatou",
    "unit_price": 148.6,
    "lat": 31.1821,
    "lng": 121.51621
  },
  {
    "title": "整租·临沂二村 1室1厅 南",
    "community": "临沂二村",
    "area": "39.59",
    "rooms": "1室1厅",
    "direction": "南",
    "floor": "",
    "price": "4200",
    "tags": "",
    "source": "",
    "url": "https://sh.lianjia.com/zufang/SH2158049105127931904.html",
    "rent_type": "整租",
    "location": "浦东-南码头-临沂二村",
    "scraped_at": "2026-04-23 10:24:52",
    "region": "nanmatou",
    "unit_price": 106.1,
    "lat": 31.19774,
    "lng": 121.50633
  },
  {
    "title": "整租·银河小区 2室1厅 南",
    "community": "银河小区",
    "area": "50.73",
    "rooms": "2室1厅",
    "direction": "南",
    "floor": "",
    "price": "4500",
    "tags": "",
    "source": "",
    "url": "https://sh.lianjia.com/zufang/SH2158094300653551616.html",
    "rent_type": "整租",
    "location": "浦东-南码头-银河小区",
    "scraped_at": "2026-04-23 10:24:52",
    "region": "nanmatou",
    "unit_price": 88.7,
    "lat": 31.19976,
    "lng": 121.50771
  },
  {
    "title": "整租·银河小区 1室1厅 南",
    "community": "银河小区",
    "area": "36.86",
    "rooms": "1室1厅",
    "direction": "南",
    "floor": "",
    "price": "4000",
    "tags": "",
    "source": "",
    "url": "https://sh.lianjia.com/zufang/SH2158141634485682176.html",
    "rent_type": "整租",
    "location": "浦东-南码头-银河小区",
    "scraped_at": "2026-04-23 10:24:52",
    "region": "nanmatou",
    "unit_price": 108.5,
    "lat": 31.19976,
    "lng": 121.50771
  },
  {
    "title": "整租·龙阳花苑 2室1厅 南/北",
    "community": "龙阳花苑",
    "area": "79.05",
    "rooms": "2室1厅",
    "direction": "南/北",
    "floor": "",
    "price": "7800",
    "tags": "",
    "source": "",
    "url": "https://sh.lianjia.com/zufang/SH1999098058331127808.html",
    "rent_type": "整租",
    "location": "浦东-南码头-龙阳花苑",
    "scraped_at": "2026-04-23 10:24:52",
    "region": "nanmatou",
    "unit_price": 98.7,
    "lat": 31.1821,
    "lng": 121.51621
  },
  {
    "title": "整租·临沂三村 1室0厅 南",
    "community": "临沂三村",
    "area": "39.24",
    "rooms": "1室0厅",
    "direction": "南",
    "floor": "",
    "price": "3700",
    "tags": "",
    "source": "",
    "url": "https://sh.lianjia.com/zufang/SH2156246313136553984.html",
    "rent_type": "整租",
    "location": "浦东-南码头-临沂三村",
    "scraped_at": "2026-04-23 10:24:52",
    "region": "nanmatou",
    "unit_price": 94.3,
    "lat": 31.1952,
    "lng": 121.50401
  },
  {
    "title": "整租·胶南小区 2室0厅 南/北",
    "community": "胶南小区",
    "area": "47.38",
    "rooms": "2室0厅",
    "direction": "南/北",
    "floor": "",
    "price": "5300",
    "tags": "",
    "source": "",
    "url": "https://sh.lianjia.com/zufang/SH2157665898381443072.html",
    "rent_type": "整租",
    "location": "浦东-南码头-胶南小区",
    "scraped_at": "2026-04-23 10:24:52",
    "region": "nanmatou",
    "unit_price": 111.9,
    "lat": 31.1821,
    "lng": 121.51621
  },
  {
    "title": "整租·临沂六村 1室1厅 南",
    "community": "临沂六村",
    "area": "39.00",
    "rooms": "1室1厅",
    "direction": "南",
    "floor": "",
    "price": "4700",
    "tags": "",
    "source": "",
    "url": "https://sh.lianjia.com/zufang/SH2155199265301856256.html",
    "rent_type": "整租",
    "location": "浦东-南码头-临沂六村",
    "scraped_at": "2026-04-23 10:24:52",
    "region": "nanmatou",
    "unit_price": 120.5,
    "lat": 31.19504,
    "lng": 121.50764
  },
  {
    "title": "整租·港机新村 1室1厅 南",
    "community": "港机新村",
    "area": "36.23",
    "rooms": "1室1厅",
    "direction": "南",
    "floor": "",
    "price": "4800",
    "tags": "",
    "source": "",
    "url": "https://sh.lianjia.com/zufang/SH2155869287712030720.html",
    "rent_type": "整租",
    "location": "浦东-南码头-港机新村",
    "scraped_at": "2026-04-23 10:24:52",
    "region": "nanmatou",
    "unit_price": 132.5,
    "lat": 31.19227,
    "lng": 121.50202
  },
  {
    "title": "整租·临沂六村 2室0厅 南",
    "community": "临沂六村",
    "area": "50.00",
    "rooms": "2室0厅",
    "direction": "南",
    "floor": "",
    "price": "4500",
    "tags": "",
    "source": "",
    "url": "https://sh.lianjia.com/zufang/SH2156672530096586752.html",
    "rent_type": "整租",
    "location": "浦东-南码头-临沂六村",
    "scraped_at": "2026-04-23 10:24:52",
    "region": "nanmatou",
    "unit_price": 90.0,
    "lat": 31.19504,
    "lng": 121.50764
  },
  {
    "title": "整租·保利世博天悦 4室2厅 南",
    "community": "保利世博天悦",
    "area": "207.00",
    "rooms": "4室2厅",
    "direction": "南",
    "floor": "",
    "price": "60000",
    "tags": "",
    "source": "",
    "url": "https://sh.lianjia.com/zufang/SH2152778017686945792.html",
    "rent_type": "整租",
    "location": "浦东-南码头-保利世博天悦",
    "scraped_at": "2026-04-23 10:24:52",
    "region": "nanmatou",
    "unit_price": 289.9,
    "lat": 31.1821,
    "lng": 121.51621
  },
  {
    "title": "整租·临沂七村 1室1厅 南",
    "community": "临沂七村",
    "area": "36.00",
    "rooms": "1室1厅",
    "direction": "南",
    "floor": "",
    "price": "3000",
    "tags": "",
    "source": "",
    "url": "https://sh.lianjia.com/zufang/SH2153838987804934144.html",
    "rent_type": "整租",
    "location": "浦东-南码头-临沂七村",
    "scraped_at": "2026-04-23 10:24:52",
    "region": "nanmatou",
    "unit_price": 83.3,
    "lat": 31.19621,
    "lng": 121.5114
  },
  {
    "title": "整租·临沂三村 1室1厅 南",
    "community": "临沂三村",
    "area": "35.00",
    "rooms": "1室1厅",
    "direction": "南",
    "floor": "",
    "price": "3300",
    "tags": "",
    "source": "",
    "url": "https://sh.lianjia.com/zufang/SH2148401038644740096.html",
    "rent_type": "整租",
    "location": "浦东-南码头-临沂三村",
    "scraped_at": "2026-04-23 10:24:52",
    "region": "nanmatou",
    "unit_price": 94.3,
    "lat": 31.1952,
    "lng": 121.50401
  },
  {
    "title": "整租·保利世博天悦 4室2厅 南",
    "community": "保利世博天悦",
    "area": "206.32",
    "rooms": "4室2厅",
    "direction": "南",
    "floor": "",
    "price": "70000",
    "tags": "",
    "source": "",
    "url": "https://sh.lianjia.com/zufang/SH2143408005939462144.html",
    "rent_type": "整租",
    "location": "浦东-南码头-保利世博天悦",
    "scraped_at": "2026-04-23 10:24:52",
    "region": "nanmatou",
    "unit_price": 339.3,
    "lat": 31.1821,
    "lng": 121.51621
  },
  {
    "title": "整租·保利世博天悦 4室3厅 南",
    "community": "保利世博天悦",
    "area": "240.00",
    "rooms": "4室3厅",
    "direction": "南",
    "floor": "",
    "price": "100000",
    "tags": "",
    "source": "",
    "url": "https://sh.lianjia.com/zufang/SH2144097029452726272.html",
    "rent_type": "整租",
    "location": "浦东-南码头-保利世博天悦",
    "scraped_at": "2026-04-23 10:24:52",
    "region": "nanmatou",
    "unit_price": 416.7,
    "lat": 31.1821,
    "lng": 121.51621
  },
  {
    "title": "整租·临沂六村 1室0厅 南",
    "community": "临沂六村",
    "area": "40.54",
    "rooms": "1室0厅",
    "direction": "南",
    "floor": "",
    "price": "4000",
    "tags": "",
    "source": "",
    "url": "https://sh.lianjia.com/zufang/SH2144404133690474496.html",
    "rent_type": "整租",
    "location": "浦东-南码头-临沂六村",
    "scraped_at": "2026-04-23 10:24:52",
    "region": "nanmatou",
    "unit_price": 98.7,
    "lat": 31.19504,
    "lng": 121.50764
  },
  {
    "title": "整租·保利世博天悦 2室2厅 南",
    "community": "保利世博天悦",
    "area": "174.00",
    "rooms": "2室2厅",
    "direction": "南",
    "floor": "",
    "price": "42000",
    "tags": "",
    "source": "",
    "url": "https://sh.lianjia.com/zufang/SH2140744774620020736.html",
    "rent_type": "整租",
    "location": "浦东-南码头-保利世博天悦",
    "scraped_at": "2026-04-23 10:24:52",
    "region": "nanmatou",
    "unit_price": 241.4,
    "lat": 31.1821,
    "lng": 121.51621
  },
  {
    "title": "整租·港机新村 1室0厅 南",
    "community": "港机新村",
    "area": "37.00",
    "rooms": "1室0厅",
    "direction": "南",
    "floor": "",
    "price": "3800",
    "tags": "",
    "source": "",
    "url": "https://sh.lianjia.com/zufang/SH2141214119292829696.html",
    "rent_type": "整租",
    "location": "浦东-南码头-港机新村",
    "scraped_at": "2026-04-23 10:24:52",
    "region": "nanmatou",
    "unit_price": 102.7,
    "lat": 31.19227,
    "lng": 121.50202
  },
  {
    "title": "整租·保利世博天悦 3室2厅 南",
    "community": "保利世博天悦",
    "area": "190.00",
    "rooms": "3室2厅",
    "direction": "南",
    "floor": "",
    "price": "66000",
    "tags": "",
    "source": "",
    "url": "https://sh.lianjia.com/zufang/SH2149807260082110464.html",
    "rent_type": "整租",
    "location": "浦东-南码头-保利世博天悦",
    "scraped_at": "2026-04-23 10:24:52",
    "region": "nanmatou",
    "unit_price": 347.4,
    "lat": 31.1821,
    "lng": 121.51621
  },
  {
    "title": "整租·港机新村 2室1厅 南",
    "community": "港机新村",
    "area": "37.25",
    "rooms": "2室1厅",
    "direction": "南",
    "floor": "",
    "price": "5000",
    "tags": "",
    "source": "",
    "url": "https://sh.lianjia.com/zufang/SH2150461076574044160.html",
    "rent_type": "整租",
    "location": "浦东-南码头-港机新村",
    "scraped_at": "2026-04-23 10:24:52",
    "region": "nanmatou",
    "unit_price": 134.2,
    "lat": 31.19227,
    "lng": 121.50202
  },
  {
    "title": "整租·港机新村 1室1厅 南",
    "community": "港机新村",
    "area": "56.00",
    "rooms": "1室1厅",
    "direction": "南",
    "floor": "",
    "price": "4000",
    "tags": "",
    "source": "",
    "url": "https://sh.lianjia.com/zufang/SH2152275484476440576.html",
    "rent_type": "整租",
    "location": "浦东-南码头-港机新村",
    "scraped_at": "2026-04-23 10:24:55",
    "region": "nanmatou",
    "unit_price": 71.4,
    "lat": 31.19227,
    "lng": 121.50202
  },
  {
    "title": "整租·临沂二村 1室1厅 南",
    "community": "临沂二村",
    "area": "37.00",
    "rooms": "1室1厅",
    "direction": "南",
    "floor": "",
    "price": "3700",
    "tags": "",
    "source": "",
    "url": "https://sh.lianjia.com/zufang/SH2154074395788705792.html",
    "rent_type": "整租",
    "location": "浦东-南码头-临沂二村",
    "scraped_at": "2026-04-23 10:24:55",
    "region": "nanmatou",
    "unit_price": 100.0,
    "lat": 31.19774,
    "lng": 121.50633
  },
  {
    "title": "整租·临沂八村 1室1厅 南",
    "community": "临沂八村",
    "area": "36.67",
    "rooms": "1室1厅",
    "direction": "南",
    "floor": "",
    "price": "4095",
    "tags": "",
    "source": "",
    "url": "https://sh.lianjia.com/zufang/SH2019033491202637824.html",
    "rent_type": "整租",
    "location": "浦东-南码头-临沂八村",
    "scraped_at": "2026-04-23 10:24:55",
    "region": "nanmatou",
    "unit_price": 111.7,
    "lat": 31.19844,
    "lng": 121.51219
  },
  {
    "title": "整租·天健浦荟大楼 1室2厅 南",
    "community": "天健浦荟大楼",
    "area": "40.00",
    "rooms": "1室2厅",
    "direction": "南",
    "floor": "",
    "price": "4305",
    "tags": "",
    "source": "",
    "url": "https://sh.lianjia.com/zufang/SH2039207582953897984.html",
    "rent_type": "整租",
    "location": "浦东-南码头-天健浦荟大楼",
    "scraped_at": "2026-04-23 10:24:55",
    "region": "nanmatou",
    "unit_price": 107.6,
    "lat": 31.1821,
    "lng": 121.51621
  },
  {
    "title": "整租·锦南浦三小区 2室2厅 南",
    "community": "锦南浦三小区",
    "area": "62.48",
    "rooms": "2室2厅",
    "direction": "南",
    "floor": "",
    "price": "5985",
    "tags": "",
    "source": "",
    "url": "https://sh.lianjia.com/zufang/SH2044674648934711296.html",
    "rent_type": "整租",
    "location": "浦东-南码头-锦南浦三小区",
    "scraped_at": "2026-04-23 10:24:55",
    "region": "nanmatou",
    "unit_price": 95.8,
    "lat": 31.1821,
    "lng": 121.51621
  }
]