[
  {
    "title": "整租·浦东中惠棠里 1室1厅 北",
    "community": "浦东中惠棠里",
    "area": "31.81",
    "rooms": "1室1厅",
    "direction": "北",
    "floor": "",
    "price": "2888",
    "tags": "",
    "source": "",
    "url": "https://sh.lianjia.com/zufang/SH2152621232711794688.html",
    "rent_type": "整租",
    "location": "浦东-曹路-浦东中惠棠里",
    "scraped_at": "2026-04-23 00:23:16",
    "region": "caolu",
    "unit_price": 90.8,
    "lat": 31.287526,
    "lng": 121.671897
  },
  {
    "title": "整租·万科第五园 5室2厅 复式 南",
    "community": "万科第五园",
    "area": "546.28",
    "rooms": "5室2厅",
    "direction": "",
    "floor": "",
    "price": "36000",
    "tags": "",
    "source": "",
    "url": "https://sh.lianjia.com/zufang/SH2150616226194259968.html",
    "rent_type": "整租",
    "location": "浦东-曹路-万科第五园",
    "scraped_at": "2026-04-23 00:23:16",
    "region": "caolu",
    "unit_price": 65.9,
    "lat": 31.269509,
    "lng": 121.670186
  },
  {
    "title": "整租·银丰苑 1室1厅 南",
    "community": "银丰苑",
    "area": "55.35",
    "rooms": "1室1厅",
    "direction": "南",
    "floor": "",
    "price": "4100",
    "tags": "",
    "source": "",
    "url": "https://sh.lianjia.com/zufang/SH2152731023429861376.html",
    "rent_type": "整租",
    "location": "浦东-曹路-银丰苑",
    "scraped_at": "2026-04-23 00:23:16",
    "region": "caolu",
    "unit_price": 74.1,
    "lat": 31.265502,
    "lng": 121.686326
  },
  {
    "title": "独栋·摩都里公寓 金海路店 地铁口精装特惠一室户 实习生优选 开间",
    "community": "摩都里公寓 金海路店",
    "area": "25.00",
    "rooms": "",
    "direction": "",
    "floor": "",
    "price": "2384-2503",
    "tags": "",
    "source": "",
    "url": "https://sh.lianjia.com/apartment/105521.html",
    "rent_type": "独栋",
    "location": "",
    "scraped_at": "2026-04-23 00:23:21",
    "region": "caolu",
    "unit_price": "",
    "lat": 31.13981,
    "lng": 121.325676
  },
  {
    "title": "整租·金钻苑北区 2室1厅 南",
    "community": "金钻苑北区",
    "area": "83.00",
    "rooms": "2室1厅",
    "direction": "南",
    "floor": "",
    "price": "5800",
    "tags": "",
    "source": "",
    "url": "https://sh.lianjia.com/zufang/SH2144397815709696000.html",
    "rent_type": "整租",
    "location": "浦东-曹路-金钻苑北区",
    "scraped_at": "2026-04-23 00:23:16",
    "region": "caolu",
    "unit_price": 69.9,
    "lat": 31.27869,
    "lng": 121.680429
  },
  {
    "title": "独栋·浦江智汇青创园 民雷路店 豪华一室一厅朝西，近地铁9号民雷路 1室1厅",
    "community": "浦江智汇青创园 民雷路店",
    "area": "42.00",
    "rooms": "1室1厅",
    "direction": "",
    "floor": "",
    "price": "2610",
    "tags": "",
    "source": "",
    "url": "https://sh.lianjia.com/apartment/18471.html",
    "rent_type": "独栋",
    "location": "",
    "scraped_at": "2026-04-23 00:23:30",
    "region": "caolu",
    "unit_price": 62.1,
    "lat": null,
    "lng": null
  },
  {
    "title": "整租·龚华新村 1室1厅 南",
    "community": "龚华新村",
    "area": "42.73",
    "rooms": "1室1厅",
    "direction": "南",
    "floor": "",
    "price": "3300",
    "tags": "",
    "source": "",
    "url": "https://sh.lianjia.com/zufang/SH2146233106841993216.html",
    "rent_type": "整租",
    "location": "浦东-曹路-龚华新村",
    "scraped_at": "2026-04-23 00:23:16",
    "region": "caolu",
    "unit_price": 77.2,
    "lat": 31.261262,
    "lng": 121.687408
  },
  {
    "title": "整租·佳伟景苑 1室1厅 南",
    "community": "佳伟景苑",
    "area": "53.29",
    "rooms": "1室1厅",
    "direction": "南",
    "floor": "",
    "price": "3600",
    "tags": "",
    "source": "",
    "url": "https://sh.lianjia.com/zufang/SH2148422575644999680.html",
    "rent_type": "整租",
    "location": "浦东-曹路-佳伟景苑",
    "scraped_at": "2026-04-23 00:23:16",
    "region": "caolu",
    "unit_price": 67.6,
    "lat": 31.284163,
    "lng": 121.676653
  },
  {
    "title": "整租·星晓家园 1室1厅 南",
    "community": "星晓家园",
    "area": "53.58",
    "rooms": "1室1厅",
    "direction": "南",
    "floor": "",
    "price": "3900",
    "tags": "",
    "source": "",
    "url": "https://sh.lianjia.com/zufang/SH2157762820089839616.html",
    "rent_type": "整租",
    "location": "浦东-曹路-星晓家园",
    "scraped_at": "2026-04-23 00:23:16",
    "region": "caolu",
    "unit_price": 72.8,
    "lat": 31.277358,
    "lng": 121.674749
  },
  {
    "title": "独栋·静雅公寓 川沙路店 朝南大复式 一室一厅 独厨独卫 拎包入住宠物友好 1室1厅",
    "community": "静雅公寓 川沙路店 朝南大复式",
    "area": "46.00",
    "rooms": "1室1厅",
    "direction": "",
    "floor": "",
    "price": "2050-2200",
    "tags": "",
    "source": "",
    "url": "https://sh.lianjia.com/apartment/88638.html",
    "rent_type": "独栋",
    "location": "",
    "scraped_at": "2026-04-23 00:23:21",
    "region": "caolu",
    "unit_price": "",
    "lat": 31.23309,
    "lng": 121.68263
  },
  {
    "title": "整租·金海华城恒裕嘉园 2室2厅 南",
    "community": "金海华城恒裕嘉园",
    "area": "78.00",
    "rooms": "2室2厅",
    "direction": "南",
    "floor": "",
    "price": "3900",
    "tags": "",
    "source": "",
    "url": "https://sh.lianjia.com/zufang/SH1610570064694607872.html",
    "rent_type": "整租",
    "location": "浦东-曹路-金海华城恒裕嘉园",
    "scraped_at": "2026-04-23 00:23:16",
    "region": "caolu",
    "unit_price": 50.0,
    "lat": 31.256097,
    "lng": 121.693514
  },
  {
    "title": "独栋·浦峻澜庭 金海湾店 温馨loft丨最高可享30天免租期丨 世纪大道、金桥通勤丨免费早餐丨无中介费、服务费 1室1厅",
    "community": "浦峻澜庭 金海湾店",
    "area": "33.00",
    "rooms": "1室1厅",
    "direction": "",
    "floor": "",
    "price": "3198",
    "tags": "",
    "source": "",
    "url": "https://sh.lianjia.com/apartment/85062.html",
    "rent_type": "独栋",
    "location": "",
    "scraped_at": "2026-04-23 00:23:18",
    "region": "caolu",
    "unit_price": 96.9,
    "lat": 31.117814,
    "lng": 121.581575
  },
  {
    "title": "整租·金群苑北区 1室1厅 南",
    "community": "金群苑北区",
    "area": "54.00",
    "rooms": "1室1厅",
    "direction": "南",
    "floor": "",
    "price": "3400",
    "tags": "",
    "source": "",
    "url": "https://sh.lianjia.com/zufang/SH2019037461895708672.html",
    "rent_type": "整租",
    "location": "浦东-曹路-金群苑北区",
    "scraped_at": "2026-04-23 00:23:16",
    "region": "caolu",
    "unit_price": 63.0,
    "lat": 31.28799,
    "lng": 121.66922
  },
  {
    "title": "整租·金海华城丰硕茗苑 2室0厅 南",
    "community": "金海华城丰硕茗苑",
    "area": "54.31",
    "rooms": "2室0厅",
    "direction": "南",
    "floor": "",
    "price": "3600",
    "tags": "",
    "source": "",
    "url": "https://sh.lianjia.com/zufang/SH2156747865022529536.html",
    "rent_type": "整租",
    "location": "浦东-曹路-金海华城丰硕茗苑",
    "scraped_at": "2026-04-23 00:23:16",
    "region": "caolu",
    "unit_price": 66.3,
    "lat": 31.258021,
    "lng": 121.693843
  },
  {
    "title": "整租·盛世春晓苑 2室1厅 南",
    "community": "盛世春晓苑",
    "area": "78.80",
    "rooms": "2室1厅",
    "direction": "南",
    "floor": "",
    "price": "4600",
    "tags": "",
    "source": "",
    "url": "https://sh.lianjia.com/zufang/SH2154441674590257152.html",
    "rent_type": "整租",
    "location": "浦东-曹路-盛世春晓苑",
    "scraped_at": "2026-04-23 00:23:16",
    "region": "caolu",
    "unit_price": 58.4,
    "lat": 31.276725,
    "lng": 121.664414
  },
  {
    "title": "整租·金钻苑南区 2室2厅 南",
    "community": "金钻苑南区",
    "area": "82.03",
    "rooms": "2室2厅",
    "direction": "南",
    "floor": "",
    "price": "4850",
    "tags": "",
    "source": "",
    "url": "https://sh.lianjia.com/zufang/SH2155962560296255488.html",
    "rent_type": "整租",
    "location": "浦东-曹路-金钻苑南区",
    "scraped_at": "2026-04-23 00:23:16",
    "region": "caolu",
    "unit_price": 59.1,
    "lat": 31.276308,
    "lng": 121.684201
  },
  {
    "title": "独栋·曹路职工之家 上川路店 户型A 1室1厅",
    "community": "曹路职工之家 上川路店 户型A",
    "area": "32.00",
    "rooms": "1室1厅",
    "direction": "",
    "floor": "",
    "price": "2400",
    "tags": "",
    "source": "",
    "url": "https://sh.lianjia.com/apartment/107299.html",
    "rent_type": "独栋",
    "location": "",
    "scraped_at": "2026-04-23 00:23:16",
    "region": "caolu",
    "unit_price": 75.0,
    "lat": 31.068271,
    "lng": 121.325598
  },
  {
    "title": "整租·金海华城福民佳苑 1室1厅 南",
    "community": "金海华城福民佳苑",
    "area": "55.00",
    "rooms": "1室1厅",
    "direction": "南",
    "floor": "",
    "price": "4500",
    "tags": "",
    "source": "",
    "url": "https://sh.lianjia.com/zufang/SH2154089106273992704.html",
    "rent_type": "整租",
    "location": "浦东-曹路-金海华城福民佳苑",
    "scraped_at": "2026-04-23 00:23:16",
    "region": "caolu",
    "unit_price": 81.8,
    "lat": 31.265159,
    "lng": 121.682386
  },
  {
    "title": "整租·星海家园 3室1厅 南",
    "community": "星海家园",
    "area": "83.48",
    "rooms": "3室1厅",
    "direction": "南",
    "floor": "",
    "price": "5000",
    "tags": "",
    "source": "",
    "url": "https://sh.lianjia.com/zufang/SH2154059696632233984.html",
    "rent_type": "整租",
    "location": "浦东-曹路-星海家园",
    "scraped_at": "2026-04-23 00:23:16",
    "region": "caolu",
    "unit_price": 59.9,
    "lat": 31.282712,
    "lng": 121.678706
  },
  {
    "title": "整租·丰舍东苑 1室1厅 南",
    "community": "丰舍东苑",
    "area": "51.00",
    "rooms": "1室1厅",
    "direction": "南",
    "floor": "",
    "price": "3700",
    "tags": "",
    "source": "",
    "url": "https://sh.lianjia.com/zufang/SH2157043140429611008.html",
    "rent_type": "整租",
    "location": "浦东-曹路-丰舍东苑",
    "scraped_at": "2026-04-23 00:23:16",
    "region": "caolu",
    "unit_price": 72.5,
    "lat": 31.275279,
    "lng": 121.667415
  },
  {
    "title": "独栋·轩椰社区 春耘路店 9号线地铁口二百米 温馨一居 独厨独卫 24小时安保 1室1厅",
    "community": "轩椰社区 春耘路店",
    "area": "35.00",
    "rooms": "1室1厅",
    "direction": "",
    "floor": "",
    "price": "2300-2500",
    "tags": "",
    "source": "",
    "url": "https://sh.lianjia.com/apartment/83481.html",
    "rent_type": "独栋",
    "location": "",
    "scraped_at": "2026-04-23 00:23:18",
    "region": "caolu",
    "unit_price": "",
    "lat": 31.213533,
    "lng": 121.440064
  },
  {
    "title": "整租·星海家园 2室1厅 南",
    "community": "星海家园",
    "area": "53.59",
    "rooms": "2室1厅",
    "direction": "南",
    "floor": "",
    "price": "3744",
    "tags": "",
    "source": "",
    "url": "https://sh.lianjia.com/zufang/SH1980301232262086656.html",
    "rent_type": "整租",
    "location": "浦东-曹路-星海家园",
    "scraped_at": "2026-04-23 00:23:16",
    "region": "caolu",
    "unit_price": 69.9,
    "lat": 31.282712,
    "lng": 121.678706
  },
  {
    "title": "独栋·轩椰社区 民雷路地铁站店 九号线地铁口 独厨独卫 24小时安保服务 专属售后管家 1室1厅",
    "community": "轩椰社区 民雷路地铁站店",
    "area": "36.00",
    "rooms": "1室1厅",
    "direction": "",
    "floor": "",
    "price": "2300-2500",
    "tags": "",
    "source": "",
    "url": "https://sh.lianjia.com/apartment/83889.html",
    "rent_type": "独栋",
    "location": "",
    "scraped_at": "2026-04-23 00:23:18",
    "region": "caolu",
    "unit_price": "",
    "lat": 31.270141,
    "lng": 121.668734
  },
  {
    "title": "整租·银丰苑 1室1厅 南",
    "community": "银丰苑",
    "area": "55.00",
    "rooms": "1室1厅",
    "direction": "南",
    "floor": "",
    "price": "4000",
    "tags": "",
    "source": "",
    "url": "https://sh.lianjia.com/zufang/SH2154198206269882368.html",
    "rent_type": "整租",
    "location": "浦东-曹路-银丰苑",
    "scraped_at": "2026-04-23 00:23:16",
    "region": "caolu",
    "unit_price": 72.7,
    "lat": 31.265502,
    "lng": 121.686326
  },
  {
    "title": "整租·河滨城市花园 2室2厅 南",
    "community": "河滨城市花园",
    "area": "92.96",
    "rooms": "2室2厅",
    "direction": "南",
    "floor": "",
    "price": "6500",
    "tags": "",
    "source": "",
    "url": "https://sh.lianjia.com/zufang/SH2154816574324736000.html",
    "rent_type": "整租",
    "location": "浦东-曹路-河滨城市花园",
    "scraped_at": "2026-04-23 00:23:16",
    "region": "caolu",
    "unit_price": 69.9,
    "lat": 31.261542,
    "lng": 121.654647
  },
  {
    "title": "整租·海尚东苑 2室1厅 南",
    "community": "海尚东苑",
    "area": "80.00",
    "rooms": "2室1厅",
    "direction": "南",
    "floor": "",
    "price": "5000",
    "tags": "",
    "source": "",
    "url": "https://sh.lianjia.com/zufang/SH2156037235563036672.html",
    "rent_type": "整租",
    "location": "浦东-曹路-海尚东苑",
    "scraped_at": "2026-04-23 00:23:16",
    "region": "caolu",
    "unit_price": 62.5,
    "lat": 31.287207,
    "lng": 121.675231
  },
  {
    "title": "整租·星颂家园 1室1厅 南",
    "community": "星颂家园",
    "area": "54.00",
    "rooms": "1室1厅",
    "direction": "南",
    "floor": "",
    "price": "4300",
    "tags": "",
    "source": "",
    "url": "https://sh.lianjia.com/zufang/SH2152252705203027968.html",
    "rent_type": "整租",
    "location": "浦东-曹路-星颂家园",
    "scraped_at": "2026-04-23 00:23:16",
    "region": "caolu",
    "unit_price": 79.6,
    "lat": 31.27474,
    "lng": 121.67602
  },
  {
    "title": "独栋·超煜文创园 川沙路店 精装独卫一室户公寓直租无中介费 开间",
    "community": "超煜文创园 川沙路店",
    "area": "15.00",
    "rooms": "",
    "direction": "",
    "floor": "",
    "price": "1400-1500",
    "tags": "",
    "source": "",
    "url": "https://sh.lianjia.com/apartment/88848.html",
    "rent_type": "独栋",
    "location": "",
    "scraped_at": "2026-04-23 00:23:21",
    "region": "caolu",
    "unit_price": "",
    "lat": 31.271384,
    "lng": 121.67306
  },
  {
    "title": "整租·龚华新村 2室1厅 南",
    "community": "龚华新村",
    "area": "66.00",
    "rooms": "2室1厅",
    "direction": "南",
    "floor": "",
    "price": "4100",
    "tags": "",
    "source": "",
    "url": "https://sh.lianjia.com/zufang/SH1928678441981313024.html",
    "rent_type": "整租",
    "location": "浦东-曹路-龚华新村",
    "scraped_at": "2026-04-23 00:23:18",
    "region": "caolu",
    "unit_price": 62.1,
    "lat": 31.261262,
    "lng": 121.687408
  },
  {
    "title": "整租·金海华城佳洁景苑 3室0厅 南",
    "community": "金海华城佳洁景苑",
    "area": "78.00",
    "rooms": "3室0厅",
    "direction": "南",
    "floor": "",
    "price": "4300",
    "tags": "",
    "source": "",
    "url": "https://sh.lianjia.com/zufang/SH2156350070381871104.html",
    "rent_type": "整租",
    "location": "浦东-曹路-金海华城佳洁景苑",
    "scraped_at": "2026-04-23 00:23:18",
    "region": "caolu",
    "unit_price": 55.1,
    "lat": 31.25574,
    "lng": 121.689767
  },
  {
    "title": "整租·悦天地 2室1厅 南",
    "community": "悦天地",
    "area": "51.00",
    "rooms": "2室1厅",
    "direction": "南",
    "floor": "",
    "price": "3885",
    "tags": "",
    "source": "",
    "url": "https://sh.lianjia.com/zufang/SH2017942496163659776.html",
    "rent_type": "整租",
    "location": "浦东-曹路-悦天地",
    "scraped_at": "2026-04-23 00:23:18",
    "region": "caolu",
    "unit_price": 76.2,
    "lat": 31.272678,
    "lng": 121.672932
  },
  {
    "title": "整租·阳光苑民同路10弄40弄 1室1厅 南",
    "community": "阳光苑民同路10弄40弄",
    "area": "47.50",
    "rooms": "1室1厅",
    "direction": "南",
    "floor": "",
    "price": "3700",
    "tags": "",
    "source": "",
    "url": "https://sh.lianjia.com/zufang/SH2151588539811233792.html",
    "rent_type": "整租",
    "location": "浦东-曹路-阳光苑民同路",
    "scraped_at": "2026-04-23 00:23:18",
    "region": "caolu",
    "unit_price": 77.9,
    "lat": null,
    "lng": null
  },
  {
    "title": "整租·星纳家园 1室1厅 南",
    "community": "星纳家园",
    "area": "52.72",
    "rooms": "1室1厅",
    "direction": "南",
    "floor": "",
    "price": "4000",
    "tags": "",
    "source": "",
    "url": "https://sh.lianjia.com/zufang/SH2156981790558912512.html",
    "rent_type": "整租",
    "location": "浦东-曹路-星纳家园",
    "scraped_at": "2026-04-23 00:23:18",
    "region": "caolu",
    "unit_price": 75.9,
    "lat": 31.292749,
    "lng": 121.670498
  },
  {
    "title": "整租·金钻苑南区 2室1厅 南",
    "community": "金钻苑南区",
    "area": "82.00",
    "rooms": "2室1厅",
    "direction": "南",
    "floor": "",
    "price": "5000",
    "tags": "",
    "source": "",
    "url": "https://sh.lianjia.com/zufang/SH2156006537611444224.html",
    "rent_type": "整租",
    "location": "浦东-曹路-金钻苑南区",
    "scraped_at": "2026-04-23 00:23:18",
    "region": "caolu",
    "unit_price": 61.0,
    "lat": 31.276308,
    "lng": 121.684201
  },
  {
    "title": "整租·爱法花园(一期) 2室2厅 南",
    "community": "爱法花园(一期)",
    "area": "87.00",
    "rooms": "2室2厅",
    "direction": "南",
    "floor": "",
    "price": "4725",
    "tags": "",
    "source": "",
    "url": "https://sh.lianjia.com/zufang/SH2029781917376708608.html",
    "rent_type": "整租",
    "location": "浦东-曹路-爱法花园(一期)",
    "scraped_at": "2026-04-23 00:23:18",
    "region": "caolu",
    "unit_price": 54.3,
    "lat": 31.272261,
    "lng": 121.658153
  },
  {
    "title": "整租·中虹家园 1室1厅 南",
    "community": "中虹家园",
    "area": "51.48",
    "rooms": "1室1厅",
    "direction": "南",
    "floor": "",
    "price": "3600",
    "tags": "",
    "source": "",
    "url": "https://sh.lianjia.com/zufang/SH2574529358840463360.html",
    "rent_type": "整租",
    "location": "浦东-曹路-中虹家园",
    "scraped_at": "2026-04-23 00:23:18",
    "region": "caolu",
    "unit_price": 69.9,
    "lat": 31.28274,
    "lng": 121.672473
  },
  {
    "title": "整租·金海华城华康佳苑 1室1厅 南/北",
    "community": "金海华城华康佳苑",
    "area": "58.00",
    "rooms": "1室1厅",
    "direction": "南/北",
    "floor": "",
    "price": "4200",
    "tags": "",
    "source": "",
    "url": "https://sh.lianjia.com/zufang/SH2152641043537854464.html",
    "rent_type": "整租",
    "location": "浦东-曹路-金海华城华康佳苑",
    "scraped_at": "2026-04-23 00:23:18",
    "region": "caolu",
    "unit_price": 72.4,
    "lat": 31.265963,
    "lng": 121.691236
  },
  {
    "title": "整租·金海华城永华苑 3室1厅 南",
    "community": "金海华城永华苑",
    "area": "84.00",
    "rooms": "3室1厅",
    "direction": "南",
    "floor": "",
    "price": "4900",
    "tags": "",
    "source": "",
    "url": "https://sh.lianjia.com/zufang/SH2151633880627544064.html",
    "rent_type": "整租",
    "location": "浦东-曹路-金海华城永华苑",
    "scraped_at": "2026-04-23 00:23:18",
    "region": "caolu",
    "unit_price": 58.3,
    "lat": 31.270728,
    "lng": 121.683735
  },
  {
    "title": "整租·舜峰家苑 1室1厅 南",
    "community": "舜峰家苑",
    "area": "56.00",
    "rooms": "1室1厅",
    "direction": "南",
    "floor": "",
    "price": "3600",
    "tags": "",
    "source": "",
    "url": "https://sh.lianjia.com/zufang/SH2064567808619970560.html",
    "rent_type": "整租",
    "location": "浦东-曹路-舜峰家苑",
    "scraped_at": "2026-04-23 00:23:18",
    "region": "caolu",
    "unit_price": 64.3,
    "lat": 31.290641,
    "lng": 121.673299
  },
  {
    "title": "整租·佩玛山丘 2室1厅 南",
    "community": "佩玛山丘",
    "area": "94.40",
    "rooms": "2室1厅",
    "direction": "南",
    "floor": "",
    "price": "8600",
    "tags": "",
    "source": "",
    "url": "https://sh.lianjia.com/zufang/SH2148795067404386304.html",
    "rent_type": "整租",
    "location": "浦东-曹路-佩玛山丘",
    "scraped_at": "2026-04-23 00:23:18",
    "region": "caolu",
    "unit_price": 91.1,
    "lat": 31.274473,
    "lng": 121.657608
  },
  {
    "title": "整租·民风小区 2室1厅 南",
    "community": "民风小区",
    "area": "88.33",
    "rooms": "2室1厅",
    "direction": "南",
    "floor": "",
    "price": "4400",
    "tags": "",
    "source": "",
    "url": "https://sh.lianjia.com/zufang/SH1918861391171682304.html",
    "rent_type": "整租",
    "location": "浦东-曹路-民风小区",
    "scraped_at": "2026-04-23 00:23:18",
    "region": "caolu",
    "unit_price": 49.8,
    "lat": 31.278932,
    "lng": 121.665758
  },
  {
    "title": "整租·盛世春晓苑 2室1厅 南",
    "community": "盛世春晓苑",
    "area": "76.00",
    "rooms": "2室1厅",
    "direction": "南",
    "floor": "",
    "price": "4500",
    "tags": "",
    "source": "",
    "url": "https://sh.lianjia.com/zufang/SH2155635298459975680.html",
    "rent_type": "整租",
    "location": "浦东-曹路-盛世春晓苑",
    "scraped_at": "2026-04-23 00:23:18",
    "region": "caolu",
    "unit_price": 59.2,
    "lat": 31.276725,
    "lng": 121.664414
  },
  {
    "title": "整租·民胜苑 1室1厅 南",
    "community": "民胜苑",
    "area": "50.06",
    "rooms": "1室1厅",
    "direction": "南",
    "floor": "",
    "price": "3780",
    "tags": "",
    "source": "",
    "url": "https://sh.lianjia.com/zufang/SH2155956453272190976.html",
    "rent_type": "整租",
    "location": "浦东-曹路-民胜苑",
    "scraped_at": "2026-04-23 00:23:18",
    "region": "caolu",
    "unit_price": 75.5,
    "lat": 31.269934,
    "lng": 121.653011
  },
  {
    "title": "整租·金群苑南区 2室1厅 南",
    "community": "金群苑南区",
    "area": "54.00",
    "rooms": "2室1厅",
    "direction": "南",
    "floor": "",
    "price": "3200",
    "tags": "",
    "source": "",
    "url": "https://sh.lianjia.com/zufang/SH1976677553192042496.html",
    "rent_type": "整租",
    "location": "浦东-曹路-金群苑南区",
    "scraped_at": "2026-04-23 00:23:18",
    "region": "caolu",
    "unit_price": 59.3,
    "lat": 31.284977,
    "lng": 121.669482
  },
  {
    "title": "整租·金海华城悦虹雅苑 1室1厅 南",
    "community": "金海华城悦虹雅苑",
    "area": "55.00",
    "rooms": "1室1厅",
    "direction": "南",
    "floor": "",
    "price": "3700",
    "tags": "",
    "source": "",
    "url": "https://sh.lianjia.com/zufang/SH2155604875549868032.html",
    "rent_type": "整租",
    "location": "浦东-曹路-金海华城悦虹雅苑",
    "scraped_at": "2026-04-23 00:23:18",
    "region": "caolu",
    "unit_price": 67.3,
    "lat": 31.287274,
    "lng": 121.678447
  },
  {
    "title": "整租·银丰苑 2室1厅 南",
    "community": "银丰苑",
    "area": "52.79",
    "rooms": "2室1厅",
    "direction": "南",
    "floor": "",
    "price": "4300",
    "tags": "",
    "source": "",
    "url": "https://sh.lianjia.com/zufang/SH2103396630483959808.html",
    "rent_type": "整租",
    "location": "浦东-曹路-银丰苑",
    "scraped_at": "2026-04-23 00:23:18",
    "region": "caolu",
    "unit_price": 81.5,
    "lat": 31.265502,
    "lng": 121.686326
  },
  {
    "title": "整租·金钻苑南区 2室2厅 南/北",
    "community": "金钻苑南区",
    "area": "81.25",
    "rooms": "2室2厅",
    "direction": "南/北",
    "floor": "",
    "price": "5000",
    "tags": "",
    "source": "",
    "url": "https://sh.lianjia.com/zufang/SH2144377743570108416.html",
    "rent_type": "整租",
    "location": "浦东-曹路-金钻苑南区",
    "scraped_at": "2026-04-23 00:23:18",
    "region": "caolu",
    "unit_price": 61.5,
    "lat": 31.276308,
    "lng": 121.684201
  },
  {
    "title": "整租·爱法花园(一期) 3室1厅 南",
    "community": "爱法花园(一期)",
    "area": "87.84",
    "rooms": "3室1厅",
    "direction": "南",
    "floor": "",
    "price": "5500",
    "tags": "",
    "source": "",
    "url": "https://sh.lianjia.com/zufang/SH2151524661848965120.html",
    "rent_type": "整租",
    "location": "浦东-曹路-爱法花园(一期)",
    "scraped_at": "2026-04-23 00:23:18",
    "region": "caolu",
    "unit_price": 62.6,
    "lat": 31.272261,
    "lng": 121.658153
  },
  {
    "title": "整租·佳伟景苑 2室1厅 南",
    "community": "佳伟景苑",
    "area": "54.00",
    "rooms": "2室1厅",
    "direction": "南",
    "floor": "",
    "price": "3650",
    "tags": "",
    "source": "",
    "url": "https://sh.lianjia.com/zufang/SH2143939924762558464.html",
    "rent_type": "整租",
    "location": "浦东-曹路-佳伟景苑",
    "scraped_at": "2026-04-23 00:23:21",
    "region": "caolu",
    "unit_price": 67.6,
    "lat": 31.284163,
    "lng": 121.676653
  },
  {
    "title": "整租·金海华城华康佳苑 3室1厅 南",
    "community": "金海华城华康佳苑",
    "area": "100.00",
    "rooms": "3室1厅",
    "direction": "南",
    "floor": "",
    "price": "7100",
    "tags": "",
    "source": "",
    "url": "https://sh.lianjia.com/zufang/SH2116044471677222912.html",
    "rent_type": "整租",
    "location": "浦东-曹路-金海华城华康佳苑",
    "scraped_at": "2026-04-23 00:23:21",
    "region": "caolu",
    "unit_price": 71.0,
    "lat": 31.265963,
    "lng": 121.691236
  },
  {
    "title": "整租·河滨城市花园 2室1厅 南",
    "community": "河滨城市花园",
    "area": "86.00",
    "rooms": "2室1厅",
    "direction": "南",
    "floor": "",
    "price": "6300",
    "tags": "",
    "source": "",
    "url": "https://sh.lianjia.com/zufang/SH1862313581576454144.html",
    "rent_type": "整租",
    "location": "浦东-曹路-河滨城市花园",
    "scraped_at": "2026-04-23 00:23:21",
    "region": "caolu",
    "unit_price": 73.3,
    "lat": 31.261542,
    "lng": 121.654647
  },
  {
    "title": "整租·星颂家园 2室2厅 南",
    "community": "星颂家园",
    "area": "69.00",
    "rooms": "2室2厅",
    "direction": "南",
    "floor": "",
    "price": "4264",
    "tags": "",
    "source": "",
    "url": "https://sh.lianjia.com/zufang/SH1999734501927813120.html",
    "rent_type": "整租",
    "location": "浦东-曹路-星颂家园",
    "scraped_at": "2026-04-23 00:23:21",
    "region": "caolu",
    "unit_price": 61.8,
    "lat": 31.27474,
    "lng": 121.67602
  },
  {
    "title": "整租·佳伟景苑 2室1厅 南",
    "community": "佳伟景苑",
    "area": "54.00",
    "rooms": "2室1厅",
    "direction": "南",
    "floor": "",
    "price": "3950",
    "tags": "",
    "source": "",
    "url": "https://sh.lianjia.com/zufang/SH2154525574553403392.html",
    "rent_type": "整租",
    "location": "浦东-曹路-佳伟景苑",
    "scraped_at": "2026-04-23 00:23:21",
    "region": "caolu",
    "unit_price": 73.1,
    "lat": 31.284163,
    "lng": 121.676653
  },
  {
    "title": "整租·河滨城市花园 3室2厅 南/北",
    "community": "河滨城市花园",
    "area": "114.63",
    "rooms": "3室2厅",
    "direction": "南/北",
    "floor": "",
    "price": "7800",
    "tags": "",
    "source": "",
    "url": "https://sh.lianjia.com/zufang/SH2151537960997093376.html",
    "rent_type": "整租",
    "location": "浦东-曹路-河滨城市花园",
    "scraped_at": "2026-04-23 00:23:21",
    "region": "caolu",
    "unit_price": 68.0,
    "lat": 31.261542,
    "lng": 121.654647
  },
  {
    "title": "整租·银丰苑 1室1厅 南",
    "community": "银丰苑",
    "area": "55.35",
    "rooms": "1室1厅",
    "direction": "南",
    "floor": "",
    "price": "3675",
    "tags": "",
    "source": "",
    "url": "https://sh.lianjia.com/zufang/SH2154577552465723392.html",
    "rent_type": "整租",
    "location": "浦东-曹路-银丰苑",
    "scraped_at": "2026-04-23 00:23:21",
    "region": "caolu",
    "unit_price": 66.4,
    "lat": 31.265502,
    "lng": 121.686326
  },
  {
    "title": "整租·金钻苑南区 2室1厅 南",
    "community": "金钻苑南区",
    "area": "51.20",
    "rooms": "2室1厅",
    "direction": "南",
    "floor": "",
    "price": "3400",
    "tags": "",
    "source": "",
    "url": "https://sh.lianjia.com/zufang/SH2032419306922311680.html",
    "rent_type": "整租",
    "location": "浦东-曹路-金钻苑南区",
    "scraped_at": "2026-04-23 00:23:21",
    "region": "caolu",
    "unit_price": 66.4,
    "lat": 31.276308,
    "lng": 121.684201
  },
  {
    "title": "整租·金海华城悦虹雅苑 2室1厅 南/北",
    "community": "金海华城悦虹雅苑",
    "area": "69.63",
    "rooms": "2室1厅",
    "direction": "南/北",
    "floor": "",
    "price": "4000",
    "tags": "",
    "source": "",
    "url": "https://sh.lianjia.com/zufang/SH2152784544149798912.html",
    "rent_type": "整租",
    "location": "浦东-曹路-金海华城悦虹雅苑",
    "scraped_at": "2026-04-23 00:23:21",
    "region": "caolu",
    "unit_price": 57.4,
    "lat": 31.287274,
    "lng": 121.678447
  },
  {
    "title": "独栋·摩都里实业 金海路店 9号线地铁口 精装阳光大复试 房源紧张 可月付 领包入住 1室1厅",
    "community": "摩都里实业 金海路店",
    "area": "60.00",
    "rooms": "1室1厅",
    "direction": "",
    "floor": "",
    "price": "3666",
    "tags": "",
    "source": "",
    "url": "https://sh.lianjia.com/apartment/105939.html",
    "rent_type": "独栋",
    "location": "",
    "scraped_at": "2026-04-23 00:23:27",
    "region": "caolu",
    "unit_price": 61.1,
    "lat": 31.265393,
    "lng": 121.658636
  },
  {
    "title": "整租·金群苑南区 2室1厅 南",
    "community": "金群苑南区",
    "area": "75.00",
    "rooms": "2室1厅",
    "direction": "南",
    "floor": "",
    "price": "4200",
    "tags": "",
    "source": "",
    "url": "https://sh.lianjia.com/zufang/SH2067207427962437632.html",
    "rent_type": "整租",
    "location": "浦东-曹路-金群苑南区",
    "scraped_at": "2026-04-23 00:23:21",
    "region": "caolu",
    "unit_price": 56.0,
    "lat": 31.284977,
    "lng": 121.669482
  },
  {
    "title": "整租·金群苑南区 2室1厅 南",
    "community": "金群苑南区",
    "area": "78.00",
    "rooms": "2室1厅",
    "direction": "南",
    "floor": "",
    "price": "3800",
    "tags": "",
    "source": "",
    "url": "https://sh.lianjia.com/zufang/SH2074453599852691456.html",
    "rent_type": "整租",
    "location": "浦东-曹路-金群苑南区",
    "scraped_at": "2026-04-23 00:23:21",
    "region": "caolu",
    "unit_price": 48.7,
    "lat": 31.284977,
    "lng": 121.669482
  },
  {
    "title": "整租·星晓家园 3室1厅 南/北",
    "community": "星晓家园",
    "area": "114.00",
    "rooms": "3室1厅",
    "direction": "南/北",
    "floor": "",
    "price": "6300",
    "tags": "",
    "source": "",
    "url": "https://sh.lianjia.com/zufang/SH2152618693719228416.html",
    "rent_type": "整租",
    "location": "浦东-曹路-星晓家园",
    "scraped_at": "2026-04-23 00:23:21",
    "region": "caolu",
    "unit_price": 55.3,
    "lat": 31.277358,
    "lng": 121.674749
  },
  {
    "title": "整租·海尚东苑 1室1厅 南",
    "community": "海尚东苑",
    "area": "54.37",
    "rooms": "1室1厅",
    "direction": "南",
    "floor": "",
    "price": "3800",
    "tags": "",
    "source": "",
    "url": "https://sh.lianjia.com/zufang/SH2154833651915816960.html",
    "rent_type": "整租",
    "location": "浦东-曹路-海尚东苑",
    "scraped_at": "2026-04-23 00:23:21",
    "region": "caolu",
    "unit_price": 69.9,
    "lat": 31.287207,
    "lng": 121.675231
  },
  {
    "title": "整租·河滨城市花园 2室1厅 南",
    "community": "河滨城市花园",
    "area": "74.13",
    "rooms": "2室1厅",
    "direction": "南",
    "floor": "",
    "price": "5900",
    "tags": "",
    "source": "",
    "url": "https://sh.lianjia.com/zufang/SH2111021645954023424.html",
    "rent_type": "整租",
    "location": "浦东-曹路-河滨城市花园",
    "scraped_at": "2026-04-23 00:23:21",
    "region": "caolu",
    "unit_price": 79.6,
    "lat": 31.261542,
    "lng": 121.654647
  },
  {
    "title": "整租·金海华城悦虹雅苑 1室1厅 南",
    "community": "金海华城悦虹雅苑",
    "area": "54.00",
    "rooms": "1室1厅",
    "direction": "南",
    "floor": "",
    "price": "3600",
    "tags": "",
    "source": "",
    "url": "https://sh.lianjia.com/zufang/SH2145429497896239104.html",
    "rent_type": "整租",
    "location": "浦东-曹路-金海华城悦虹雅苑",
    "scraped_at": "2026-04-23 00:23:21",
    "region": "caolu",
    "unit_price": 66.7,
    "lat": 31.287274,
    "lng": 121.678447
  },
  {
    "title": "整租·万科第五园 5室3厅 南/北",
    "community": "万科第五园",
    "area": "266.26",
    "rooms": "5室3厅",
    "direction": "南/北",
    "floor": "",
    "price": "22000",
    "tags": "",
    "source": "",
    "url": "https://sh.lianjia.com/zufang/SH2124344408898797568.html",
    "rent_type": "整租",
    "location": "浦东-曹路-万科第五园",
    "scraped_at": "2026-04-23 00:23:21",
    "region": "caolu",
    "unit_price": 82.6,
    "lat": 31.269509,
    "lng": 121.670186
  },
  {
    "title": "整租·阳光苑民耀路268弄 1室1厅 南",
    "community": "阳光苑民耀路268弄",
    "area": "51.00",
    "rooms": "1室1厅",
    "direction": "南",
    "floor": "",
    "price": "4000",
    "tags": "",
    "source": "",
    "url": "https://sh.lianjia.com/zufang/SH2156315003802615808.html",
    "rent_type": "整租",
    "location": "浦东-曹路-阳光苑民耀路",
    "scraped_at": "2026-04-23 00:23:21",
    "region": "caolu",
    "unit_price": 78.4,
    "lat": 31.272902,
    "lng": 121.652748
  },
  {
    "title": "整租·星晓家园 3室2厅 南/北",
    "community": "星晓家园",
    "area": "109.00",
    "rooms": "3室2厅",
    "direction": "南/北",
    "floor": "",
    "price": "6200",
    "tags": "",
    "source": "",
    "url": "https://sh.lianjia.com/zufang/SH2155549954980970496.html",
    "rent_type": "整租",
    "location": "浦东-曹路-星晓家园",
    "scraped_at": "2026-04-23 00:23:21",
    "region": "caolu",
    "unit_price": 56.9,
    "lat": 31.277358,
    "lng": 121.674749
  },
  {
    "title": "整租·银丰苑 2室1厅 南",
    "community": "银丰苑",
    "area": "84.51",
    "rooms": "2室1厅",
    "direction": "南",
    "floor": "",
    "price": "3500",
    "tags": "",
    "source": "",
    "url": "https://sh.lianjia.com/zufang/SH2149414822599458816.html",
    "rent_type": "整租",
    "location": "浦东-曹路-银丰苑",
    "scraped_at": "2026-04-23 00:23:21",
    "region": "caolu",
    "unit_price": 41.4,
    "lat": 31.265502,
    "lng": 121.686326
  },
  {
    "title": "整租·爱法花园(二期) 2室1厅 南/北",
    "community": "爱法花园(二期)",
    "area": "70.74",
    "rooms": "2室1厅",
    "direction": "南/北",
    "floor": "",
    "price": "5500",
    "tags": "",
    "source": "",
    "url": "https://sh.lianjia.com/zufang/SH2141729296048193536.html",
    "rent_type": "整租",
    "location": "浦东-曹路-爱法花园(二期)",
    "scraped_at": "2026-04-23 00:23:21",
    "region": "caolu",
    "unit_price": 77.7,
    "lat": 31.270337,
    "lng": 121.655683
  },
  {
    "title": "整租·金钻苑北区 1室1厅 南",
    "community": "金钻苑北区",
    "area": "50.89",
    "rooms": "1室1厅",
    "direction": "南",
    "floor": "",
    "price": "4000",
    "tags": "",
    "source": "",
    "url": "https://sh.lianjia.com/zufang/SH2153109005914865664.html",
    "rent_type": "整租",
    "location": "浦东-曹路-金钻苑北区",
    "scraped_at": "2026-04-23 00:23:24",
    "region": "caolu",
    "unit_price": 78.6,
    "lat": 31.27869,
    "lng": 121.680429
  },
  {
    "title": "整租·民风小区 3室1厅 南",
    "community": "民风小区",
    "area": "111.54",
    "rooms": "3室1厅",
    "direction": "南",
    "floor": "",
    "price": "5000",
    "tags": "",
    "source": "",
    "url": "https://sh.lianjia.com/zufang/SH2150887420852174848.html",
    "rent_type": "整租",
    "location": "浦东-曹路-民风小区",
    "scraped_at": "2026-04-23 00:23:24",
    "region": "caolu",
    "unit_price": 44.8,
    "lat": 31.278932,
    "lng": 121.665758
  },
  {
    "title": "整租·金海华城恒裕嘉园 3室1厅 南",
    "community": "金海华城恒裕嘉园",
    "area": "96.55",
    "rooms": "3室1厅",
    "direction": "南",
    "floor": "",
    "price": "5000",
    "tags": "",
    "source": "",
    "url": "https://sh.lianjia.com/zufang/SH2151212134741049344.html",
    "rent_type": "整租",
    "location": "浦东-曹路-金海华城恒裕嘉园",
    "scraped_at": "2026-04-23 00:23:24",
    "region": "caolu",
    "unit_price": 51.8,
    "lat": 31.256097,
    "lng": 121.693514
  },
  {
    "title": "整租·金海华城恒裕嘉园 2室1厅 南",
    "community": "金海华城恒裕嘉园",
    "area": "77.19",
    "rooms": "2室1厅",
    "direction": "南",
    "floor": "",
    "price": "4200",
    "tags": "",
    "source": "",
    "url": "https://sh.lianjia.com/zufang/SH2157410921213853696.html",
    "rent_type": "整租",
    "location": "浦东-曹路-金海华城恒裕嘉园",
    "scraped_at": "2026-04-23 00:23:24",
    "region": "caolu",
    "unit_price": 54.4,
    "lat": 31.256097,
    "lng": 121.693514
  },
  {
    "title": "整租·民春苑 2室1厅 南",
    "community": "民春苑",
    "area": "80.00",
    "rooms": "2室1厅",
    "direction": "南",
    "floor": "",
    "price": "3500",
    "tags": "",
    "source": "",
    "url": "https://sh.lianjia.com/zufang/SH2157460633887440896.html",
    "rent_type": "整租",
    "location": "浦东-曹路-民春苑",
    "scraped_at": "2026-04-23 00:23:24",
    "region": "caolu",
    "unit_price": 43.8,
    "lat": 31.275381,
    "lng": 121.66504
  },
  {
    "title": "整租·爱法花园(一期) 1室2厅 南",
    "community": "爱法花园(一期)",
    "area": "65.00",
    "rooms": "1室2厅",
    "direction": "南",
    "floor": "",
    "price": "4000",
    "tags": "",
    "source": "",
    "url": "https://sh.lianjia.com/zufang/SH2154067434355556352.html",
    "rent_type": "整租",
    "location": "浦东-曹路-爱法花园(一期)",
    "scraped_at": "2026-04-23 00:23:24",
    "region": "caolu",
    "unit_price": 61.5,
    "lat": 31.272261,
    "lng": 121.658153
  },
  {
    "title": "整租·盛世春晓苑 1室1厅 南/北",
    "community": "盛世春晓苑",
    "area": "50.92",
    "rooms": "1室1厅",
    "direction": "南/北",
    "floor": "",
    "price": "3700",
    "tags": "",
    "source": "",
    "url": "https://sh.lianjia.com/zufang/SH2133824841344614400.html",
    "rent_type": "整租",
    "location": "浦东-曹路-盛世春晓苑",
    "scraped_at": "2026-04-23 00:23:24",
    "region": "caolu",
    "unit_price": 72.7,
    "lat": 31.276725,
    "lng": 121.664414
  },
  {
    "title": "独栋·露美家花园精品公寓 镇北路店 应届生特价/朝西独卫一居/近地铁400米/带阳台/一年起租 开间",
    "community": "露美家花园精品公寓 镇北路店",
    "area": "18.00",
    "rooms": "",
    "direction": "",
    "floor": "",
    "price": "2550",
    "tags": "",
    "source": "",
    "url": "https://sh.lianjia.com/apartment/87654.html",
    "rent_type": "独栋",
    "location": "",
    "scraped_at": "2026-04-23 00:23:27",
    "region": "caolu",
    "unit_price": 141.7,
    "lat": 31.135633,
    "lng": 121.404969
  },
  {
    "title": "整租·金海华城华康佳苑 2室1厅 南",
    "community": "金海华城华康佳苑",
    "area": "58.57",
    "rooms": "2室1厅",
    "direction": "南",
    "floor": "",
    "price": "4300",
    "tags": "",
    "source": "",
    "url": "https://sh.lianjia.com/zufang/SH2157393483860541440.html",
    "rent_type": "整租",
    "location": "浦东-曹路-金海华城华康佳苑",
    "scraped_at": "2026-04-23 00:23:24",
    "region": "caolu",
    "unit_price": 73.4,
    "lat": 31.265963,
    "lng": 121.691236
  },
  {
    "title": "独栋·露美家花园精品公寓 民雷路店 朝南带阳台 近地铁好房 近商圈 近上海长征医院 1室1厅",
    "community": "露美家花园精品公寓 民雷路店",
    "area": "30.00",
    "rooms": "1室1厅",
    "direction": "",
    "floor": "",
    "price": "3552",
    "tags": "",
    "source": "",
    "url": "https://sh.lianjia.com/apartment/87727.html",
    "rent_type": "独栋",
    "location": "",
    "scraped_at": "2026-04-23 00:23:33",
    "region": "caolu",
    "unit_price": 118.4,
    "lat": null,
    "lng": null
  },
  {
    "title": "整租·阳光苑民耀路97弄 2室1厅 跃层 南",
    "community": "阳光苑民耀路97弄",
    "area": "74.00",
    "rooms": "2室1厅",
    "direction": "",
    "floor": "",
    "price": "3500",
    "tags": "",
    "source": "",
    "url": "https://sh.lianjia.com/zufang/SH2146920567448535040.html",
    "rent_type": "整租",
    "location": "浦东-曹路-阳光苑民耀路",
    "scraped_at": "2026-04-23 00:23:24",
    "region": "caolu",
    "unit_price": 47.3,
    "lat": 31.272902,
    "lng": 121.652748
  },
  {
    "title": "独栋·轩椰公寓 轩椰公寓 地铁口大复试 房间大 采光好 价格优 1室1厅",
    "community": "轩椰公寓 轩椰公寓",
    "area": "60.00",
    "rooms": "1室1厅",
    "direction": "",
    "floor": "",
    "price": "2950",
    "tags": "",
    "source": "",
    "url": "https://sh.lianjia.com/apartment/87032.html",
    "rent_type": "独栋",
    "location": "",
    "scraped_at": "2026-04-23 00:23:33",
    "region": "caolu",
    "unit_price": 49.2,
    "lat": 31.30844,
    "lng": 121.518432
  },
  {
    "title": "整租·民风小区 2室1厅 南",
    "community": "民风小区",
    "area": "88.07",
    "rooms": "2室1厅",
    "direction": "南",
    "floor": "",
    "price": "4500",
    "tags": "",
    "source": "",
    "url": "https://sh.lianjia.com/zufang/SH2147654478415790080.html",
    "rent_type": "整租",
    "location": "浦东-曹路-民风小区",
    "scraped_at": "2026-04-23 00:23:24",
    "region": "caolu",
    "unit_price": 51.1,
    "lat": 31.278932,
    "lng": 121.665758
  },
  {
    "title": "整租·金群苑南区 3室1厅 南",
    "community": "金群苑南区",
    "area": "108.00",
    "rooms": "3室1厅",
    "direction": "南",
    "floor": "",
    "price": "5800",
    "tags": "",
    "source": "",
    "url": "https://sh.lianjia.com/zufang/SH2157011045292441600.html",
    "rent_type": "整租",
    "location": "浦东-曹路-金群苑南区",
    "scraped_at": "2026-04-23 00:23:24",
    "region": "caolu",
    "unit_price": 53.7,
    "lat": 31.284977,
    "lng": 121.669482
  },
  {
    "title": "整租·金海华城丰硕茗苑 1室1厅 南",
    "community": "金海华城丰硕茗苑",
    "area": "53.00",
    "rooms": "1室1厅",
    "direction": "南",
    "floor": "",
    "price": "3900",
    "tags": "",
    "source": "",
    "url": "https://sh.lianjia.com/zufang/SH2157445708393742336.html",
    "rent_type": "整租",
    "location": "浦东-曹路-金海华城丰硕茗苑",
    "scraped_at": "2026-04-23 00:23:24",
    "region": "caolu",
    "unit_price": 73.6,
    "lat": 31.258021,
    "lng": 121.693843
  },
  {
    "title": "独栋·露美家酒店式公寓 金泰广场店 九号线顾唐路地铁口/两室一厅/24小时安保，独居安心之选 2室1厅",
    "community": "露美家酒店式公寓 金泰广场店",
    "area": "40.00",
    "rooms": "2室1厅",
    "direction": "",
    "floor": "",
    "price": "4860",
    "tags": "",
    "source": "",
    "url": "https://sh.lianjia.com/apartment/87755.html",
    "rent_type": "独栋",
    "location": "",
    "scraped_at": "2026-04-23 00:23:27",
    "region": "caolu",
    "unit_price": 121.5,
    "lat": 31.17488,
    "lng": 121.3823
  },
  {
    "title": "整租·丰舍东苑 2室2厅 南/北",
    "community": "丰舍东苑",
    "area": "86.03",
    "rooms": "2室2厅",
    "direction": "南/北",
    "floor": "",
    "price": "4900",
    "tags": "",
    "source": "",
    "url": "https://sh.lianjia.com/zufang/SH2155310795271962624.html",
    "rent_type": "整租",
    "location": "浦东-曹路-丰舍东苑",
    "scraped_at": "2026-04-23 00:23:24",
    "region": "caolu",
    "unit_price": 57.0,
    "lat": 31.275279,
    "lng": 121.667415
  },
  {
    "title": "整租·阳光苑民同路10弄40弄 2室1厅 南/北",
    "community": "阳光苑民同路10弄40弄",
    "area": "57.70",
    "rooms": "2室1厅",
    "direction": "南/北",
    "floor": "",
    "price": "4200",
    "tags": "",
    "source": "",
    "url": "https://sh.lianjia.com/zufang/SH2154556386405515264.html",
    "rent_type": "整租",
    "location": "浦东-曹路-阳光苑民同路",
    "scraped_at": "2026-04-23 00:23:24",
    "region": "caolu",
    "unit_price": 72.8,
    "lat": null,
    "lng": null
  },
  {
    "title": "整租·金海华城恒裕嘉园 2室2厅 南",
    "community": "金海华城恒裕嘉园",
    "area": "78.18",
    "rooms": "2室2厅",
    "direction": "南",
    "floor": "",
    "price": "4800",
    "tags": "",
    "source": "",
    "url": "https://sh.lianjia.com/zufang/SH2157407984882286592.html",
    "rent_type": "整租",
    "location": "浦东-曹路-金海华城恒裕嘉园",
    "scraped_at": "2026-04-23 00:23:24",
    "region": "caolu",
    "unit_price": 61.4,
    "lat": 31.256097,
    "lng": 121.693514
  },
  {
    "title": "整租·星晓家园 2室1厅 南",
    "community": "星晓家园",
    "area": "83.00",
    "rooms": "2室1厅",
    "direction": "南",
    "floor": "",
    "price": "6200",
    "tags": "",
    "source": "",
    "url": "https://sh.lianjia.com/zufang/SH2141511766624960512.html",
    "rent_type": "整租",
    "location": "浦东-曹路-星晓家园",
    "scraped_at": "2026-04-23 00:23:24",
    "region": "caolu",
    "unit_price": 74.7,
    "lat": 31.277358,
    "lng": 121.674749
  },
  {
    "title": "整租·中虹家园 2室1厅 南/北",
    "community": "中虹家园",
    "area": "70.00",
    "rooms": "2室1厅",
    "direction": "南/北",
    "floor": "",
    "price": "4700",
    "tags": "",
    "source": "",
    "url": "https://sh.lianjia.com/zufang/SH2065999901401022464.html",
    "rent_type": "整租",
    "location": "浦东-曹路-中虹家园",
    "scraped_at": "2026-04-23 00:23:24",
    "region": "caolu",
    "unit_price": 67.1,
    "lat": 31.28274,
    "lng": 121.672473
  },
  {
    "title": "整租·爱法花园(二期) 1室1厅 南",
    "community": "爱法花园(二期)",
    "area": "52.24",
    "rooms": "1室1厅",
    "direction": "南",
    "floor": "",
    "price": "4000",
    "tags": "",
    "source": "",
    "url": "https://sh.lianjia.com/zufang/SH2155693751916298240.html",
    "rent_type": "整租",
    "location": "浦东-曹路-爱法花园(二期)",
    "scraped_at": "2026-04-23 00:23:24",
    "region": "caolu",
    "unit_price": 76.6,
    "lat": 31.270337,
    "lng": 121.655683
  },
  {
    "title": "整租·舜峰家苑 2室1厅 南",
    "community": "舜峰家苑",
    "area": "64.35",
    "rooms": "2室1厅",
    "direction": "南",
    "floor": "",
    "price": "3750",
    "tags": "",
    "source": "",
    "url": "https://sh.lianjia.com/zufang/SH2117898893160087552.html",
    "rent_type": "整租",
    "location": "浦东-曹路-舜峰家苑",
    "scraped_at": "2026-04-23 00:23:24",
    "region": "caolu",
    "unit_price": 58.3,
    "lat": 31.290641,
    "lng": 121.673299
  },
  {
    "title": "整租·星晓家园 3室1厅 南",
    "community": "星晓家园",
    "area": "108.00",
    "rooms": "3室1厅",
    "direction": "南",
    "floor": "",
    "price": "4000",
    "tags": "",
    "source": "",
    "url": "https://sh.lianjia.com/zufang/SH2151646371118055424.html",
    "rent_type": "整租",
    "location": "浦东-曹路-星晓家园",
    "scraped_at": "2026-04-23 00:23:24",
    "region": "caolu",
    "unit_price": 37.0,
    "lat": 31.277358,
    "lng": 121.674749
  },
  {
    "title": "整租·星颂家园 2室1厅 南",
    "community": "星颂家园",
    "area": "69.27",
    "rooms": "2室1厅",
    "direction": "南",
    "floor": "",
    "price": "4000",
    "tags": "",
    "source": "",
    "url": "https://sh.lianjia.com/zufang/SH2104182742395650048.html",
    "rent_type": "整租",
    "location": "浦东-曹路-星颂家园",
    "scraped_at": "2026-04-23 00:23:27",
    "region": "caolu",
    "unit_price": 57.7,
    "lat": 31.27474,
    "lng": 121.67602
  },
  {
    "title": "整租·万科第五园 4室2厅 南",
    "community": "万科第五园",
    "area": "254.00",
    "rooms": "4室2厅",
    "direction": "南",
    "floor": "",
    "price": "12000",
    "tags": "",
    "source": "",
    "url": "https://sh.lianjia.com/zufang/SH2112886993326178304.html",
    "rent_type": "整租",
    "location": "浦东-曹路-万科第五园",
    "scraped_at": "2026-04-23 00:23:27",
    "region": "caolu",
    "unit_price": 47.2,
    "lat": 31.269509,
    "lng": 121.670186
  },
  {
    "title": "整租·银丰苑 3室2厅 南",
    "community": "银丰苑",
    "area": "109.00",
    "rooms": "3室2厅",
    "direction": "南",
    "floor": "",
    "price": "4500",
    "tags": "",
    "source": "",
    "url": "https://sh.lianjia.com/zufang/SH2154929366176366592.html",
    "rent_type": "整租",
    "location": "浦东-曹路-银丰苑",
    "scraped_at": "2026-04-23 00:23:27",
    "region": "caolu",
    "unit_price": 41.3,
    "lat": 31.265502,
    "lng": 121.686326
  },
  {
    "title": "整租·爱法花园(二期) 1室1厅 南",
    "community": "爱法花园(二期)",
    "area": "52.24",
    "rooms": "1室1厅",
    "direction": "南",
    "floor": "",
    "price": "4000",
    "tags": "",
    "source": "",
    "url": "https://sh.lianjia.com/zufang/SH2158086521847021568.html",
    "rent_type": "整租",
    "location": "浦东-曹路-爱法花园(二期)",
    "scraped_at": "2026-04-23 00:23:27",
    "region": "caolu",
    "unit_price": 76.6,
    "lat": 31.270337,
    "lng": 121.655683
  },
  {
    "title": "整租·丰舍东苑 2室1厅 南/北",
    "community": "丰舍东苑",
    "area": "72.00",
    "rooms": "2室1厅",
    "direction": "南/北",
    "floor": "",
    "price": "5200",
    "tags": "",
    "source": "",
    "url": "https://sh.lianjia.com/zufang/SH2157482441504194560.html",
    "rent_type": "整租",
    "location": "浦东-曹路-丰舍东苑",
    "scraped_at": "2026-04-23 00:23:27",
    "region": "caolu",
    "unit_price": 72.2,
    "lat": 31.275279,
    "lng": 121.667415
  },
  {
    "title": "整租·中虹家园 1室1厅 南",
    "community": "中虹家园",
    "area": "51.48",
    "rooms": "1室1厅",
    "direction": "南",
    "floor": "",
    "price": "4000",
    "tags": "",
    "source": "",
    "url": "https://sh.lianjia.com/zufang/SH2158047458557427712.html",
    "rent_type": "整租",
    "location": "浦东-曹路-中虹家园",
    "scraped_at": "2026-04-23 00:23:27",
    "region": "caolu",
    "unit_price": 77.7,
    "lat": 31.28274,
    "lng": 121.672473
  },
  {
    "title": "整租·爱法花园(二期) 2室1厅 南",
    "community": "爱法花园(二期)",
    "area": "70.00",
    "rooms": "2室1厅",
    "direction": "南",
    "floor": "",
    "price": "5800",
    "tags": "",
    "source": "",
    "url": "https://sh.lianjia.com/zufang/SH2157136206335311872.html",
    "rent_type": "整租",
    "location": "浦东-曹路-爱法花园(二期)",
    "scraped_at": "2026-04-23 00:23:27",
    "region": "caolu",
    "unit_price": 82.9,
    "lat": 31.270337,
    "lng": 121.655683
  },
  {
    "title": "整租·星海家园 1室1厅 南",
    "community": "星海家园",
    "area": "52.02",
    "rooms": "1室1厅",
    "direction": "南",
    "floor": "",
    "price": "3900",
    "tags": "",
    "source": "",
    "url": "https://sh.lianjia.com/zufang/SH2157028903917453312.html",
    "rent_type": "整租",
    "location": "浦东-曹路-星海家园",
    "scraped_at": "2026-04-23 00:23:27",
    "region": "caolu",
    "unit_price": 75.0,
    "lat": 31.282712,
    "lng": 121.678706
  },
  {
    "title": "整租·佳伟景苑 2室1厅 南",
    "community": "佳伟景苑",
    "area": "74.00",
    "rooms": "2室1厅",
    "direction": "南",
    "floor": "",
    "price": "4500",
    "tags": "",
    "source": "",
    "url": "https://sh.lianjia.com/zufang/SH2158162021873352704.html",
    "rent_type": "整租",
    "location": "浦东-曹路-佳伟景苑",
    "scraped_at": "2026-04-23 00:23:27",
    "region": "caolu",
    "unit_price": 60.8,
    "lat": 31.284163,
    "lng": 121.676653
  },
  {
    "title": "整租·爱法花园(一期) 2室1厅 南/北",
    "community": "爱法花园(一期)",
    "area": "87.84",
    "rooms": "2室1厅",
    "direction": "南/北",
    "floor": "",
    "price": "5200",
    "tags": "",
    "source": "",
    "url": "https://sh.lianjia.com/zufang/SH2157703584886554624.html",
    "rent_type": "整租",
    "location": "浦东-曹路-爱法花园(一期)",
    "scraped_at": "2026-04-23 00:23:27",
    "region": "caolu",
    "unit_price": 59.2,
    "lat": 31.272261,
    "lng": 121.658153
  },
  {
    "title": "整租·爱法花园(二期) 1室1厅 南",
    "community": "爱法花园(二期)",
    "area": "52.32",
    "rooms": "1室1厅",
    "direction": "南",
    "floor": "",
    "price": "4000",
    "tags": "",
    "source": "",
    "url": "https://sh.lianjia.com/zufang/SH2157750112372129792.html",
    "rent_type": "整租",
    "location": "浦东-曹路-爱法花园(二期)",
    "scraped_at": "2026-04-23 00:23:27",
    "region": "caolu",
    "unit_price": 76.5,
    "lat": 31.270337,
    "lng": 121.655683
  },
  {
    "title": "整租·新芳邻 2室1厅 南",
    "community": "新芳邻",
    "area": "86.88",
    "rooms": "2室1厅",
    "direction": "南",
    "floor": "",
    "price": "5200",
    "tags": "",
    "source": "",
    "url": "https://sh.lianjia.com/zufang/SH2154146535976206336.html",
    "rent_type": "整租",
    "location": "浦东-曹路-新芳邻",
    "scraped_at": "2026-04-23 00:23:27",
    "region": "caolu",
    "unit_price": 59.9,
    "lat": 31.230525,
    "lng": 121.473667
  },
  {
    "title": "整租·中虹家园 1室1厅 南/北",
    "community": "中虹家园",
    "area": "50.94",
    "rooms": "1室1厅",
    "direction": "南/北",
    "floor": "",
    "price": "3800",
    "tags": "",
    "source": "",
    "url": "https://sh.lianjia.com/zufang/SH2155884894650105856.html",
    "rent_type": "整租",
    "location": "浦东-曹路-中虹家园",
    "scraped_at": "2026-04-23 00:23:27",
    "region": "caolu",
    "unit_price": 74.6,
    "lat": 31.28274,
    "lng": 121.672473
  },
  {
    "title": "整租·金海华城华美新苑 1室1厅 南",
    "community": "金海华城华美新苑",
    "area": "55.00",
    "rooms": "1室1厅",
    "direction": "南",
    "floor": "",
    "price": "4000",
    "tags": "",
    "source": "",
    "url": "https://sh.lianjia.com/zufang/SH2156984259997335552.html",
    "rent_type": "整租",
    "location": "浦东-曹路-金海华城华美新苑",
    "scraped_at": "2026-04-23 00:23:27",
    "region": "caolu",
    "unit_price": 72.7,
    "lat": 31.27997,
    "lng": 121.673773
  },
  {
    "title": "独栋·捷虹公寓 民风路店 宇量昇 芯上微 整租一居室，随时入住，押一付一， 开间",
    "community": "捷虹公寓 民风路店 宇量昇 芯上微",
    "area": "30.00",
    "rooms": "",
    "direction": "",
    "floor": "",
    "price": "1700",
    "tags": "",
    "source": "",
    "url": "https://sh.lianjia.com/apartment/104192.html",
    "rent_type": "独栋",
    "location": "",
    "scraped_at": "2026-04-23 00:23:30",
    "region": "caolu",
    "unit_price": 56.7,
    "lat": 31.189028,
    "lng": 121.377606
  },
  {
    "title": "整租·金海华城康平佳苑 2室1厅 南",
    "community": "金海华城康平佳苑",
    "area": "75.00",
    "rooms": "2室1厅",
    "direction": "南",
    "floor": "",
    "price": "5000",
    "tags": "",
    "source": "",
    "url": "https://sh.lianjia.com/zufang/SH2155895705141510144.html",
    "rent_type": "整租",
    "location": "浦东-曹路-金海华城康平佳苑",
    "scraped_at": "2026-04-23 00:23:27",
    "region": "caolu",
    "unit_price": 66.7,
    "lat": 31.263494,
    "lng": 121.688113
  },
  {
    "title": "整租·金海华城康平佳苑 3室1厅 东南/南",
    "community": "金海华城康平佳苑",
    "area": "100.00",
    "rooms": "3室1厅",
    "direction": "东南/南",
    "floor": "",
    "price": "7000",
    "tags": "",
    "source": "",
    "url": "https://sh.lianjia.com/zufang/SH2156779787576672256.html",
    "rent_type": "整租",
    "location": "浦东-曹路-金海华城康平佳苑",
    "scraped_at": "2026-04-23 00:23:27",
    "region": "caolu",
    "unit_price": 70.0,
    "lat": 31.263494,
    "lng": 121.688113
  },
  {
    "title": "整租·宝龙城市广场(曹路) 2室5厅 南",
    "community": "宝龙城市广场(曹路)",
    "area": "269.00",
    "rooms": "2室5厅",
    "direction": "南",
    "floor": "",
    "price": "23000",
    "tags": "",
    "source": "",
    "url": "https://sh.lianjia.com/zufang/SH2155512929598832640.html",
    "rent_type": "整租",
    "location": "浦东-曹路-宝龙城市广场(曹路)",
    "scraped_at": "2026-04-23 00:23:27",
    "region": "caolu",
    "unit_price": 85.5,
    "lat": null,
    "lng": null
  },
  {
    "title": "整租·云昌佳苑 2室1厅 南",
    "community": "云昌佳苑",
    "area": "78.00",
    "rooms": "2室1厅",
    "direction": "南",
    "floor": "",
    "price": "4500",
    "tags": "",
    "source": "",
    "url": "https://sh.lianjia.com/zufang/SH2143198662346407936.html",
    "rent_type": "整租",
    "location": "浦东-曹路-云昌佳苑",
    "scraped_at": "2026-04-23 00:23:27",
    "region": "caolu",
    "unit_price": 57.7,
    "lat": 30.897307,
    "lng": 121.819214
  },
  {
    "title": "整租·佩玛山丘 2室1厅 南",
    "community": "佩玛山丘",
    "area": "57.14",
    "rooms": "2室1厅",
    "direction": "南",
    "floor": "",
    "price": "6500",
    "tags": "",
    "source": "",
    "url": "https://sh.lianjia.com/zufang/SH2146513354481467392.html",
    "rent_type": "整租",
    "location": "浦东-曹路-佩玛山丘",
    "scraped_at": "2026-04-23 00:23:27",
    "region": "caolu",
    "unit_price": 113.8,
    "lat": 31.274473,
    "lng": 121.657608
  },
  {
    "title": "整租·佩玛山丘 2室1厅 南",
    "community": "佩玛山丘",
    "area": "57.14",
    "rooms": "2室1厅",
    "direction": "南",
    "floor": "",
    "price": "6500",
    "tags": "",
    "source": "",
    "url": "https://sh.lianjia.com/zufang/SH2146521851411562496.html",
    "rent_type": "整租",
    "location": "浦东-曹路-佩玛山丘",
    "scraped_at": "2026-04-23 00:23:27",
    "region": "caolu",
    "unit_price": 113.8,
    "lat": 31.274473,
    "lng": 121.657608
  },
  {
    "title": "整租·金海华城康平佳苑 2室1厅 南",
    "community": "金海华城康平佳苑",
    "area": "75.00",
    "rooms": "2室1厅",
    "direction": "南",
    "floor": "",
    "price": "5000",
    "tags": "",
    "source": "",
    "url": "https://sh.lianjia.com/zufang/SH2155895308314214400.html",
    "rent_type": "整租",
    "location": "浦东-曹路-金海华城康平佳苑",
    "scraped_at": "2026-04-23 00:23:30",
    "region": "caolu",
    "unit_price": 66.7,
    "lat": 31.263494,
    "lng": 121.688113
  },
  {
    "title": "整租·爱法花园(二期) 2室1厅 南/北",
    "community": "爱法花园(二期)",
    "area": "70.00",
    "rooms": "2室1厅",
    "direction": "南/北",
    "floor": "",
    "price": "5000",
    "tags": "",
    "source": "",
    "url": "https://sh.lianjia.com/zufang/SH2157352275985563648.html",
    "rent_type": "整租",
    "location": "浦东-曹路-爱法花园(二期)",
    "scraped_at": "2026-04-23 00:23:30",
    "region": "caolu",
    "unit_price": 71.4,
    "lat": 31.270337,
    "lng": 121.655683
  },
  {
    "title": "独栋·魔方公寓 顾唐路店 阳光豪华大复式 顾唐路地铁口 物业直租 直达金桥拎包入住+ 1室1厅",
    "community": "魔方公寓 顾唐路店",
    "area": "45.00",
    "rooms": "1室1厅",
    "direction": "",
    "floor": "",
    "price": "4054",
    "tags": "",
    "source": "",
    "url": "https://sh.lianjia.com/apartment/47531.html",
    "rent_type": "独栋",
    "location": "",
    "scraped_at": "2026-04-23 00:23:30",
    "region": "caolu",
    "unit_price": 90.1,
    "lat": 31.17079,
    "lng": 121.431882
  },
  {
    "title": "独栋·黎鸿公寓 金海路店 9号线顾唐路地铁站超大LOFT带落地窗1 1室1厅",
    "community": "黎鸿公寓 金海路店",
    "area": "45.00",
    "rooms": "1室1厅",
    "direction": "",
    "floor": "",
    "price": "3800",
    "tags": "",
    "source": "",
    "url": "https://sh.lianjia.com/apartment/56666.html",
    "rent_type": "独栋",
    "location": "",
    "scraped_at": "2026-04-23 00:23:30",
    "region": "caolu",
    "unit_price": 84.4,
    "lat": 31.265678,
    "lng": 121.657583
  },
  {
    "title": "独栋·励业公寓 励业公寓上海顾唐路地铁站店 可开票！无中介！毕业季押金减半！品牌家具、家电全配 开间",
    "community": "励业公寓 励业公寓上海顾唐路地铁站店",
    "area": "48.00",
    "rooms": "",
    "direction": "",
    "floor": "",
    "price": "3280",
    "tags": "",
    "source": "",
    "url": "https://sh.lianjia.com/apartment/70188.html",
    "rent_type": "独栋",
    "location": "",
    "scraped_at": "2026-04-23 00:23:30",
    "region": "caolu",
    "unit_price": 68.3,
    "lat": 31.274967,
    "lng": 121.658127
  },
  {
    "title": "独栋·雪创浦江智汇青创园 川沙路店B 一室一厅 1室1厅",
    "community": "雪创浦江智汇青创园 川沙路店B",
    "area": "55.00",
    "rooms": "1室1厅",
    "direction": "",
    "floor": "",
    "price": "2520",
    "tags": "",
    "source": "",
    "url": "https://sh.lianjia.com/apartment/81107.html",
    "rent_type": "独栋",
    "location": "",
    "scraped_at": "2026-04-23 00:23:33",
    "region": "caolu",
    "unit_price": 45.8,
    "lat": 31.177559,
    "lng": 121.400047
  },
  {
    "title": "独栋·银丰公寓 川沙路店 9号线曹路地铁站，直达金桥，世纪大道 开间",
    "community": "银丰公寓 川沙路店",
    "area": "25.00",
    "rooms": "",
    "direction": "",
    "floor": "",
    "price": "2380",
    "tags": "",
    "source": "",
    "url": "https://sh.lianjia.com/apartment/94591.html",
    "rent_type": "独栋",
    "location": "",
    "scraped_at": "2026-04-23 00:23:30",
    "region": "caolu",
    "unit_price": 95.2,
    "lat": 31.262197,
    "lng": 121.678246
  },
  {
    "title": "独栋·暖暖花园公寓 川沙路店 九号线 朝南超大温馨整租一居 实体墙 租期灵活 随时可看 1室1厅",
    "community": "暖暖花园公寓 川沙路店 九号线",
    "area": "36.00",
    "rooms": "1室1厅",
    "direction": "",
    "floor": "",
    "price": "2300",
    "tags": "",
    "source": "",
    "url": "https://sh.lianjia.com/apartment/91145.html",
    "rent_type": "独栋",
    "location": "",
    "scraped_at": "2026-04-23 00:23:30",
    "region": "caolu",
    "unit_price": 63.9,
    "lat": null,
    "lng": null
  },
  {
    "title": "独栋·雪创浦江智汇青创园 雪创浦江智汇青创园店 整租一室一厅地铁9号线步行5分钟，押一付一可短租停车方便 1室1厅",
    "community": "雪创浦江智汇青创园 雪创浦江智汇青创园店",
    "area": "55.00",
    "rooms": "1室1厅",
    "direction": "",
    "floor": "",
    "price": "2520",
    "tags": "",
    "source": "",
    "url": "https://sh.lianjia.com/apartment/43651.html",
    "rent_type": "独栋",
    "location": "",
    "scraped_at": "2026-04-23 00:23:33",
    "region": "caolu",
    "unit_price": 45.8,
    "lat": 31.27747,
    "lng": 121.66884
  },
  {
    "title": "整租·金海华城佳洁景苑 2室1厅 南",
    "community": "金海华城佳洁景苑",
    "area": "98.02",
    "rooms": "2室1厅",
    "direction": "南",
    "floor": "",
    "price": "5590",
    "tags": "",
    "source": "",
    "url": "https://sh.lianjia.com/zufang/SH1812893223660552192.html",
    "rent_type": "整租",
    "location": "浦东-曹路-金海华城佳洁景苑",
    "scraped_at": "2026-04-23 00:23:30",
    "region": "caolu",
    "unit_price": 57.0,
    "lat": 31.25574,
    "lng": 121.689767
  },
  {
    "title": "独栋·黎鸿公寓 金海路店 可短租 朝南落地窗 精装豪华大复式 拎包入住 物业直租 1室1厅",
    "community": "黎鸿公寓 金海路店",
    "area": "35.00",
    "rooms": "1室1厅",
    "direction": "",
    "floor": "",
    "price": "3600",
    "tags": "",
    "source": "",
    "url": "https://sh.lianjia.com/apartment/90817.html",
    "rent_type": "独栋",
    "location": "",
    "scraped_at": "2026-04-23 00:23:30",
    "region": "caolu",
    "unit_price": 102.9,
    "lat": 31.265678,
    "lng": 121.657583
  },
  {
    "title": "独栋·逸客公寓 曹路店 曹路特价好房 复式小居 近民雷路地铁站 独立卫浴 可做饭 1室1厅",
    "community": "逸客公寓 曹路店",
    "area": "30.00",
    "rooms": "1室1厅",
    "direction": "",
    "floor": "",
    "price": "1750-1800",
    "tags": "",
    "source": "",
    "url": "https://sh.lianjia.com/apartment/8563.html",
    "rent_type": "独栋",
    "location": "",
    "scraped_at": "2026-04-23 00:23:30",
    "region": "caolu",
    "unit_price": "",
    "lat": 31.261332,
    "lng": 121.677927
  },
  {
    "title": "独栋·窝趣轻社区 民雷路公寓 可短租/押一付一/停车便宜/大窗平层·9号线民雷路 1室1厅",
    "community": "窝趣轻社区 民雷路公寓",
    "area": "19.00",
    "rooms": "1室1厅",
    "direction": "",
    "floor": "",
    "price": "1800",
    "tags": "",
    "source": "",
    "url": "https://sh.lianjia.com/apartment/39033.html",
    "rent_type": "独栋",
    "location": "",
    "scraped_at": "2026-04-23 00:23:33",
    "region": "caolu",
    "unit_price": 94.7,
    "lat": null,
    "lng": null
  },
  {
    "title": "独栋·超煜共享社区 曹路店 金桥 世纪大道 只长租不短租 1室1厅",
    "community": "超煜共享社区 曹路店 金桥 世纪大道 只长租不短租",
    "area": "25.00",
    "rooms": "1室1厅",
    "direction": "",
    "floor": "",
    "price": "1600-2000",
    "tags": "",
    "source": "",
    "url": "https://sh.lianjia.com/apartment/88600.html",
    "rent_type": "独栋",
    "location": "",
    "scraped_at": "2026-04-23 00:23:33",
    "region": "caolu",
    "unit_price": "",
    "lat": null,
    "lng": null
  },
  {
    "title": "独栋·露美家花园精品公寓 旗舰店 外窗干湿分离平层一居室采光好9号线地铁 1室1厅",
    "community": "露美家花园精品公寓 旗舰店",
    "area": "28.00",
    "rooms": "1室1厅",
    "direction": "",
    "floor": "",
    "price": "3068",
    "tags": "",
    "source": "",
    "url": "https://sh.lianjia.com/apartment/89585.html",
    "rent_type": "独栋",
    "location": "",
    "scraped_at": "2026-04-23 00:23:33",
    "region": "caolu",
    "unit_price": 109.6,
    "lat": 31.135633,
    "lng": 121.404969
  }
]