[
  {
    "title": "整租·和光尘樾 4室2厅 南/北",
    "community": "和光尘樾",
    "area": "181.30",
    "rooms": "4室2厅",
    "direction": "南/北",
    "floor": "",
    "price": "23000",
    "tags": "",
    "source": "",
    "url": "https://bj.lianjia.com/zufang/BJ2149861984818954240.html",
    "rent_type": "整租",
    "location": "朝阳区-东坝-和光尘樾",
    "scraped_at": "2026-05-02 20:39:08",
    "region": "东坝",
    "unit_price": 126.9,
    "lat": 39.96245,
    "lng": 116.55963
  },
  {
    "title": "整租·保利首开丽湾家园 2室1厅 南/北",
    "community": "保利首开丽湾家园",
    "area": "89.20",
    "rooms": "2室1厅",
    "direction": "南/北",
    "floor": "",
    "price": "5200",
    "tags": "",
    "source": "",
    "url": "https://bj.lianjia.com/zufang/BJ2122188273613799424.html",
    "rent_type": "整租",
    "location": "朝阳区-东坝-保利首开丽湾家园",
    "scraped_at": "2026-05-02 20:40:13",
    "region": "东坝",
    "unit_price": 58.3,
    "lat": 39.9672,
    "lng": 116.5135
  },
  {
    "title": "整租·恒大江湾 3室1厅 南/北",
    "community": "恒大江湾",
    "area": "89.67",
    "rooms": "3室1厅",
    "direction": "南/北",
    "floor": "",
    "price": "7000",
    "tags": "",
    "source": "",
    "url": "https://bj.lianjia.com/zufang/BJ2148757705471295488.html",
    "rent_type": "整租",
    "location": "朝阳区-东坝-恒大江湾",
    "scraped_at": "2026-05-02 20:39:08",
    "region": "东坝",
    "unit_price": 78.1,
    "lat": 39.969646,
    "lng": 116.527618
  },
  {
    "title": "整租·奥林匹克花园四期 4室2厅 错层 南/北",
    "community": "奥林匹克花园四期",
    "area": "153.96",
    "rooms": "4室2厅",
    "direction": "",
    "floor": "",
    "price": "13500",
    "tags": "",
    "source": "",
    "url": "https://bj.lianjia.com/zufang/BJ2139653814666395648.html",
    "rent_type": "整租",
    "location": "朝阳区-东坝-奥林匹克花园四期",
    "scraped_at": "2026-05-02 20:39:25",
    "region": "东坝",
    "unit_price": 87.7,
    "lat": 39.959073,
    "lng": 116.537068
  },
  {
    "title": "整租·奥林匹克花园一期 4室2厅 南/北",
    "community": "奥林匹克花园一期",
    "area": "238.68",
    "rooms": "4室2厅",
    "direction": "南/北",
    "floor": "",
    "price": "13000",
    "tags": "",
    "source": "",
    "url": "https://bj.lianjia.com/zufang/BJ2147552894407147520.html",
    "rent_type": "整租",
    "location": "朝阳区-东坝-奥林匹克花园一期",
    "scraped_at": "2026-05-02 20:39:08",
    "region": "东坝",
    "unit_price": 54.5,
    "lat": 39.962356,
    "lng": 116.539217
  },
  {
    "title": "独栋·远亲近邻 轻遇HOME 电影学院店 大悦城整租公寓押一付一 1室1厅",
    "community": "远亲近邻 轻遇HOME 电影学院店 大悦城整租公寓押一付一",
    "area": "20.00",
    "rooms": "1室1厅",
    "direction": "",
    "floor": "",
    "price": "1800",
    "tags": "",
    "source": "",
    "url": "https://bj.lianjia.com/apartment/71647.html",
    "rent_type": "独栋",
    "location": "",
    "scraped_at": "2026-05-02 20:39:20",
    "region": "东坝",
    "unit_price": 90.0,
    "lat": 39.957,
    "lng": 116.28321
  },
  {
    "title": "整租·首开常青藤二期 4室2厅 南/北",
    "community": "首开常青藤二期",
    "area": "164.80",
    "rooms": "4室2厅",
    "direction": "南/北",
    "floor": "",
    "price": "12000",
    "tags": "",
    "source": "",
    "url": "https://bj.lianjia.com/zufang/BJ2157351700074070016.html",
    "rent_type": "整租",
    "location": "朝阳区-东坝-首开常青藤二期",
    "scraped_at": "2026-05-02 20:39:08",
    "region": "东坝",
    "unit_price": 72.8,
    "lat": 39.962783,
    "lng": 116.531153
  },
  {
    "title": "整租·金隅景和园 3室1厅 南/北",
    "community": "金隅景和园",
    "area": "89.00",
    "rooms": "3室1厅",
    "direction": "南/北",
    "floor": "",
    "price": "7000",
    "tags": "",
    "source": "",
    "url": "https://bj.lianjia.com/zufang/BJ2155327246577958912.html",
    "rent_type": "整租",
    "location": "朝阳区-东坝-金隅景和园",
    "scraped_at": "2026-05-02 20:39:08",
    "region": "东坝",
    "unit_price": 78.7,
    "lat": 39.953542,
    "lng": 116.5316
  },
  {
    "title": "整租·首开常青藤一期 3室1厅 南/北",
    "community": "首开常青藤一期",
    "area": "95.48",
    "rooms": "3室1厅",
    "direction": "南/北",
    "floor": "",
    "price": "7800",
    "tags": "",
    "source": "",
    "url": "https://bj.lianjia.com/zufang/BJ2147309309623533568.html",
    "rent_type": "整租",
    "location": "朝阳区-东坝-首开常青藤一期",
    "scraped_at": "2026-05-02 20:39:08",
    "region": "东坝",
    "unit_price": 81.7,
    "lat": 39.962783,
    "lng": 116.531153
  },
  {
    "title": "整租·福润四季A区 3室1厅 西南/北",
    "community": "福润四季A区",
    "area": "90.19",
    "rooms": "3室1厅",
    "direction": "西南/北",
    "floor": "",
    "price": "6200",
    "tags": "",
    "source": "",
    "url": "https://bj.lianjia.com/zufang/BJ2143960789428469760.html",
    "rent_type": "整租",
    "location": "朝阳区-东坝-福润四季",
    "scraped_at": "2026-05-02 20:39:08",
    "region": "东坝",
    "unit_price": 68.7,
    "lat": 39.957221,
    "lng": 116.572019
  },
  {
    "title": "整租·坝鑫家园 2室1厅 南",
    "community": "坝鑫家园",
    "area": "81.00",
    "rooms": "2室1厅",
    "direction": "南",
    "floor": "",
    "price": "5500",
    "tags": "",
    "source": "",
    "url": "https://bj.lianjia.com/zufang/BJ2140364047206318080.html",
    "rent_type": "整租",
    "location": "朝阳区-东坝-坝鑫家园",
    "scraped_at": "2026-05-02 20:39:08",
    "region": "东坝",
    "unit_price": 67.9,
    "lat": 39.967316,
    "lng": 116.526758
  },
  {
    "title": "整租·首开常青藤一期 3室1厅 南/北",
    "community": "首开常青藤一期",
    "area": "96.00",
    "rooms": "3室1厅",
    "direction": "南/北",
    "floor": "",
    "price": "8000",
    "tags": "",
    "source": "",
    "url": "https://bj.lianjia.com/zufang/BJ2145386295713595392.html",
    "rent_type": "整租",
    "location": "朝阳区-东坝-首开常青藤一期",
    "scraped_at": "2026-05-02 20:39:28",
    "region": "东坝",
    "unit_price": 83.3,
    "lat": 39.962783,
    "lng": 116.531153
  },
  {
    "title": "整租·华瀚福园D区 1室1厅 南",
    "community": "华瀚福园D区",
    "area": "54.41",
    "rooms": "1室1厅",
    "direction": "南",
    "floor": "",
    "price": "3980",
    "tags": "",
    "source": "",
    "url": "https://bj.lianjia.com/zufang/BJ2159968714789748736.html",
    "rent_type": "整租",
    "location": "朝阳区-东坝-华瀚福园",
    "scraped_at": "2026-05-02 20:39:08",
    "region": "东坝",
    "unit_price": 73.1,
    "lat": 39.960428,
    "lng": 116.568485
  },
  {
    "title": "整租·保利首开丽湾家园 2室1厅 南",
    "community": "保利首开丽湾家园",
    "area": "89.99",
    "rooms": "2室1厅",
    "direction": "南",
    "floor": "",
    "price": "5500",
    "tags": "",
    "source": "",
    "url": "https://bj.lianjia.com/zufang/BJ2157709444970971136.html",
    "rent_type": "整租",
    "location": "朝阳区-东坝-保利首开丽湾家园",
    "scraped_at": "2026-05-02 20:39:08",
    "region": "东坝",
    "unit_price": 61.1,
    "lat": 39.9672,
    "lng": 116.5135
  },
  {
    "title": "整租·恒大江湾 2室1厅 东",
    "community": "恒大江湾",
    "area": "90.21",
    "rooms": "2室1厅",
    "direction": "东",
    "floor": "",
    "price": "5600",
    "tags": "",
    "source": "",
    "url": "https://bj.lianjia.com/zufang/BJ2149795309067173888.html",
    "rent_type": "整租",
    "location": "朝阳区-东坝-恒大江湾",
    "scraped_at": "2026-05-02 20:39:28",
    "region": "东坝",
    "unit_price": 62.1,
    "lat": 39.969646,
    "lng": 116.527618
  },
  {
    "title": "整租·金驹家园F区 1室1厅 南",
    "community": "金驹家园F区",
    "area": "55.56",
    "rooms": "1室1厅",
    "direction": "南",
    "floor": "",
    "price": "4200",
    "tags": "",
    "source": "",
    "url": "https://bj.lianjia.com/zufang/BJ2159277528143888384.html",
    "rent_type": "整租",
    "location": "朝阳区-东坝-金驹家园",
    "scraped_at": "2026-05-02 20:39:08",
    "region": "东坝",
    "unit_price": 75.6,
    "lat": 39.960081,
    "lng": 116.558231
  },
  {
    "title": "整租·金隅景和园 3室1厅 南/北",
    "community": "金隅景和园",
    "area": "89.85",
    "rooms": "3室1厅",
    "direction": "南/北",
    "floor": "",
    "price": "6500",
    "tags": "",
    "source": "",
    "url": "https://bj.lianjia.com/zufang/BJ2153005479981219840.html",
    "rent_type": "整租",
    "location": "朝阳区-东坝-金隅景和园",
    "scraped_at": "2026-05-02 20:39:08",
    "region": "东坝",
    "unit_price": 72.3,
    "lat": 39.953542,
    "lng": 116.5316
  },
  {
    "title": "整租·福润四季A区 2室1厅 南",
    "community": "福润四季A区",
    "area": "74.17",
    "rooms": "2室1厅",
    "direction": "南",
    "floor": "",
    "price": "4600",
    "tags": "",
    "source": "",
    "url": "https://bj.lianjia.com/zufang/BJ1864254981041815552.html",
    "rent_type": "整租",
    "location": "朝阳区-东坝-福润四季",
    "scraped_at": "2026-05-02 20:40:09",
    "region": "东坝",
    "unit_price": 62.0,
    "lat": 39.957221,
    "lng": 116.572019
  },
  {
    "title": "整租·奥林匹克花园二期 5室2厅 南/北",
    "community": "奥林匹克花园二期",
    "area": "180.12",
    "rooms": "5室2厅",
    "direction": "南/北",
    "floor": "",
    "price": "15500",
    "tags": "",
    "source": "",
    "url": "https://bj.lianjia.com/zufang/BJ2103800985360007168.html",
    "rent_type": "整租",
    "location": "朝阳区-东坝-奥林匹克花园二期",
    "scraped_at": "2026-05-02 20:39:08",
    "region": "东坝",
    "unit_price": 86.1,
    "lat": 39.964366,
    "lng": 116.535138
  },
  {
    "title": "整租·保利首开丽湾家园 2室1厅 东/西",
    "community": "保利首开丽湾家园",
    "area": "89.85",
    "rooms": "2室1厅",
    "direction": "东/西",
    "floor": "",
    "price": "6600",
    "tags": "",
    "source": "",
    "url": "https://bj.lianjia.com/zufang/BJ2153471442614747136.html",
    "rent_type": "整租",
    "location": "朝阳区-东坝-保利首开丽湾家园",
    "scraped_at": "2026-05-02 20:39:08",
    "region": "东坝",
    "unit_price": 73.5,
    "lat": 39.9672,
    "lng": 116.5135
  },
  {
    "title": "整租·富东嘉园 2室1厅 南/北",
    "community": "富东嘉园",
    "area": "91.77",
    "rooms": "2室1厅",
    "direction": "南/北",
    "floor": "",
    "price": "5600",
    "tags": "",
    "source": "",
    "url": "https://bj.lianjia.com/zufang/BJ2091775078671843328.html",
    "rent_type": "整租",
    "location": "朝阳区-东坝-富东嘉园",
    "scraped_at": "2026-05-02 20:39:08",
    "region": "东坝",
    "unit_price": 61.0,
    "lat": 39.945326,
    "lng": 116.546368
  },
  {
    "title": "整租·和悦园 1室1厅 西",
    "community": "和悦园",
    "area": "63.81",
    "rooms": "1室1厅",
    "direction": "西",
    "floor": "",
    "price": "4800",
    "tags": "",
    "source": "",
    "url": "https://bj.lianjia.com/zufang/BJ2151611067027947520.html",
    "rent_type": "整租",
    "location": "朝阳区-东坝-和悦园",
    "scraped_at": "2026-05-02 20:39:08",
    "region": "东坝",
    "unit_price": 75.2,
    "lat": 39.957947,
    "lng": 116.574888
  },
  {
    "title": "整租·汇景苑三区 2室1厅 南/北",
    "community": "汇景苑三区",
    "area": "80.23",
    "rooms": "2室1厅",
    "direction": "南/北",
    "floor": "",
    "price": "5600",
    "tags": "",
    "source": "",
    "url": "https://bj.lianjia.com/zufang/BJ2124459253220507648.html",
    "rent_type": "整租",
    "location": "朝阳区-东坝-汇景苑三区",
    "scraped_at": "2026-05-02 20:39:08",
    "region": "东坝",
    "unit_price": 69.8,
    "lat": 39.952706,
    "lng": 116.531718
  },
  {
    "title": "整租·朝新嘉园东里四区 2室1厅 南/北",
    "community": "朝新嘉园东里四区",
    "area": "94.41",
    "rooms": "2室1厅",
    "direction": "南/北",
    "floor": "",
    "price": "4900",
    "tags": "",
    "source": "",
    "url": "https://bj.lianjia.com/zufang/BJ1902375873894416384.html",
    "rent_type": "整租",
    "location": "朝阳区-东坝-朝新嘉园东里四区",
    "scraped_at": "2026-05-02 20:39:32",
    "region": "东坝",
    "unit_price": 51.9,
    "lat": 39.945236,
    "lng": 116.548868
  },
  {
    "title": "整租·奥林匹克花园一期 4室4厅 南/西/北",
    "community": "奥林匹克花园一期",
    "area": "235.17",
    "rooms": "4室4厅",
    "direction": "南/西/北",
    "floor": "",
    "price": "17000",
    "tags": "",
    "source": "",
    "url": "https://bj.lianjia.com/zufang/BJ2145061233303224320.html",
    "rent_type": "整租",
    "location": "朝阳区-东坝-奥林匹克花园一期",
    "scraped_at": "2026-05-02 20:39:08",
    "region": "东坝",
    "unit_price": 72.3,
    "lat": 39.962356,
    "lng": 116.539217
  },
  {
    "title": "独栋·北京松果公寓 东坝二店 朝阳区3号线东坝南地铁500米 精装公寓 朝南开间 开间",
    "community": "北京松果公寓 东坝二店 朝阳区3号线东坝南地铁500米 精装公寓 朝南开间 开间",
    "area": "20.00",
    "rooms": "",
    "direction": "",
    "floor": "",
    "price": "2700",
    "tags": "",
    "source": "",
    "url": "https://bj.lianjia.com/apartment/106810.html",
    "rent_type": "独栋",
    "location": "",
    "scraped_at": "2026-05-02 20:39:08",
    "region": "东坝",
    "unit_price": 135.0,
    "lat": 39.945158,
    "lng": 116.500045
  },
  {
    "title": "整租·奥林匹克花园二期 4室2厅 南/北",
    "community": "奥林匹克花园二期",
    "area": "205.14",
    "rooms": "4室2厅",
    "direction": "南/北",
    "floor": "",
    "price": "10500",
    "tags": "",
    "source": "",
    "url": "https://bj.lianjia.com/zufang/BJ1829140567171268608.html",
    "rent_type": "整租",
    "location": "朝阳区-东坝-奥林匹克花园二期",
    "scraped_at": "2026-05-02 20:40:09",
    "region": "东坝",
    "unit_price": 51.2,
    "lat": 39.964366,
    "lng": 116.535138
  },
  {
    "title": "整租·朝阳新城五区 3室1厅 南/北",
    "community": "朝阳新城五区",
    "area": "110.13",
    "rooms": "3室1厅",
    "direction": "南/北",
    "floor": "",
    "price": "6500",
    "tags": "",
    "source": "",
    "url": "https://bj.lianjia.com/zufang/BJ2146441686132195328.html",
    "rent_type": "整租",
    "location": "朝阳区-东坝-朝阳新城五区",
    "scraped_at": "2026-05-02 20:39:08",
    "region": "东坝",
    "unit_price": 59.0,
    "lat": 39.948176,
    "lng": 116.550348
  },
  {
    "title": "独栋·京易寓客 褡裢坡店 褡裢坡400米 小开间 配套齐全 拎包入住 开间",
    "community": "京易寓客 褡裢坡店 褡裢坡400米 小开间 配套齐全 拎包入住 开间",
    "area": "18.00",
    "rooms": "",
    "direction": "",
    "floor": "",
    "price": "2000",
    "tags": "",
    "source": "",
    "url": "https://bj.lianjia.com/apartment/104031.html",
    "rent_type": "独栋",
    "location": "",
    "scraped_at": "2026-05-02 20:39:11",
    "region": "东坝",
    "unit_price": 111.1,
    "lat": 39.94603,
    "lng": 116.349435
  },
  {
    "title": "整租·和悦园 1室1厅 南",
    "community": "和悦园",
    "area": "63.81",
    "rooms": "1室1厅",
    "direction": "南",
    "floor": "",
    "price": "4300",
    "tags": "",
    "source": "",
    "url": "https://bj.lianjia.com/zufang/BJ2156392861073932288.html",
    "rent_type": "整租",
    "location": "朝阳区-东坝-和悦园",
    "scraped_at": "2026-05-02 20:39:11",
    "region": "东坝",
    "unit_price": 67.4,
    "lat": 39.957947,
    "lng": 116.574888
  },
  {
    "title": "整租·天璞家园 2室1厅 南/北",
    "community": "天璞家园",
    "area": "89.62",
    "rooms": "2室1厅",
    "direction": "南/北",
    "floor": "",
    "price": "6500",
    "tags": "",
    "source": "",
    "url": "https://bj.lianjia.com/zufang/BJ2152720272665346048.html",
    "rent_type": "整租",
    "location": "朝阳区-东坝-天璞家园",
    "scraped_at": "2026-05-02 20:39:11",
    "region": "东坝",
    "unit_price": 72.5,
    "lat": 39.946696,
    "lng": 116.544728
  },
  {
    "title": "整租·朝阳新城五区 3室1厅 南/北",
    "community": "朝阳新城五区",
    "area": "119.39",
    "rooms": "3室1厅",
    "direction": "南/北",
    "floor": "",
    "price": "6000",
    "tags": "",
    "source": "",
    "url": "https://bj.lianjia.com/zufang/BJ2122939412479213568.html",
    "rent_type": "整租",
    "location": "朝阳区-东坝-朝阳新城五区",
    "scraped_at": "2026-05-02 20:39:11",
    "region": "东坝",
    "unit_price": 50.3,
    "lat": 39.948176,
    "lng": 116.550348
  },
  {
    "title": "整租·恒大江湾 2室1厅 东/南",
    "community": "恒大江湾",
    "area": "72.88",
    "rooms": "2室1厅",
    "direction": "东/南",
    "floor": "",
    "price": "5250",
    "tags": "",
    "source": "",
    "url": "https://bj.lianjia.com/zufang/BJ1898569118840258560.html",
    "rent_type": "整租",
    "location": "朝阳区-东坝-恒大江湾",
    "scraped_at": "2026-05-02 20:39:11",
    "region": "东坝",
    "unit_price": 72.0,
    "lat": 39.969646,
    "lng": 116.527618
  },
  {
    "title": "整租·奥林匹克花园四期 3室2厅 南/北",
    "community": "奥林匹克花园四期",
    "area": "122.62",
    "rooms": "3室2厅",
    "direction": "南/北",
    "floor": "",
    "price": "10500",
    "tags": "",
    "source": "",
    "url": "https://bj.lianjia.com/zufang/BJ2158977444441227264.html",
    "rent_type": "整租",
    "location": "朝阳区-东坝-奥林匹克花园四期",
    "scraped_at": "2026-05-02 20:39:11",
    "region": "东坝",
    "unit_price": 85.6,
    "lat": 39.959073,
    "lng": 116.537068
  },
  {
    "title": "整租·恒大江湾 2室1厅 南/北",
    "community": "恒大江湾",
    "area": "90.45",
    "rooms": "2室1厅",
    "direction": "南/北",
    "floor": "",
    "price": "5500",
    "tags": "",
    "source": "",
    "url": "https://bj.lianjia.com/zufang/BJ2116447889289904128.html",
    "rent_type": "整租",
    "location": "朝阳区-东坝-恒大江湾",
    "scraped_at": "2026-05-02 20:39:11",
    "region": "东坝",
    "unit_price": 60.8,
    "lat": 39.969646,
    "lng": 116.527618
  },
  {
    "title": "整租·坝鑫家园 3室1厅 南/北",
    "community": "坝鑫家园",
    "area": "106.78",
    "rooms": "3室1厅",
    "direction": "南/北",
    "floor": "",
    "price": "7800",
    "tags": "",
    "source": "",
    "url": "https://bj.lianjia.com/zufang/BJ2154154374136332288.html",
    "rent_type": "整租",
    "location": "朝阳区-东坝-坝鑫家园",
    "scraped_at": "2026-05-02 20:39:28",
    "region": "东坝",
    "unit_price": 73.0,
    "lat": 39.967316,
    "lng": 116.526758
  },
  {
    "title": "整租·坝鑫家园 3室1厅 南/北",
    "community": "坝鑫家园",
    "area": "106.47",
    "rooms": "3室1厅",
    "direction": "南/北",
    "floor": "",
    "price": "7000",
    "tags": "",
    "source": "",
    "url": "https://bj.lianjia.com/zufang/BJ2150523870723964928.html",
    "rent_type": "整租",
    "location": "朝阳区-东坝-坝鑫家园",
    "scraped_at": "2026-05-02 20:39:11",
    "region": "东坝",
    "unit_price": 65.7,
    "lat": 39.967316,
    "lng": 116.526758
  },
  {
    "title": "整租·首开畅颐园 1室1厅 西",
    "community": "首开畅颐园",
    "area": "58.27",
    "rooms": "1室1厅",
    "direction": "西",
    "floor": "",
    "price": "5000",
    "tags": "",
    "source": "",
    "url": "https://bj.lianjia.com/zufang/BJ2153103936284786688.html",
    "rent_type": "整租",
    "location": "朝阳区-东坝-首开畅颐园",
    "scraped_at": "2026-05-02 20:39:11",
    "region": "东坝",
    "unit_price": 85.8,
    "lat": 39.962783,
    "lng": 116.531153
  },
  {
    "title": "整租·保利首开丽湾家园 1室1厅 东",
    "community": "保利首开丽湾家园",
    "area": "81.98",
    "rooms": "1室1厅",
    "direction": "东",
    "floor": "",
    "price": "4725",
    "tags": "",
    "source": "",
    "url": "https://bj.lianjia.com/zufang/BJ1893286998169354240.html",
    "rent_type": "整租",
    "location": "朝阳区-东坝-保利首开丽湾家园",
    "scraped_at": "2026-05-02 20:39:32",
    "region": "东坝",
    "unit_price": 57.6,
    "lat": 39.9672,
    "lng": 116.5135
  },
  {
    "title": "整租·保利首开丽湾家园 1室1厅 南",
    "community": "保利首开丽湾家园",
    "area": "89.20",
    "rooms": "1室1厅",
    "direction": "南",
    "floor": "",
    "price": "6600",
    "tags": "",
    "source": "",
    "url": "https://bj.lianjia.com/zufang/BJ2153879804603006976.html",
    "rent_type": "整租",
    "location": "朝阳区-东坝-保利首开丽湾家园",
    "scraped_at": "2026-05-02 20:39:11",
    "region": "东坝",
    "unit_price": 74.0,
    "lat": 39.9672,
    "lng": 116.5135
  },
  {
    "title": "整租·首开常青藤三期 3室1厅 南/北",
    "community": "首开常青藤三期",
    "area": "93.02",
    "rooms": "3室1厅",
    "direction": "南/北",
    "floor": "",
    "price": "7900",
    "tags": "",
    "source": "",
    "url": "https://bj.lianjia.com/zufang/BJ2145171005457301504.html",
    "rent_type": "整租",
    "location": "朝阳区-东坝-首开常青藤三期",
    "scraped_at": "2026-05-02 20:39:11",
    "region": "东坝",
    "unit_price": 84.9,
    "lat": 39.962783,
    "lng": 116.531153
  },
  {
    "title": "整租·和悦园 1室1厅 南",
    "community": "和悦园",
    "area": "63.92",
    "rooms": "1室1厅",
    "direction": "南",
    "floor": "",
    "price": "3990",
    "tags": "",
    "source": "",
    "url": "https://bj.lianjia.com/zufang/BJ1880889621160656896.html",
    "rent_type": "整租",
    "location": "朝阳区-东坝-和悦园",
    "scraped_at": "2026-05-02 20:40:09",
    "region": "东坝",
    "unit_price": 62.4,
    "lat": 39.957947,
    "lng": 116.574888
  },
  {
    "title": "整租·首开畅颐园 1室1厅 南",
    "community": "首开畅颐园",
    "area": "58.00",
    "rooms": "1室1厅",
    "direction": "南",
    "floor": "",
    "price": "4500",
    "tags": "",
    "source": "",
    "url": "https://bj.lianjia.com/zufang/BJ2088593377250508800.html",
    "rent_type": "整租",
    "location": "朝阳区-东坝-首开畅颐园",
    "scraped_at": "2026-05-02 20:39:11",
    "region": "东坝",
    "unit_price": 77.6,
    "lat": 39.962783,
    "lng": 116.531153
  },
  {
    "title": "整租·恒大华府 7室2厅 南/北",
    "community": "恒大华府",
    "area": "341.02",
    "rooms": "7室2厅",
    "direction": "南/北",
    "floor": "",
    "price": "55000",
    "tags": "",
    "source": "",
    "url": "https://bj.lianjia.com/zufang/BJ2056584724628897792.html",
    "rent_type": "整租",
    "location": "朝阳区-东坝-恒大华府",
    "scraped_at": "2026-05-02 20:39:11",
    "region": "东坝",
    "unit_price": 161.3,
    "lat": 39.969646,
    "lng": 116.527618
  },
  {
    "title": "整租·金隅景和园 2室1厅 南",
    "community": "金隅景和园",
    "area": "84.48",
    "rooms": "2室1厅",
    "direction": "南",
    "floor": "",
    "price": "5600",
    "tags": "",
    "source": "",
    "url": "https://bj.lianjia.com/zufang/BJ2149071950155087872.html",
    "rent_type": "整租",
    "location": "朝阳区-东坝-金隅景和园",
    "scraped_at": "2026-05-02 20:39:11",
    "region": "东坝",
    "unit_price": 66.3,
    "lat": 39.953542,
    "lng": 116.5316
  },
  {
    "title": "整租·金泽家园C区 3室1厅 南/北",
    "community": "金泽家园C区",
    "area": "106.56",
    "rooms": "3室1厅",
    "direction": "南/北",
    "floor": "",
    "price": "4500",
    "tags": "",
    "source": "",
    "url": "https://bj.lianjia.com/zufang/BJ2155947186372739072.html",
    "rent_type": "整租",
    "location": "朝阳区-东坝-金泽家园",
    "scraped_at": "2026-05-02 20:39:14",
    "region": "东坝",
    "unit_price": 42.2,
    "lat": 39.959294,
    "lng": 116.558024
  },
  {
    "title": "整租·恒大江湾 2室1厅 西/北",
    "community": "恒大江湾",
    "area": "90.00",
    "rooms": "2室1厅",
    "direction": "西/北",
    "floor": "",
    "price": "5800",
    "tags": "",
    "source": "",
    "url": "https://bj.lianjia.com/zufang/BJ2124103174351486976.html",
    "rent_type": "整租",
    "location": "朝阳区-东坝-恒大江湾",
    "scraped_at": "2026-05-02 20:39:11",
    "region": "东坝",
    "unit_price": 64.4,
    "lat": 39.969646,
    "lng": 116.527618
  },
  {
    "title": "整租·和悦园 2室1厅 南/北",
    "community": "和悦园",
    "area": "78.53",
    "rooms": "2室1厅",
    "direction": "南/北",
    "floor": "",
    "price": "5500",
    "tags": "",
    "source": "",
    "url": "https://bj.lianjia.com/zufang/BJ2146533901172998144.html",
    "rent_type": "整租",
    "location": "朝阳区-东坝-和悦园",
    "scraped_at": "2026-05-02 20:39:11",
    "region": "东坝",
    "unit_price": 70.0,
    "lat": 39.957947,
    "lng": 116.574888
  },
  {
    "title": "整租·首开常青藤四期 4室2厅 南/北",
    "community": "首开常青藤四期",
    "area": "169.01",
    "rooms": "4室2厅",
    "direction": "南/北",
    "floor": "",
    "price": "16000",
    "tags": "",
    "source": "",
    "url": "https://bj.lianjia.com/zufang/BJ2108768049627660288.html",
    "rent_type": "整租",
    "location": "朝阳区-东坝-首开常青藤四期",
    "scraped_at": "2026-05-02 20:39:11",
    "region": "东坝",
    "unit_price": 94.7,
    "lat": 39.962783,
    "lng": 116.531153
  },
  {
    "title": "整租·保利首开丽湾家园 2室1厅 东/西",
    "community": "保利首开丽湾家园",
    "area": "88.44",
    "rooms": "2室1厅",
    "direction": "东/西",
    "floor": "",
    "price": "6000",
    "tags": "",
    "source": "",
    "url": "https://bj.lianjia.com/zufang/BJ2158827335250345984.html",
    "rent_type": "整租",
    "location": "朝阳区-东坝-保利首开丽湾家园",
    "scraped_at": "2026-05-02 20:39:14",
    "region": "东坝",
    "unit_price": 67.8,
    "lat": 39.9672,
    "lng": 116.5135
  },
  {
    "title": "整租·福润四季A区 2室1厅 南/北",
    "community": "福润四季A区",
    "area": "74.43",
    "rooms": "2室1厅",
    "direction": "南/北",
    "floor": "",
    "price": "4500",
    "tags": "",
    "source": "",
    "url": "https://bj.lianjia.com/zufang/BJ1933921852132950016.html",
    "rent_type": "整租",
    "location": "朝阳区-东坝-福润四季",
    "scraped_at": "2026-05-02 20:39:57",
    "region": "东坝",
    "unit_price": 60.5,
    "lat": 39.957221,
    "lng": 116.572019
  },
  {
    "title": "整租·华纺星海家园 1室1厅 南",
    "community": "华纺星海家园",
    "area": "56.74",
    "rooms": "1室1厅",
    "direction": "南",
    "floor": "",
    "price": "4200",
    "tags": "",
    "source": "",
    "url": "https://bj.lianjia.com/zufang/BJ2159693005680803840.html",
    "rent_type": "整租",
    "location": "朝阳区-东坝-华纺星海家园",
    "scraped_at": "2026-05-02 20:39:14",
    "region": "东坝",
    "unit_price": 74.0,
    "lat": 39.960428,
    "lng": 116.568485
  },
  {
    "title": "独栋·小满公寓 东坝地铁站店 3号线东坝南站500米 1室1厅",
    "community": "小满公寓 东坝地铁站店 3号线东坝南站500米",
    "area": "20.00",
    "rooms": "1室1厅",
    "direction": "",
    "floor": "",
    "price": "3300",
    "tags": "",
    "source": "",
    "url": "https://bj.lianjia.com/apartment/105303.html",
    "rent_type": "独栋",
    "location": "",
    "scraped_at": "2026-05-02 20:39:11",
    "region": "东坝",
    "unit_price": 165.0,
    "lat": 39.945158,
    "lng": 116.500045
  },
  {
    "title": "整租·金隅悦和园 2室1厅 南",
    "community": "金隅悦和园",
    "area": "78.38",
    "rooms": "2室1厅",
    "direction": "南",
    "floor": "",
    "price": "5400",
    "tags": "",
    "source": "",
    "url": "https://bj.lianjia.com/zufang/BJ1772596265708683264.html",
    "rent_type": "整租",
    "location": "朝阳区-东坝-金隅悦和园",
    "scraped_at": "2026-05-02 20:40:09",
    "region": "东坝",
    "unit_price": 68.9,
    "lat": 39.956566,
    "lng": 116.530868
  },
  {
    "title": "整租·朝新嘉园东里四区 2室1厅 南",
    "community": "朝新嘉园东里四区",
    "area": "95.64",
    "rooms": "2室1厅",
    "direction": "南",
    "floor": "",
    "price": "5600",
    "tags": "",
    "source": "",
    "url": "https://bj.lianjia.com/zufang/BJ2160224742198476800.html",
    "rent_type": "整租",
    "location": "朝阳区-东坝-朝新嘉园东里四区",
    "scraped_at": "2026-05-02 20:39:14",
    "region": "东坝",
    "unit_price": 58.6,
    "lat": 39.945236,
    "lng": 116.548868
  },
  {
    "title": "整租·华纺星海家园 1室1厅 南",
    "community": "华纺星海家园",
    "area": "55.72",
    "rooms": "1室1厅",
    "direction": "南",
    "floor": "",
    "price": "4200",
    "tags": "",
    "source": "",
    "url": "https://bj.lianjia.com/zufang/BJ2146458910435835904.html",
    "rent_type": "整租",
    "location": "朝阳区-东坝-华纺星海家园",
    "scraped_at": "2026-05-02 20:39:14",
    "region": "东坝",
    "unit_price": 75.4,
    "lat": 39.960428,
    "lng": 116.568485
  },
  {
    "title": "整租·东泽园 1室1厅 东",
    "community": "东泽园",
    "area": "60.11",
    "rooms": "1室1厅",
    "direction": "东",
    "floor": "",
    "price": "3900",
    "tags": "",
    "source": "",
    "url": "https://bj.lianjia.com/zufang/BJ2059655866650460160.html",
    "rent_type": "整租",
    "location": "朝阳区-东坝-东泽园",
    "scraped_at": "2026-05-02 20:39:14",
    "region": "东坝",
    "unit_price": 64.9,
    "lat": 39.959275,
    "lng": 116.55216
  },
  {
    "title": "整租·东泽园 1室1厅 东",
    "community": "东泽园",
    "area": "57.57",
    "rooms": "1室1厅",
    "direction": "东",
    "floor": "",
    "price": "4300",
    "tags": "",
    "source": "",
    "url": "https://bj.lianjia.com/zufang/BJ2146542248475492352.html",
    "rent_type": "整租",
    "location": "朝阳区-东坝-东泽园",
    "scraped_at": "2026-05-02 20:39:14",
    "region": "东坝",
    "unit_price": 74.7,
    "lat": 39.959275,
    "lng": 116.55216
  },
  {
    "title": "整租·保利首开丽湾家园 2室1厅 南/北",
    "community": "保利首开丽湾家园",
    "area": "89.46",
    "rooms": "2室1厅",
    "direction": "南/北",
    "floor": "",
    "price": "6000",
    "tags": "",
    "source": "",
    "url": "https://bj.lianjia.com/zufang/BJ2143032699403632640.html",
    "rent_type": "整租",
    "location": "朝阳区-东坝-保利首开丽湾家园",
    "scraped_at": "2026-05-02 20:39:14",
    "region": "东坝",
    "unit_price": 67.1,
    "lat": 39.9672,
    "lng": 116.5135
  },
  {
    "title": "整租·富东嘉园 2室1厅 东南",
    "community": "富东嘉园",
    "area": "78.77",
    "rooms": "2室1厅",
    "direction": "东南",
    "floor": "",
    "price": "5500",
    "tags": "",
    "source": "",
    "url": "https://bj.lianjia.com/zufang/BJ2139037772625739776.html",
    "rent_type": "整租",
    "location": "朝阳区-东坝-富东嘉园",
    "scraped_at": "2026-05-02 20:39:14",
    "region": "东坝",
    "unit_price": 69.8,
    "lat": 39.945326,
    "lng": 116.546368
  },
  {
    "title": "独栋·万家·公寓 东坝店 0服务费 3号线东坝南 500米 带小院 可养猫狗 周围设施便利 1室1厅",
    "community": "万家·公寓 东坝店 0服务费 3号线东坝南 500米 带小院 可养猫狗 周围设施便利",
    "area": "30.00",
    "rooms": "1室1厅",
    "direction": "",
    "floor": "",
    "price": "3200-3300",
    "tags": "",
    "source": "",
    "url": "https://bj.lianjia.com/apartment/105943.html",
    "rent_type": "独栋",
    "location": "",
    "scraped_at": "2026-05-02 20:39:17",
    "region": "东坝",
    "unit_price": "",
    "lat": 39.83389,
    "lng": 116.29084
  },
  {
    "title": "整租·东泽园 1室1厅 东/西北",
    "community": "东泽园",
    "area": "58.11",
    "rooms": "1室1厅",
    "direction": "东/西北",
    "floor": "",
    "price": "3800",
    "tags": "",
    "source": "",
    "url": "https://bj.lianjia.com/zufang/BJ1870139496213774336.html",
    "rent_type": "整租",
    "location": "朝阳区-东坝-东泽园",
    "scraped_at": "2026-05-02 20:39:14",
    "region": "东坝",
    "unit_price": 65.4,
    "lat": 39.959275,
    "lng": 116.55216
  },
  {
    "title": "整租·金泽家园B区 1室1厅 南",
    "community": "金泽家园B区",
    "area": "56.10",
    "rooms": "1室1厅",
    "direction": "南",
    "floor": "",
    "price": "4100",
    "tags": "",
    "source": "",
    "url": "https://bj.lianjia.com/zufang/BJ2160312671499452416.html",
    "rent_type": "整租",
    "location": "朝阳区-东坝-金泽家园",
    "scraped_at": "2026-05-02 20:39:14",
    "region": "东坝",
    "unit_price": 73.1,
    "lat": 39.959294,
    "lng": 116.558024
  },
  {
    "title": "整租·红松园小区 2室1厅 东北",
    "community": "红松园小区",
    "area": "54.00",
    "rooms": "2室1厅",
    "direction": "东北",
    "floor": "",
    "price": "3360",
    "tags": "",
    "source": "",
    "url": "https://bj.lianjia.com/zufang/BJ1906277809702043648.html",
    "rent_type": "整租",
    "location": "朝阳区-东坝-红松园小区",
    "scraped_at": "2026-05-02 20:39:57",
    "region": "东坝",
    "unit_price": 62.2,
    "lat": 39.962236,
    "lng": 116.549548
  },
  {
    "title": "整租·首开常青藤一期 3室1厅 南/北",
    "community": "首开常青藤一期",
    "area": "92.38",
    "rooms": "3室1厅",
    "direction": "南/北",
    "floor": "",
    "price": "7800",
    "tags": "",
    "source": "",
    "url": "https://bj.lianjia.com/zufang/BJ2158519743449923584.html",
    "rent_type": "整租",
    "location": "朝阳区-东坝-首开常青藤一期",
    "scraped_at": "2026-05-02 20:39:14",
    "region": "东坝",
    "unit_price": 84.4,
    "lat": 39.962783,
    "lng": 116.531153
  },
  {
    "title": "整租·红松园1号院 2室1厅 南/北",
    "community": "红松园1号院",
    "area": "54.65",
    "rooms": "2室1厅",
    "direction": "南/北",
    "floor": "",
    "price": "3500",
    "tags": "",
    "source": "",
    "url": "https://bj.lianjia.com/zufang/BJ1988090755515678720.html",
    "rent_type": "整租",
    "location": "朝阳区-东坝-红松园",
    "scraped_at": "2026-05-02 20:39:32",
    "region": "东坝",
    "unit_price": 64.0,
    "lat": 39.961243,
    "lng": 116.549478
  },
  {
    "title": "整租·利锦府 2室2厅 东南",
    "community": "利锦府",
    "area": "79.91",
    "rooms": "2室2厅",
    "direction": "东南",
    "floor": "",
    "price": "5500",
    "tags": "",
    "source": "",
    "url": "https://bj.lianjia.com/zufang/BJ2154193814737125376.html",
    "rent_type": "整租",
    "location": "朝阳区-东坝-利锦府",
    "scraped_at": "2026-05-02 20:39:14",
    "region": "东坝",
    "unit_price": 68.8,
    "lat": 39.965783,
    "lng": 116.541917
  },
  {
    "title": "整租·保利首开丽湾家园 3室1厅 南",
    "community": "保利首开丽湾家园",
    "area": "88.33",
    "rooms": "3室1厅",
    "direction": "南",
    "floor": "",
    "price": "6000",
    "tags": "",
    "source": "",
    "url": "https://bj.lianjia.com/zufang/BJ2149880653527646208.html",
    "rent_type": "整租",
    "location": "朝阳区-东坝-保利首开丽湾家园",
    "scraped_at": "2026-05-02 20:39:14",
    "region": "东坝",
    "unit_price": 67.9,
    "lat": 39.9672,
    "lng": 116.5135
  },
  {
    "title": "整租·红松园1号院 1室1厅 南",
    "community": "红松园1号院",
    "area": "31.43",
    "rooms": "1室1厅",
    "direction": "南",
    "floor": "",
    "price": "3300",
    "tags": "",
    "source": "",
    "url": "https://bj.lianjia.com/zufang/BJ2146943489496055808.html",
    "rent_type": "整租",
    "location": "朝阳区-东坝-红松园",
    "scraped_at": "2026-05-02 20:40:09",
    "region": "东坝",
    "unit_price": 105.0,
    "lat": 39.961243,
    "lng": 116.549478
  },
  {
    "title": "整租·首开常青藤四期 3室1厅 南/北",
    "community": "首开常青藤四期",
    "area": "93.44",
    "rooms": "3室1厅",
    "direction": "南/北",
    "floor": "",
    "price": "9200",
    "tags": "",
    "source": "",
    "url": "https://bj.lianjia.com/zufang/BJ2153039293797367808.html",
    "rent_type": "整租",
    "location": "朝阳区-东坝-首开常青藤四期",
    "scraped_at": "2026-05-02 20:39:14",
    "region": "东坝",
    "unit_price": 98.5,
    "lat": 39.962783,
    "lng": 116.531153
  },
  {
    "title": "整租·和悦园 1室1厅 南",
    "community": "和悦园",
    "area": "63.72",
    "rooms": "1室1厅",
    "direction": "南",
    "floor": "",
    "price": "4600",
    "tags": "",
    "source": "",
    "url": "https://bj.lianjia.com/zufang/BJ2152704898553085952.html",
    "rent_type": "整租",
    "location": "朝阳区-东坝-和悦园",
    "scraped_at": "2026-05-02 20:39:14",
    "region": "东坝",
    "unit_price": 72.2,
    "lat": 39.957947,
    "lng": 116.574888
  },
  {
    "title": "整租·首开常青藤四期 3室1厅 南/北",
    "community": "首开常青藤四期",
    "area": "90.70",
    "rooms": "3室1厅",
    "direction": "南/北",
    "floor": "",
    "price": "8000",
    "tags": "",
    "source": "",
    "url": "https://bj.lianjia.com/zufang/BJ2146838448428810240.html",
    "rent_type": "整租",
    "location": "朝阳区-东坝-首开常青藤四期",
    "scraped_at": "2026-05-02 20:39:14",
    "region": "东坝",
    "unit_price": 88.2,
    "lat": 39.962783,
    "lng": 116.531153
  },
  {
    "title": "整租·汇景苑三区 2室1厅 南",
    "community": "汇景苑三区",
    "area": "86.87",
    "rooms": "2室1厅",
    "direction": "南",
    "floor": "",
    "price": "6200",
    "tags": "",
    "source": "",
    "url": "https://bj.lianjia.com/zufang/BJ2139020202304602112.html",
    "rent_type": "整租",
    "location": "朝阳区-东坝-汇景苑三区",
    "scraped_at": "2026-05-02 20:39:14",
    "region": "东坝",
    "unit_price": 71.4,
    "lat": 39.952706,
    "lng": 116.531718
  },
  {
    "title": "整租·福润四季A区 1室1厅 南",
    "community": "福润四季A区",
    "area": "61.00",
    "rooms": "1室1厅",
    "direction": "南",
    "floor": "",
    "price": "4200",
    "tags": "",
    "source": "",
    "url": "https://bj.lianjia.com/zufang/BJ2157361961287811072.html",
    "rent_type": "整租",
    "location": "朝阳区-东坝-福润四季",
    "scraped_at": "2026-05-02 20:39:14",
    "region": "东坝",
    "unit_price": 68.9,
    "lat": 39.957221,
    "lng": 116.572019
  },
  {
    "title": "整租·金驹家园F区 1室1厅 南",
    "community": "金驹家园F区",
    "area": "55.00",
    "rooms": "1室1厅",
    "direction": "南",
    "floor": "",
    "price": "4100",
    "tags": "",
    "source": "",
    "url": "https://bj.lianjia.com/zufang/BJ2156332895277416448.html",
    "rent_type": "整租",
    "location": "朝阳区-东坝-金驹家园",
    "scraped_at": "2026-05-02 20:39:14",
    "region": "东坝",
    "unit_price": 74.5,
    "lat": 39.960081,
    "lng": 116.558231
  },
  {
    "title": "整租·福润四季A区 2室1厅 南",
    "community": "福润四季A区",
    "area": "75.19",
    "rooms": "2室1厅",
    "direction": "南",
    "floor": "",
    "price": "4600",
    "tags": "",
    "source": "",
    "url": "https://bj.lianjia.com/zufang/BJ2156013758994972672.html",
    "rent_type": "整租",
    "location": "朝阳区-东坝-福润四季",
    "scraped_at": "2026-05-02 20:39:17",
    "region": "东坝",
    "unit_price": 61.2,
    "lat": 39.957221,
    "lng": 116.572019
  },
  {
    "title": "整租·坝鑫家园 2室1厅 南",
    "community": "坝鑫家园",
    "area": "80.85",
    "rooms": "2室1厅",
    "direction": "南",
    "floor": "",
    "price": "7000",
    "tags": "",
    "source": "",
    "url": "https://bj.lianjia.com/zufang/BJ2132072140583731200.html",
    "rent_type": "整租",
    "location": "朝阳区-东坝-坝鑫家园",
    "scraped_at": "2026-05-02 20:39:17",
    "region": "东坝",
    "unit_price": 86.6,
    "lat": 39.967316,
    "lng": 116.526758
  },
  {
    "title": "整租·首开常青藤四期 2室1厅 南/北",
    "community": "首开常青藤四期",
    "area": "84.00",
    "rooms": "2室1厅",
    "direction": "南/北",
    "floor": "",
    "price": "8000",
    "tags": "",
    "source": "",
    "url": "https://bj.lianjia.com/zufang/BJ2157762577071865856.html",
    "rent_type": "整租",
    "location": "朝阳区-东坝-首开常青藤四期",
    "scraped_at": "2026-05-02 20:39:17",
    "region": "东坝",
    "unit_price": 95.2,
    "lat": 39.962783,
    "lng": 116.531153
  },
  {
    "title": "整租·首开常青藤四期 3室1厅 东/北",
    "community": "首开常青藤四期",
    "area": "93.10",
    "rooms": "3室1厅",
    "direction": "东/北",
    "floor": "",
    "price": "7600",
    "tags": "",
    "source": "",
    "url": "https://bj.lianjia.com/zufang/BJ2107461081323536384.html",
    "rent_type": "整租",
    "location": "朝阳区-东坝-首开常青藤四期",
    "scraped_at": "2026-05-02 20:39:17",
    "region": "东坝",
    "unit_price": 81.6,
    "lat": 39.962783,
    "lng": 116.531153
  },
  {
    "title": "独栋·天宇地产 东坝旗舰店 东坝精装独卫公寓全屋智能 开间",
    "community": "天宇地产 东坝旗舰店 东坝精装独卫公寓全屋智能 开间",
    "area": "15.00",
    "rooms": "",
    "direction": "",
    "floor": "",
    "price": "2500",
    "tags": "",
    "source": "",
    "url": "https://bj.lianjia.com/apartment/84221.html",
    "rent_type": "独栋",
    "location": "",
    "scraped_at": "2026-05-02 20:39:17",
    "region": "东坝",
    "unit_price": 166.7,
    "lat": 39.964627,
    "lng": 116.529562
  },
  {
    "title": "整租·金隅悦和园 1室1厅 东",
    "community": "金隅悦和园",
    "area": "60.94",
    "rooms": "1室1厅",
    "direction": "东",
    "floor": "",
    "price": "4200",
    "tags": "",
    "source": "",
    "url": "https://bj.lianjia.com/zufang/BJ2149829641857138688.html",
    "rent_type": "整租",
    "location": "朝阳区-东坝-金隅悦和园",
    "scraped_at": "2026-05-02 20:39:17",
    "region": "东坝",
    "unit_price": 68.9,
    "lat": 39.956566,
    "lng": 116.530868
  },
  {
    "title": "整租·金隅悦和园 1室1厅 南",
    "community": "金隅悦和园",
    "area": "60.69",
    "rooms": "1室1厅",
    "direction": "南",
    "floor": "",
    "price": "4500",
    "tags": "",
    "source": "",
    "url": "https://bj.lianjia.com/zufang/BJ2150811282293391360.html",
    "rent_type": "整租",
    "location": "朝阳区-东坝-金隅悦和园",
    "scraped_at": "2026-05-02 20:39:25",
    "region": "东坝",
    "unit_price": 74.1,
    "lat": 39.956566,
    "lng": 116.530868
  },
  {
    "title": "整租·利锦府 2室1厅 南",
    "community": "利锦府",
    "area": "55.00",
    "rooms": "2室1厅",
    "direction": "南",
    "floor": "",
    "price": "6000",
    "tags": "",
    "source": "",
    "url": "https://bj.lianjia.com/zufang/BJ2158193139695747072.html",
    "rent_type": "整租",
    "location": "朝阳区-东坝-利锦府",
    "scraped_at": "2026-05-02 20:39:17",
    "region": "东坝",
    "unit_price": 109.1,
    "lat": 39.965783,
    "lng": 116.541917
  },
  {
    "title": "整租·首开常青藤一期 3室1厅 南/北",
    "community": "首开常青藤一期",
    "area": "95.40",
    "rooms": "3室1厅",
    "direction": "南/北",
    "floor": "",
    "price": "7900",
    "tags": "",
    "source": "",
    "url": "https://bj.lianjia.com/zufang/BJ2130904907153145856.html",
    "rent_type": "整租",
    "location": "朝阳区-东坝-首开常青藤一期",
    "scraped_at": "2026-05-02 20:39:17",
    "region": "东坝",
    "unit_price": 82.8,
    "lat": 39.962783,
    "lng": 116.531153
  },
  {
    "title": "整租·金泽家园C区 2室1厅 南/北",
    "community": "金泽家园C区",
    "area": "79.63",
    "rooms": "2室1厅",
    "direction": "南/北",
    "floor": "",
    "price": "6500",
    "tags": "",
    "source": "",
    "url": "https://bj.lianjia.com/zufang/BJ2158025619202375680.html",
    "rent_type": "整租",
    "location": "朝阳区-东坝-金泽家园",
    "scraped_at": "2026-05-02 20:39:17",
    "region": "东坝",
    "unit_price": 81.6,
    "lat": 39.959294,
    "lng": 116.558024
  },
  {
    "title": "整租·金泰丽富嘉园北区 3房间 南",
    "community": "金泰丽富嘉园北区 3房间 南",
    "area": "78.33",
    "rooms": "",
    "direction": "",
    "floor": "",
    "price": "6300",
    "tags": "",
    "source": "",
    "url": "https://bj.lianjia.com/zufang/BJ2155691828802748416.html",
    "rent_type": "整租",
    "location": "朝阳区-东坝-金泰丽富嘉园北区",
    "scraped_at": "2026-05-02 20:39:17",
    "region": "东坝",
    "unit_price": 80.4,
    "lat": 39.956383,
    "lng": 116.543279
  },
  {
    "title": "整租·富东嘉园 3室1厅 东/西",
    "community": "富东嘉园",
    "area": "100.00",
    "rooms": "3室1厅",
    "direction": "东/西",
    "floor": "",
    "price": "5500",
    "tags": "",
    "source": "",
    "url": "https://bj.lianjia.com/zufang/BJ2146609450679533568.html",
    "rent_type": "整租",
    "location": "朝阳区-东坝-富东嘉园",
    "scraped_at": "2026-05-02 20:39:17",
    "region": "东坝",
    "unit_price": 55.0,
    "lat": 39.945326,
    "lng": 116.546368
  },
  {
    "title": "整租·首开畅颐园 1室1厅 南",
    "community": "首开畅颐园",
    "area": "58.00",
    "rooms": "1室1厅",
    "direction": "南",
    "floor": "",
    "price": "4800",
    "tags": "",
    "source": "",
    "url": "https://bj.lianjia.com/zufang/BJ2102360144271638528.html",
    "rent_type": "整租",
    "location": "朝阳区-东坝-首开畅颐园",
    "scraped_at": "2026-05-02 20:39:25",
    "region": "东坝",
    "unit_price": 82.8,
    "lat": 39.962783,
    "lng": 116.531153
  },
  {
    "title": "整租·恒大江湾 2室1厅 西南",
    "community": "恒大江湾",
    "area": "89.27",
    "rooms": "2室1厅",
    "direction": "西南",
    "floor": "",
    "price": "7200",
    "tags": "",
    "source": "",
    "url": "https://bj.lianjia.com/zufang/BJ2153412365905821696.html",
    "rent_type": "整租",
    "location": "朝阳区-东坝-恒大江湾",
    "scraped_at": "2026-05-02 20:39:25",
    "region": "东坝",
    "unit_price": 80.7,
    "lat": 39.969646,
    "lng": 116.527618
  },
  {
    "title": "独栋·月亮兔青年社区 鼎新科技东坝店 时尚一居室 开间",
    "community": "月亮兔青年社区 鼎新科技东坝店 时尚一居室 开间",
    "area": "30.00",
    "rooms": "",
    "direction": "",
    "floor": "",
    "price": "3300-3500",
    "tags": "",
    "source": "",
    "url": "https://bj.lianjia.com/apartment/107697.html",
    "rent_type": "独栋",
    "location": "",
    "scraped_at": "2026-05-02 20:39:22",
    "region": "东坝",
    "unit_price": "",
    "lat": 39.987386,
    "lng": 116.360128
  },
  {
    "title": "整租·首开常青藤二期 2室1厅 南/北",
    "community": "首开常青藤二期",
    "area": "94.30",
    "rooms": "2室1厅",
    "direction": "南/北",
    "floor": "",
    "price": "7900",
    "tags": "",
    "source": "",
    "url": "https://bj.lianjia.com/zufang/BJ2158884725551267840.html",
    "rent_type": "整租",
    "location": "朝阳区-东坝-首开常青藤二期",
    "scraped_at": "2026-05-02 20:39:25",
    "region": "东坝",
    "unit_price": 83.8,
    "lat": 39.962783,
    "lng": 116.531153
  },
  {
    "title": "整租·金泰丽富嘉园南区 2室1厅 南/北",
    "community": "金泰丽富嘉园南区",
    "area": "80.00",
    "rooms": "2室1厅",
    "direction": "南/北",
    "floor": "",
    "price": "5600",
    "tags": "",
    "source": "",
    "url": "https://bj.lianjia.com/zufang/BJ2151617932591890432.html",
    "rent_type": "整租",
    "location": "朝阳区-东坝-金泰丽富嘉园南区",
    "scraped_at": "2026-05-02 20:39:17",
    "region": "东坝",
    "unit_price": 70.0,
    "lat": 39.956383,
    "lng": 116.543279
  },
  {
    "title": "整租·恒大江湾 2室1厅 南",
    "community": "恒大江湾",
    "area": "90.00",
    "rooms": "2室1厅",
    "direction": "南",
    "floor": "",
    "price": "6500",
    "tags": "",
    "source": "",
    "url": "https://bj.lianjia.com/zufang/BJ2119426201691881472.html",
    "rent_type": "整租",
    "location": "朝阳区-东坝-恒大江湾",
    "scraped_at": "2026-05-02 20:39:25",
    "region": "东坝",
    "unit_price": 72.2,
    "lat": 39.969646,
    "lng": 116.527618
  },
  {
    "title": "整租·东泽园 3室2厅 南",
    "community": "东泽园",
    "area": "87.16",
    "rooms": "3室2厅",
    "direction": "南",
    "floor": "",
    "price": "6000",
    "tags": "",
    "source": "",
    "url": "https://bj.lianjia.com/zufang/BJ2137777191654522880.html",
    "rent_type": "整租",
    "location": "朝阳区-东坝-东泽园",
    "scraped_at": "2026-05-02 20:39:17",
    "region": "东坝",
    "unit_price": 68.8,
    "lat": 39.959275,
    "lng": 116.55216
  },
  {
    "title": "整租·利锦府 3室1厅 南/北",
    "community": "利锦府",
    "area": "137.65",
    "rooms": "3室1厅",
    "direction": "南/北",
    "floor": "",
    "price": "14400",
    "tags": "",
    "source": "",
    "url": "https://bj.lianjia.com/zufang/BJ2124711711339446272.html",
    "rent_type": "整租",
    "location": "朝阳区-东坝-利锦府",
    "scraped_at": "2026-05-02 20:39:17",
    "region": "东坝",
    "unit_price": 104.6,
    "lat": 39.965783,
    "lng": 116.541917
  },
  {
    "title": "整租·金隅悦和园 2室1厅 南/北",
    "community": "金隅悦和园",
    "area": "79.54",
    "rooms": "2室1厅",
    "direction": "南/北",
    "floor": "",
    "price": "6000",
    "tags": "",
    "source": "",
    "url": "https://bj.lianjia.com/zufang/BJ2156970133367554048.html",
    "rent_type": "整租",
    "location": "朝阳区-东坝-金隅悦和园",
    "scraped_at": "2026-05-02 20:39:17",
    "region": "东坝",
    "unit_price": 75.4,
    "lat": 39.956566,
    "lng": 116.530868
  },
  {
    "title": "整租·福润四季B区 1室1厅 东",
    "community": "福润四季B区",
    "area": "57.64",
    "rooms": "1室1厅",
    "direction": "东",
    "floor": "",
    "price": "4100",
    "tags": "",
    "source": "",
    "url": "https://bj.lianjia.com/zufang/BJ2156317078343122944.html",
    "rent_type": "整租",
    "location": "朝阳区-东坝-福润四季",
    "scraped_at": "2026-05-02 20:39:17",
    "region": "东坝",
    "unit_price": 71.1,
    "lat": 39.957221,
    "lng": 116.572019
  },
  {
    "title": "整租·汇景苑三区 2室1厅 南",
    "community": "汇景苑三区",
    "area": "87.00",
    "rooms": "2室1厅",
    "direction": "南",
    "floor": "",
    "price": "5600",
    "tags": "",
    "source": "",
    "url": "https://bj.lianjia.com/zufang/BJ2160254824417853440.html",
    "rent_type": "整租",
    "location": "朝阳区-东坝-汇景苑三区",
    "scraped_at": "2026-05-02 20:39:20",
    "region": "东坝",
    "unit_price": 64.4,
    "lat": 39.952706,
    "lng": 116.531718
  },
  {
    "title": "整租·金泰丽富嘉园南区 2室1厅 南",
    "community": "金泰丽富嘉园南区",
    "area": "77.72",
    "rooms": "2室1厅",
    "direction": "南",
    "floor": "",
    "price": "5600",
    "tags": "",
    "source": "",
    "url": "https://bj.lianjia.com/zufang/BJ2137485949070737408.html",
    "rent_type": "整租",
    "location": "朝阳区-东坝-金泰丽富嘉园南区",
    "scraped_at": "2026-05-02 20:39:20",
    "region": "东坝",
    "unit_price": 72.1,
    "lat": 39.956383,
    "lng": 116.543279
  },
  {
    "title": "整租·汇景苑二区 2室1厅 南/北",
    "community": "汇景苑二区",
    "area": "81.10",
    "rooms": "2室1厅",
    "direction": "南/北",
    "floor": "",
    "price": "6000",
    "tags": "",
    "source": "",
    "url": "https://bj.lianjia.com/zufang/BJ2079067755847352320.html",
    "rent_type": "整租",
    "location": "朝阳区-东坝-汇景苑二区",
    "scraped_at": "2026-05-02 20:39:25",
    "region": "东坝",
    "unit_price": 74.0,
    "lat": 39.952706,
    "lng": 116.531718
  },
  {
    "title": "整租·金泰丽富嘉园北区 2室1厅 南/北",
    "community": "金泰丽富嘉园北区",
    "area": "80.00",
    "rooms": "2室1厅",
    "direction": "南/北",
    "floor": "",
    "price": "5500",
    "tags": "",
    "source": "",
    "url": "https://bj.lianjia.com/zufang/BJ2137776653886029824.html",
    "rent_type": "整租",
    "location": "朝阳区-东坝-金泰丽富嘉园北区",
    "scraped_at": "2026-05-02 20:39:20",
    "region": "东坝",
    "unit_price": 68.8,
    "lat": 39.956383,
    "lng": 116.543279
  },
  {
    "title": "整租·恒大江湾 2室1厅 西",
    "community": "恒大江湾",
    "area": "86.99",
    "rooms": "2室1厅",
    "direction": "西",
    "floor": "",
    "price": "6500",
    "tags": "",
    "source": "",
    "url": "https://bj.lianjia.com/zufang/BJ2152274440010858496.html",
    "rent_type": "整租",
    "location": "朝阳区-东坝-恒大江湾",
    "scraped_at": "2026-05-02 20:39:25",
    "region": "东坝",
    "unit_price": 74.7,
    "lat": 39.969646,
    "lng": 116.527618
  },
  {
    "title": "整租·保利首开丽湾家园 1室1厅 东",
    "community": "保利首开丽湾家园",
    "area": "79.92",
    "rooms": "1室1厅",
    "direction": "东",
    "floor": "",
    "price": "5500",
    "tags": "",
    "source": "",
    "url": "https://bj.lianjia.com/zufang/BJ2147265831296303104.html",
    "rent_type": "整租",
    "location": "朝阳区-东坝-保利首开丽湾家园",
    "scraped_at": "2026-05-02 20:39:20",
    "region": "东坝",
    "unit_price": 68.8,
    "lat": 39.9672,
    "lng": 116.5135
  },
  {
    "title": "整租·首开畅颐园 1室1厅 东南",
    "community": "首开畅颐园",
    "area": "58.58",
    "rooms": "1室1厅",
    "direction": "东南",
    "floor": "",
    "price": "3900",
    "tags": "",
    "source": "",
    "url": "https://bj.lianjia.com/zufang/BJ2152023650134392832.html",
    "rent_type": "整租",
    "location": "朝阳区-东坝-首开畅颐园",
    "scraped_at": "2026-05-02 20:39:25",
    "region": "东坝",
    "unit_price": 66.6,
    "lat": 39.962783,
    "lng": 116.531153
  },
  {
    "title": "整租·首开常青藤三期 3室1厅 南",
    "community": "首开常青藤三期",
    "area": "94.84",
    "rooms": "3室1厅",
    "direction": "南",
    "floor": "",
    "price": "9000",
    "tags": "",
    "source": "",
    "url": "https://bj.lianjia.com/zufang/BJ2111323264801308672.html",
    "rent_type": "整租",
    "location": "朝阳区-东坝-首开常青藤三期",
    "scraped_at": "2026-05-02 20:39:25",
    "region": "东坝",
    "unit_price": 94.9,
    "lat": 39.962783,
    "lng": 116.531153
  },
  {
    "title": "整租·首城东郡汇 2室1厅 东/西北",
    "community": "首城东郡汇",
    "area": "87.22",
    "rooms": "2室1厅",
    "direction": "东/西北",
    "floor": "",
    "price": "6700",
    "tags": "",
    "source": "",
    "url": "https://bj.lianjia.com/zufang/BJ2143324233445408768.html",
    "rent_type": "整租",
    "location": "朝阳区-东坝-首城东郡汇",
    "scraped_at": "2026-05-02 20:39:20",
    "region": "东坝",
    "unit_price": 76.8,
    "lat": 39.968985,
    "lng": 116.523883
  },
  {
    "title": "整租·金隅景和园 1室1厅 南",
    "community": "金隅景和园",
    "area": "60.20",
    "rooms": "1室1厅",
    "direction": "南",
    "floor": "",
    "price": "4700",
    "tags": "",
    "source": "",
    "url": "https://bj.lianjia.com/zufang/BJ2146265484889161728.html",
    "rent_type": "整租",
    "location": "朝阳区-东坝-金隅景和园",
    "scraped_at": "2026-05-02 20:39:20",
    "region": "东坝",
    "unit_price": 78.1,
    "lat": 39.953542,
    "lng": 116.5316
  },
  {
    "title": "整租·首开畅颐园 1室1厅 西",
    "community": "首开畅颐园",
    "area": "57.97",
    "rooms": "1室1厅",
    "direction": "西",
    "floor": "",
    "price": "5100",
    "tags": "",
    "source": "",
    "url": "https://bj.lianjia.com/zufang/BJ2159579203329064960.html",
    "rent_type": "整租",
    "location": "朝阳区-东坝-首开畅颐园",
    "scraped_at": "2026-05-02 20:39:20",
    "region": "东坝",
    "unit_price": 88.0,
    "lat": 39.962783,
    "lng": 116.531153
  },
  {
    "title": "整租·兴盛怡景苑 2室1厅 东/西",
    "community": "兴盛怡景苑",
    "area": "86.41",
    "rooms": "2室1厅",
    "direction": "东/西",
    "floor": "",
    "price": "6500",
    "tags": "",
    "source": "",
    "url": "https://bj.lianjia.com/zufang/BJ2153757174197649408.html",
    "rent_type": "整租",
    "location": "朝阳区-东坝-兴盛怡景苑",
    "scraped_at": "2026-05-02 20:39:20",
    "region": "东坝",
    "unit_price": 75.2,
    "lat": 39.9672,
    "lng": 116.5135
  },
  {
    "title": "整租·首开常青藤三期 3室1厅 南/北",
    "community": "首开常青藤三期",
    "area": "94.84",
    "rooms": "3室1厅",
    "direction": "南/北",
    "floor": "",
    "price": "8500",
    "tags": "",
    "source": "",
    "url": "https://bj.lianjia.com/zufang/BJ2146850927712141312.html",
    "rent_type": "整租",
    "location": "朝阳区-东坝-首开常青藤三期",
    "scraped_at": "2026-05-02 20:39:25",
    "region": "东坝",
    "unit_price": 89.6,
    "lat": 39.962783,
    "lng": 116.531153
  },
  {
    "title": "整租·坝鑫家园 1室1厅 南",
    "community": "坝鑫家园",
    "area": "56.00",
    "rooms": "1室1厅",
    "direction": "南",
    "floor": "",
    "price": "4350",
    "tags": "",
    "source": "",
    "url": "https://bj.lianjia.com/zufang/BJ2140363949030244352.html",
    "rent_type": "整租",
    "location": "朝阳区-东坝-坝鑫家园",
    "scraped_at": "2026-05-02 20:39:20",
    "region": "东坝",
    "unit_price": 77.7,
    "lat": 39.967316,
    "lng": 116.526758
  },
  {
    "title": "整租·坝鑫家园 2室1厅 南",
    "community": "坝鑫家园",
    "area": "80.71",
    "rooms": "2室1厅",
    "direction": "南",
    "floor": "",
    "price": "5500",
    "tags": "",
    "source": "",
    "url": "https://bj.lianjia.com/zufang/BJ2124863105157562368.html",
    "rent_type": "整租",
    "location": "朝阳区-东坝-坝鑫家园",
    "scraped_at": "2026-05-02 20:39:20",
    "region": "东坝",
    "unit_price": 68.1,
    "lat": 39.967316,
    "lng": 116.526758
  },
  {
    "title": "整租·恒大华府 5室2厅 南/北",
    "community": "恒大华府",
    "area": "341.00",
    "rooms": "5室2厅",
    "direction": "南/北",
    "floor": "",
    "price": "50000",
    "tags": "",
    "source": "",
    "url": "https://bj.lianjia.com/zufang/BJ2141387666724225024.html",
    "rent_type": "整租",
    "location": "朝阳区-东坝-恒大华府",
    "scraped_at": "2026-05-02 20:39:20",
    "region": "东坝",
    "unit_price": 146.6,
    "lat": 39.969646,
    "lng": 116.527618
  },
  {
    "title": "整租·首开常青藤四期 3室1厅 南/北",
    "community": "首开常青藤四期",
    "area": "91.71",
    "rooms": "3室1厅",
    "direction": "南/北",
    "floor": "",
    "price": "8300",
    "tags": "",
    "source": "",
    "url": "https://bj.lianjia.com/zufang/BJ2161038539964284928.html",
    "rent_type": "整租",
    "location": "朝阳区-东坝-首开常青藤四期",
    "scraped_at": "2026-05-02 20:39:20",
    "region": "东坝",
    "unit_price": 90.5,
    "lat": 39.962783,
    "lng": 116.531153
  },
  {
    "title": "整租·利锦府 3房间 南/西南",
    "community": "利锦府 3房间 南/西南",
    "area": "56.00",
    "rooms": "",
    "direction": "",
    "floor": "",
    "price": "6500",
    "tags": "",
    "source": "",
    "url": "https://bj.lianjia.com/zufang/BJ2122965020655484928.html",
    "rent_type": "整租",
    "location": "朝阳区-东坝-利锦府",
    "scraped_at": "2026-05-02 20:39:20",
    "region": "东坝",
    "unit_price": 116.1,
    "lat": 39.965783,
    "lng": 116.541917
  },
  {
    "title": "整租·首开常青藤四期 2室2厅 南/北",
    "community": "首开常青藤四期",
    "area": "85.00",
    "rooms": "2室2厅",
    "direction": "南/北",
    "floor": "",
    "price": "8400",
    "tags": "",
    "source": "",
    "url": "https://bj.lianjia.com/zufang/BJ2148609409742274560.html",
    "rent_type": "整租",
    "location": "朝阳区-东坝-首开常青藤四期",
    "scraped_at": "2026-05-02 20:39:20",
    "region": "东坝",
    "unit_price": 98.8,
    "lat": 39.962783,
    "lng": 116.531153
  },
  {
    "title": "整租·金隅景和园 1室1厅 南",
    "community": "金隅景和园",
    "area": "61.10",
    "rooms": "1室1厅",
    "direction": "南",
    "floor": "",
    "price": "4400",
    "tags": "",
    "source": "",
    "url": "https://bj.lianjia.com/zufang/BJ2147900399695167488.html",
    "rent_type": "整租",
    "location": "朝阳区-东坝-金隅景和园",
    "scraped_at": "2026-05-02 20:39:20",
    "region": "东坝",
    "unit_price": 72.0,
    "lat": 39.953542,
    "lng": 116.5316
  },
  {
    "title": "整租·金隅悦和园 2室1厅 南",
    "community": "金隅悦和园",
    "area": "78.00",
    "rooms": "2室1厅",
    "direction": "南",
    "floor": "",
    "price": "5200",
    "tags": "",
    "source": "",
    "url": "https://bj.lianjia.com/zufang/BJ2159921613477249024.html",
    "rent_type": "整租",
    "location": "朝阳区-东坝-金隅悦和园",
    "scraped_at": "2026-05-02 20:39:20",
    "region": "东坝",
    "unit_price": 66.7,
    "lat": 39.956566,
    "lng": 116.530868
  },
  {
    "title": "整租·保利首开丽湾家园 2室1厅 东/西",
    "community": "保利首开丽湾家园",
    "area": "72.72",
    "rooms": "2室1厅",
    "direction": "东/西",
    "floor": "",
    "price": "5000",
    "tags": "",
    "source": "",
    "url": "https://bj.lianjia.com/zufang/BJ2159256396267257856.html",
    "rent_type": "整租",
    "location": "朝阳区-东坝-保利首开丽湾家园",
    "scraped_at": "2026-05-02 20:39:20",
    "region": "东坝",
    "unit_price": 68.8,
    "lat": 39.9672,
    "lng": 116.5135
  },
  {
    "title": "整租·金隅景和园 2室1厅 南/北",
    "community": "金隅景和园",
    "area": "95.00",
    "rooms": "2室1厅",
    "direction": "南/北",
    "floor": "",
    "price": "6200",
    "tags": "",
    "source": "",
    "url": "https://bj.lianjia.com/zufang/BJ2156353522398920704.html",
    "rent_type": "整租",
    "location": "朝阳区-东坝-金隅景和园",
    "scraped_at": "2026-05-02 20:39:20",
    "region": "东坝",
    "unit_price": 65.3,
    "lat": 39.953542,
    "lng": 116.5316
  },
  {
    "title": "整租·首开畅颐园 1室1厅 东南",
    "community": "首开畅颐园",
    "area": "58.58",
    "rooms": "1室1厅",
    "direction": "东南",
    "floor": "",
    "price": "5200",
    "tags": "",
    "source": "",
    "url": "https://bj.lianjia.com/zufang/BJ2159578515899416576.html",
    "rent_type": "整租",
    "location": "朝阳区-东坝-首开畅颐园",
    "scraped_at": "2026-05-02 20:39:20",
    "region": "东坝",
    "unit_price": 88.8,
    "lat": 39.962783,
    "lng": 116.531153
  },
  {
    "title": "整租·首开常青藤二期 3室1厅 南/北",
    "community": "首开常青藤二期",
    "area": "95.00",
    "rooms": "3室1厅",
    "direction": "南/北",
    "floor": "",
    "price": "8500",
    "tags": "",
    "source": "",
    "url": "https://bj.lianjia.com/zufang/BJ2151255705187778560.html",
    "rent_type": "整租",
    "location": "朝阳区-东坝-首开常青藤二期",
    "scraped_at": "2026-05-02 20:39:20",
    "region": "东坝",
    "unit_price": 89.5,
    "lat": 39.962783,
    "lng": 116.531153
  },
  {
    "title": "整租·朝新嘉园东里四区 2室1厅 南",
    "community": "朝新嘉园东里四区",
    "area": "95.96",
    "rooms": "2室1厅",
    "direction": "南",
    "floor": "",
    "price": "6500",
    "tags": "",
    "source": "",
    "url": "https://bj.lianjia.com/zufang/BJ2158058480659857408.html",
    "rent_type": "整租",
    "location": "朝阳区-东坝-朝新嘉园东里四区",
    "scraped_at": "2026-05-02 20:39:25",
    "region": "东坝",
    "unit_price": 67.7,
    "lat": 39.945236,
    "lng": 116.548868
  },
  {
    "title": "整租·恒大江湾 1室1厅 西",
    "community": "恒大江湾",
    "area": "53.02",
    "rooms": "1室1厅",
    "direction": "西",
    "floor": "",
    "price": "4930",
    "tags": "",
    "source": "",
    "url": "https://bj.lianjia.com/zufang/BJ1869579741019766784.html",
    "rent_type": "整租",
    "location": "朝阳区-东坝-恒大江湾",
    "scraped_at": "2026-05-02 20:39:22",
    "region": "东坝",
    "unit_price": 93.0,
    "lat": 39.969646,
    "lng": 116.527618
  },
  {
    "title": "整租·金隅悦和园 3室1厅 南/北",
    "community": "金隅悦和园",
    "area": "88.10",
    "rooms": "3室1厅",
    "direction": "南/北",
    "floor": "",
    "price": "5500",
    "tags": "",
    "source": "",
    "url": "https://bj.lianjia.com/zufang/BJ2157780618585309184.html",
    "rent_type": "整租",
    "location": "朝阳区-东坝-金隅悦和园",
    "scraped_at": "2026-05-02 20:39:22",
    "region": "东坝",
    "unit_price": 62.4,
    "lat": 39.956566,
    "lng": 116.530868
  },
  {
    "title": "整租·奥林匹克花园三期 2室1厅 南/北",
    "community": "奥林匹克花园三期",
    "area": "109.21",
    "rooms": "2室1厅",
    "direction": "南/北",
    "floor": "",
    "price": "9300",
    "tags": "",
    "source": "",
    "url": "https://bj.lianjia.com/zufang/BJ2086301260029362176.html",
    "rent_type": "整租",
    "location": "朝阳区-东坝-奥林匹克花园三期",
    "scraped_at": "2026-05-02 20:39:22",
    "region": "东坝",
    "unit_price": 85.2,
    "lat": 39.957374,
    "lng": 116.539304
  },
  {
    "title": "整租·首开常青藤三期 2室1厅 南/北",
    "community": "首开常青藤三期",
    "area": "83.27",
    "rooms": "2室1厅",
    "direction": "南/北",
    "floor": "",
    "price": "7800",
    "tags": "",
    "source": "",
    "url": "https://bj.lianjia.com/zufang/BJ2158972468067303424.html",
    "rent_type": "整租",
    "location": "朝阳区-东坝-首开常青藤三期",
    "scraped_at": "2026-05-02 20:39:22",
    "region": "东坝",
    "unit_price": 93.7,
    "lat": 39.962783,
    "lng": 116.531153
  },
  {
    "title": "整租·金隅悦和园 2室1厅 南/北",
    "community": "金隅悦和园",
    "area": "78.00",
    "rooms": "2室1厅",
    "direction": "南/北",
    "floor": "",
    "price": "5500",
    "tags": "",
    "source": "",
    "url": "https://bj.lianjia.com/zufang/BJ2144352630745333760.html",
    "rent_type": "整租",
    "location": "朝阳区-东坝-金隅悦和园",
    "scraped_at": "2026-05-02 20:39:22",
    "region": "东坝",
    "unit_price": 70.5,
    "lat": 39.956566,
    "lng": 116.530868
  },
  {
    "title": "整租·富东嘉园 2室1厅 东南",
    "community": "富东嘉园",
    "area": "98.52",
    "rooms": "2室1厅",
    "direction": "东南",
    "floor": "",
    "price": "6300",
    "tags": "",
    "source": "",
    "url": "https://bj.lianjia.com/zufang/BJ2060622600572239872.html",
    "rent_type": "整租",
    "location": "朝阳区-东坝-富东嘉园",
    "scraped_at": "2026-05-02 20:39:22",
    "region": "东坝",
    "unit_price": 63.9,
    "lat": 39.945326,
    "lng": 116.546368
  },
  {
    "title": "整租·金泰丽富嘉园北区 3房间 南/北",
    "community": "金泰丽富嘉园北区 3房间 南/北",
    "area": "80.56",
    "rooms": "",
    "direction": "",
    "floor": "",
    "price": "6500",
    "tags": "",
    "source": "",
    "url": "https://bj.lianjia.com/zufang/BJ2155712805892784128.html",
    "rent_type": "整租",
    "location": "朝阳区-东坝-金泰丽富嘉园北区",
    "scraped_at": "2026-05-02 20:39:22",
    "region": "东坝",
    "unit_price": 80.7,
    "lat": 39.956383,
    "lng": 116.543279
  },
  {
    "title": "整租·金驹家园E区 1室1厅 南",
    "community": "金驹家园E区",
    "area": "55.00",
    "rooms": "1室1厅",
    "direction": "南",
    "floor": "",
    "price": "4500",
    "tags": "",
    "source": "",
    "url": "https://bj.lianjia.com/zufang/BJ2149794916094443520.html",
    "rent_type": "整租",
    "location": "朝阳区-东坝-金驹家园",
    "scraped_at": "2026-05-02 20:39:22",
    "region": "东坝",
    "unit_price": 81.8,
    "lat": 39.960081,
    "lng": 116.558231
  },
  {
    "title": "整租·首城珑玺 3室2厅 南/北",
    "community": "首城珑玺",
    "area": "200.00",
    "rooms": "3室2厅",
    "direction": "南/北",
    "floor": "",
    "price": "26000",
    "tags": "",
    "source": "",
    "url": "https://bj.lianjia.com/zufang/BJ2090673989176262656.html",
    "rent_type": "整租",
    "location": "朝阳区-东坝-首城珑玺",
    "scraped_at": "2026-05-02 20:39:22",
    "region": "东坝",
    "unit_price": 130.0,
    "lat": 39.967206,
    "lng": 116.523168
  },
  {
    "title": "整租·康静里 2室1厅 西",
    "community": "康静里",
    "area": "72.97",
    "rooms": "2室1厅",
    "direction": "西",
    "floor": "",
    "price": "5200",
    "tags": "",
    "source": "",
    "url": "https://bj.lianjia.com/zufang/BJ2145493064687288320.html",
    "rent_type": "整租",
    "location": "朝阳区-东坝-康静里",
    "scraped_at": "2026-05-02 20:39:22",
    "region": "东坝",
    "unit_price": 71.3,
    "lat": 39.960497,
    "lng": 116.526579
  },
  {
    "title": "整租·康静里 2室1厅 南/北",
    "community": "康静里",
    "area": "56.91",
    "rooms": "2室1厅",
    "direction": "南/北",
    "floor": "",
    "price": "5000",
    "tags": "",
    "source": "",
    "url": "https://bj.lianjia.com/zufang/BJ2093648957166059520.html",
    "rent_type": "整租",
    "location": "朝阳区-东坝-康静里",
    "scraped_at": "2026-05-02 20:39:22",
    "region": "东坝",
    "unit_price": 87.9,
    "lat": 39.960497,
    "lng": 116.526579
  },
  {
    "title": "整租·金隅悦和园 2室1厅 南",
    "community": "金隅悦和园",
    "area": "78.29",
    "rooms": "2室1厅",
    "direction": "南",
    "floor": "",
    "price": "5500",
    "tags": "",
    "source": "",
    "url": "https://bj.lianjia.com/zufang/BJ2128332819464716288.html",
    "rent_type": "整租",
    "location": "朝阳区-东坝-金隅悦和园",
    "scraped_at": "2026-05-02 20:39:22",
    "region": "东坝",
    "unit_price": 70.3,
    "lat": 39.956566,
    "lng": 116.530868
  },
  {
    "title": "整租·奥林匹克花园一期 3室2厅 南/北",
    "community": "奥林匹克花园一期",
    "area": "118.00",
    "rooms": "3室2厅",
    "direction": "南/北",
    "floor": "",
    "price": "12000",
    "tags": "",
    "source": "",
    "url": "https://bj.lianjia.com/zufang/BJ2139379994860716032.html",
    "rent_type": "整租",
    "location": "朝阳区-东坝-奥林匹克花园一期",
    "scraped_at": "2026-05-02 20:39:22",
    "region": "东坝",
    "unit_price": 101.7,
    "lat": 39.962356,
    "lng": 116.539217
  },
  {
    "title": "整租·首开龙湖天璞 4室2厅 南/北",
    "community": "首开龙湖天璞",
    "area": "131.92",
    "rooms": "4室2厅",
    "direction": "南/北",
    "floor": "",
    "price": "22000",
    "tags": "",
    "source": "",
    "url": "https://bj.lianjia.com/zufang/BJ2092583604935720960.html",
    "rent_type": "整租",
    "location": "朝阳区-东坝-首开龙湖天璞",
    "scraped_at": "2026-05-02 20:39:22",
    "region": "东坝",
    "unit_price": 166.8,
    "lat": 39.962783,
    "lng": 116.531153
  },
  {
    "title": "整租·首城东郡汇 2室1厅 东",
    "community": "首城东郡汇",
    "area": "86.37",
    "rooms": "2室1厅",
    "direction": "东",
    "floor": "",
    "price": "5500",
    "tags": "",
    "source": "",
    "url": "https://bj.lianjia.com/zufang/BJ2146917974701768704.html",
    "rent_type": "整租",
    "location": "朝阳区-东坝-首城东郡汇",
    "scraped_at": "2026-05-02 20:39:22",
    "region": "东坝",
    "unit_price": 63.7,
    "lat": 39.968985,
    "lng": 116.523883
  },
  {
    "title": "整租·朝阳新城五区 2室1厅 南/北",
    "community": "朝阳新城五区",
    "area": "88.00",
    "rooms": "2室1厅",
    "direction": "南/北",
    "floor": "",
    "price": "5300",
    "tags": "",
    "source": "",
    "url": "https://bj.lianjia.com/zufang/BJ2156337095948369920.html",
    "rent_type": "整租",
    "location": "朝阳区-东坝-朝阳新城五区",
    "scraped_at": "2026-05-02 20:39:22",
    "region": "东坝",
    "unit_price": 60.2,
    "lat": 39.948176,
    "lng": 116.550348
  },
  {
    "title": "整租·金驹家园F区 2室1厅 南/北",
    "community": "金驹家园F区",
    "area": "80.00",
    "rooms": "2室1厅",
    "direction": "南/北",
    "floor": "",
    "price": "4200",
    "tags": "",
    "source": "",
    "url": "https://bj.lianjia.com/zufang/BJ2152673538182479872.html",
    "rent_type": "整租",
    "location": "朝阳区-东坝-金驹家园",
    "scraped_at": "2026-05-02 20:39:22",
    "region": "东坝",
    "unit_price": 52.5,
    "lat": 39.960081,
    "lng": 116.558231
  },
  {
    "title": "整租·奥林匹克花园四期 2室1厅 南/北",
    "community": "奥林匹克花园四期",
    "area": "89.00",
    "rooms": "2室1厅",
    "direction": "南/北",
    "floor": "",
    "price": "7800",
    "tags": "",
    "source": "",
    "url": "https://bj.lianjia.com/zufang/BJ2149029250131296256.html",
    "rent_type": "整租",
    "location": "朝阳区-东坝-奥林匹克花园四期",
    "scraped_at": "2026-05-02 20:39:22",
    "region": "东坝",
    "unit_price": 87.6,
    "lat": 39.959073,
    "lng": 116.537068
  },
  {
    "title": "整租·高杨树南里 1室1厅 南",
    "community": "高杨树南里",
    "area": "50.00",
    "rooms": "1室1厅",
    "direction": "南",
    "floor": "",
    "price": "3200",
    "tags": "",
    "source": "",
    "url": "https://bj.lianjia.com/zufang/BJ2154511020914114560.html",
    "rent_type": "整租",
    "location": "朝阳区-东坝-高杨树南里",
    "scraped_at": "2026-05-02 20:39:22",
    "region": "东坝",
    "unit_price": 64.0,
    "lat": 39.946466,
    "lng": 116.545288
  },
  {
    "title": "整租·福润四季A区 2室1厅 南",
    "community": "福润四季A区",
    "area": "74.64",
    "rooms": "2室1厅",
    "direction": "南",
    "floor": "",
    "price": "5215",
    "tags": "",
    "source": "",
    "url": "https://bj.lianjia.com/zufang/BJ1939330768094363648.html",
    "rent_type": "整租",
    "location": "朝阳区-东坝-福润四季",
    "scraped_at": "2026-05-02 20:39:22",
    "region": "东坝",
    "unit_price": 69.9,
    "lat": 39.957221,
    "lng": 116.572019
  },
  {
    "title": "整租·金隅景和园六区 2室1厅 南",
    "community": "金隅景和园六区",
    "area": "86.66",
    "rooms": "2室1厅",
    "direction": "南",
    "floor": "",
    "price": "7430",
    "tags": "",
    "source": "",
    "url": "https://bj.lianjia.com/zufang/BJ1806065953360838656.html",
    "rent_type": "整租",
    "location": "朝阳区-东坝-金隅景和园六区",
    "scraped_at": "2026-05-02 20:39:22",
    "region": "东坝",
    "unit_price": 85.7,
    "lat": 39.950566,
    "lng": 116.549168
  },
  {
    "title": "整租·富东嘉园 2室1厅 南",
    "community": "富东嘉园",
    "area": "74.77",
    "rooms": "2室1厅",
    "direction": "南",
    "floor": "",
    "price": "5860",
    "tags": "",
    "source": "",
    "url": "https://bj.lianjia.com/zufang/BJ1794945622277619712.html",
    "rent_type": "整租",
    "location": "朝阳区-东坝-富东嘉园",
    "scraped_at": "2026-05-02 20:39:22",
    "region": "东坝",
    "unit_price": 78.4,
    "lat": 39.945326,
    "lng": 116.546368
  },
  {
    "title": "整租·金泰丽富嘉园北区 2室1厅 南",
    "community": "金泰丽富嘉园北区",
    "area": "79.98",
    "rooms": "2室1厅",
    "direction": "南",
    "floor": "",
    "price": "6430",
    "tags": "",
    "source": "",
    "url": "https://bj.lianjia.com/zufang/BJ1857855891622068224.html",
    "rent_type": "整租",
    "location": "朝阳区-东坝-金泰丽富嘉园北区",
    "scraped_at": "2026-05-02 20:39:22",
    "region": "东坝",
    "unit_price": 80.4,
    "lat": 39.956383,
    "lng": 116.543279
  },
  {
    "title": "整租·朝新嘉园东里四区 2室1厅 南",
    "community": "朝新嘉园东里四区",
    "area": "94.51",
    "rooms": "2室1厅",
    "direction": "南",
    "floor": "",
    "price": "5960",
    "tags": "",
    "source": "",
    "url": "https://bj.lianjia.com/zufang/BJ1894805442677178368.html",
    "rent_type": "整租",
    "location": "朝阳区-东坝-朝新嘉园东里四区",
    "scraped_at": "2026-05-02 20:39:22",
    "region": "东坝",
    "unit_price": 63.1,
    "lat": 39.945236,
    "lng": 116.548868
  },
  {
    "title": "整租·和悦园 2室1厅 南",
    "community": "和悦园",
    "area": "77.31",
    "rooms": "2室1厅",
    "direction": "南",
    "floor": "",
    "price": "5760",
    "tags": "",
    "source": "",
    "url": "https://bj.lianjia.com/zufang/BJ2000847020763381760.html",
    "rent_type": "整租",
    "location": "朝阳区-东坝-和悦园",
    "scraped_at": "2026-05-02 20:39:22",
    "region": "东坝",
    "unit_price": 74.5,
    "lat": 39.957947,
    "lng": 116.574888
  },
  {
    "title": "整租·福润四季A区 2室1厅 南",
    "community": "福润四季A区",
    "area": "75.01",
    "rooms": "2室1厅",
    "direction": "南",
    "floor": "",
    "price": "5460",
    "tags": "",
    "source": "",
    "url": "https://bj.lianjia.com/zufang/BJ1866100989258366976.html",
    "rent_type": "整租",
    "location": "朝阳区-东坝-福润四季",
    "scraped_at": "2026-05-02 20:39:22",
    "region": "东坝",
    "unit_price": 72.8,
    "lat": 39.957221,
    "lng": 116.572019
  },
  {
    "title": "整租·康静里 1室1厅 南",
    "community": "康静里",
    "area": "47.00",
    "rooms": "1室1厅",
    "direction": "南",
    "floor": "",
    "price": "4530",
    "tags": "",
    "source": "",
    "url": "https://bj.lianjia.com/zufang/BJ2075994481680711680.html",
    "rent_type": "整租",
    "location": "朝阳区-东坝-康静里",
    "scraped_at": "2026-05-02 20:39:22",
    "region": "东坝",
    "unit_price": 96.4,
    "lat": 39.960497,
    "lng": 116.526579
  },
  {
    "title": "整租·和悦园 2室1厅 南",
    "community": "和悦园",
    "area": "79.66",
    "rooms": "2室1厅",
    "direction": "南",
    "floor": "",
    "price": "5660",
    "tags": "",
    "source": "",
    "url": "https://bj.lianjia.com/zufang/BJ1885023984722903040.html",
    "rent_type": "整租",
    "location": "朝阳区-东坝-和悦园",
    "scraped_at": "2026-05-02 20:39:22",
    "region": "东坝",
    "unit_price": 71.1,
    "lat": 39.957947,
    "lng": 116.574888
  },
  {
    "title": "整租·福润四季B区 2室1厅 南",
    "community": "福润四季B区",
    "area": "75.26",
    "rooms": "2室1厅",
    "direction": "南",
    "floor": "",
    "price": "5590",
    "tags": "",
    "source": "",
    "url": "https://bj.lianjia.com/zufang/BJ1787351286648143872.html",
    "rent_type": "整租",
    "location": "朝阳区-东坝-福润四季",
    "scraped_at": "2026-05-02 20:39:22",
    "region": "东坝",
    "unit_price": 74.3,
    "lat": 39.957221,
    "lng": 116.572019
  },
  {
    "title": "整租·金隅悦和园 2室1厅 南",
    "community": "金隅悦和园",
    "area": "78.00",
    "rooms": "2室1厅",
    "direction": "南",
    "floor": "",
    "price": "5100",
    "tags": "",
    "source": "",
    "url": "https://bj.lianjia.com/zufang/BJ2152403880061698048.html",
    "rent_type": "整租",
    "location": "朝阳区-东坝-金隅悦和园",
    "scraped_at": "2026-05-02 20:39:25",
    "region": "东坝",
    "unit_price": 65.4,
    "lat": 39.956566,
    "lng": 116.530868
  },
  {
    "title": "整租·福润四季B区 1室1厅 东",
    "community": "福润四季B区",
    "area": "60.61",
    "rooms": "1室1厅",
    "direction": "东",
    "floor": "",
    "price": "4000",
    "tags": "",
    "source": "",
    "url": "https://bj.lianjia.com/zufang/BJ2159577847847452672.html",
    "rent_type": "整租",
    "location": "朝阳区-东坝-福润四季",
    "scraped_at": "2026-05-02 20:39:25",
    "region": "东坝",
    "unit_price": 66.0,
    "lat": 39.957221,
    "lng": 116.572019
  },
  {
    "title": "整租·朝新嘉园东里四区 2室1厅 南",
    "community": "朝新嘉园东里四区",
    "area": "93.79",
    "rooms": "2室1厅",
    "direction": "南",
    "floor": "",
    "price": "6500",
    "tags": "",
    "source": "",
    "url": "https://bj.lianjia.com/zufang/BJ2019743606360768512.html",
    "rent_type": "整租",
    "location": "朝阳区-东坝-朝新嘉园东里四区",
    "scraped_at": "2026-05-02 20:39:25",
    "region": "东坝",
    "unit_price": 69.3,
    "lat": 39.945236,
    "lng": 116.548868
  },
  {
    "title": "整租·奥林匹克花园四期 3室2厅 南/北",
    "community": "奥林匹克花园四期",
    "area": "139.85",
    "rooms": "3室2厅",
    "direction": "南/北",
    "floor": "",
    "price": "10200",
    "tags": "",
    "source": "",
    "url": "https://bj.lianjia.com/zufang/BJ2140288155536850944.html",
    "rent_type": "整租",
    "location": "朝阳区-东坝-奥林匹克花园四期",
    "scraped_at": "2026-05-02 20:39:25",
    "region": "东坝",
    "unit_price": 72.9,
    "lat": 39.959073,
    "lng": 116.537068
  },
  {
    "title": "整租·首开龙湖天璞 4室2厅 南/西/北",
    "community": "首开龙湖天璞",
    "area": "132.12",
    "rooms": "4室2厅",
    "direction": "南/西/北",
    "floor": "",
    "price": "21000",
    "tags": "",
    "source": "",
    "url": "https://bj.lianjia.com/zufang/BJ2160286745717899264.html",
    "rent_type": "整租",
    "location": "朝阳区-东坝-首开龙湖天璞",
    "scraped_at": "2026-05-02 20:39:25",
    "region": "东坝",
    "unit_price": 158.9,
    "lat": 39.962783,
    "lng": 116.531153
  },
  {
    "title": "整租·金隅悦和园 1室1厅 南",
    "community": "金隅悦和园",
    "area": "60.66",
    "rooms": "1室1厅",
    "direction": "南",
    "floor": "",
    "price": "4500",
    "tags": "",
    "source": "",
    "url": "https://bj.lianjia.com/zufang/BJ2138507477107343360.html",
    "rent_type": "整租",
    "location": "朝阳区-东坝-金隅悦和园",
    "scraped_at": "2026-05-02 20:39:25",
    "region": "东坝",
    "unit_price": 74.2,
    "lat": 39.956566,
    "lng": 116.530868
  },
  {
    "title": "整租·首开龙湖天璞 4室2厅 东/南/北",
    "community": "首开龙湖天璞",
    "area": "174.00",
    "rooms": "4室2厅",
    "direction": "东/南/北",
    "floor": "",
    "price": "27500",
    "tags": "",
    "source": "",
    "url": "https://bj.lianjia.com/zufang/BJ2137995583233720320.html",
    "rent_type": "整租",
    "location": "朝阳区-东坝-首开龙湖天璞",
    "scraped_at": "2026-05-02 20:39:25",
    "region": "东坝",
    "unit_price": 158.0,
    "lat": 39.962783,
    "lng": 116.531153
  },
  {
    "title": "整租·首开常青藤三期 4室2厅 南/北",
    "community": "首开常青藤三期",
    "area": "155.80",
    "rooms": "4室2厅",
    "direction": "南/北",
    "floor": "",
    "price": "10800",
    "tags": "",
    "source": "",
    "url": "https://bj.lianjia.com/zufang/BJ2119666195933167616.html",
    "rent_type": "整租",
    "location": "朝阳区-东坝-首开常青藤三期",
    "scraped_at": "2026-05-02 20:39:25",
    "region": "东坝",
    "unit_price": 69.3,
    "lat": 39.962783,
    "lng": 116.531153
  },
  {
    "title": "整租·恒大华府 5室1厅 南/北",
    "community": "恒大华府",
    "area": "340.87",
    "rooms": "5室1厅",
    "direction": "南/北",
    "floor": "",
    "price": "53000",
    "tags": "",
    "source": "",
    "url": "https://bj.lianjia.com/zufang/BJ2079041428125646848.html",
    "rent_type": "整租",
    "location": "朝阳区-东坝-恒大华府",
    "scraped_at": "2026-05-02 20:39:25",
    "region": "东坝",
    "unit_price": 155.5,
    "lat": 39.969646,
    "lng": 116.527618
  },
  {
    "title": "整租·首开常青藤三期 3室1厅 南",
    "community": "首开常青藤三期",
    "area": "97.24",
    "rooms": "3室1厅",
    "direction": "南",
    "floor": "",
    "price": "8500",
    "tags": "",
    "source": "",
    "url": "https://bj.lianjia.com/zufang/BJ2160584407654596608.html",
    "rent_type": "整租",
    "location": "朝阳区-东坝-首开常青藤三期",
    "scraped_at": "2026-05-02 20:39:25",
    "region": "东坝",
    "unit_price": 87.4,
    "lat": 39.962783,
    "lng": 116.531153
  },
  {
    "title": "整租·首开常青藤二期 3室1厅 南/北",
    "community": "首开常青藤二期",
    "area": "88.27",
    "rooms": "3室1厅",
    "direction": "南/北",
    "floor": "",
    "price": "9000",
    "tags": "",
    "source": "",
    "url": "https://bj.lianjia.com/zufang/BJ2150830578868420608.html",
    "rent_type": "整租",
    "location": "朝阳区-东坝-首开常青藤二期",
    "scraped_at": "2026-05-02 20:39:25",
    "region": "东坝",
    "unit_price": 102.0,
    "lat": 39.962783,
    "lng": 116.531153
  },
  {
    "title": "整租·首城东郡汇 2室1厅 东",
    "community": "首城东郡汇",
    "area": "86.37",
    "rooms": "2室1厅",
    "direction": "东",
    "floor": "",
    "price": "5500",
    "tags": "",
    "source": "",
    "url": "https://bj.lianjia.com/zufang/BJ2159518739811270656.html",
    "rent_type": "整租",
    "location": "朝阳区-东坝-首城东郡汇",
    "scraped_at": "2026-05-02 20:39:25",
    "region": "东坝",
    "unit_price": 63.7,
    "lat": 39.968985,
    "lng": 116.523883
  },
  {
    "title": "整租·首城东郡汇 2室1厅 南",
    "community": "首城东郡汇",
    "area": "86.64",
    "rooms": "2室1厅",
    "direction": "南",
    "floor": "",
    "price": "7500",
    "tags": "",
    "source": "",
    "url": "https://bj.lianjia.com/zufang/BJ2143578336247414784.html",
    "rent_type": "整租",
    "location": "朝阳区-东坝-首城东郡汇",
    "scraped_at": "2026-05-02 20:40:13",
    "region": "东坝",
    "unit_price": 86.6,
    "lat": 39.968985,
    "lng": 116.523883
  },
  {
    "title": "整租·东泽园 2室1厅 南/北",
    "community": "东泽园",
    "area": "70.49",
    "rooms": "2室1厅",
    "direction": "南/北",
    "floor": "",
    "price": "4500",
    "tags": "",
    "source": "",
    "url": "https://bj.lianjia.com/zufang/BJ2144078553430360064.html",
    "rent_type": "整租",
    "location": "朝阳区-东坝-东泽园",
    "scraped_at": "2026-05-02 20:40:13",
    "region": "东坝",
    "unit_price": 63.8,
    "lat": 39.959275,
    "lng": 116.55216
  },
  {
    "title": "整租·华纺星海家园 1室1厅 南",
    "community": "华纺星海家园",
    "area": "51.09",
    "rooms": "1室1厅",
    "direction": "南",
    "floor": "",
    "price": "4500",
    "tags": "",
    "source": "",
    "url": "https://bj.lianjia.com/zufang/BJ2155879348916191232.html",
    "rent_type": "整租",
    "location": "朝阳区-东坝-华纺星海家园",
    "scraped_at": "2026-05-02 20:39:28",
    "region": "东坝",
    "unit_price": 88.1,
    "lat": 39.960428,
    "lng": 116.568485
  },
  {
    "title": "整租·金泽家园B区 3室1厅 南/西/北",
    "community": "金泽家园B区",
    "area": "104.58",
    "rooms": "3室1厅",
    "direction": "南/西/北",
    "floor": "",
    "price": "6980",
    "tags": "",
    "source": "",
    "url": "https://bj.lianjia.com/zufang/BJ2157033364077412352.html",
    "rent_type": "整租",
    "location": "朝阳区-东坝-金泽家园",
    "scraped_at": "2026-05-02 20:39:28",
    "region": "东坝",
    "unit_price": 66.7,
    "lat": 39.959294,
    "lng": 116.558024
  },
  {
    "title": "整租·奥林匹克花园三期 3室2厅 南/北",
    "community": "奥林匹克花园三期",
    "area": "122.66",
    "rooms": "3室2厅",
    "direction": "南/北",
    "floor": "",
    "price": "9200",
    "tags": "",
    "source": "",
    "url": "https://bj.lianjia.com/zufang/BJ1709899850700554240.html",
    "rent_type": "整租",
    "location": "朝阳区-东坝-奥林匹克花园三期",
    "scraped_at": "2026-05-02 20:39:32",
    "region": "东坝",
    "unit_price": 75.0,
    "lat": 39.957374,
    "lng": 116.539304
  },
  {
    "title": "整租·金隅景和园 3室1厅 南/北",
    "community": "金隅景和园",
    "area": "89.64",
    "rooms": "3室1厅",
    "direction": "南/北",
    "floor": "",
    "price": "6930",
    "tags": "",
    "source": "",
    "url": "https://bj.lianjia.com/zufang/BJ2149423171307044864.html",
    "rent_type": "整租",
    "location": "朝阳区-东坝-金隅景和园",
    "scraped_at": "2026-05-02 20:39:28",
    "region": "东坝",
    "unit_price": 77.3,
    "lat": 39.953542,
    "lng": 116.5316
  },
  {
    "title": "整租·兴盛怡景苑 2室1厅 东",
    "community": "兴盛怡景苑",
    "area": "88.28",
    "rooms": "2室1厅",
    "direction": "东",
    "floor": "",
    "price": "5900",
    "tags": "",
    "source": "",
    "url": "https://bj.lianjia.com/zufang/BJ2149813557141700608.html",
    "rent_type": "整租",
    "location": "朝阳区-东坝-兴盛怡景苑",
    "scraped_at": "2026-05-02 20:39:28",
    "region": "东坝",
    "unit_price": 66.8,
    "lat": 39.9672,
    "lng": 116.5135
  },
  {
    "title": "整租·汇景苑三区 2室1厅 南/北",
    "community": "汇景苑三区",
    "area": "80.39",
    "rooms": "2室1厅",
    "direction": "南/北",
    "floor": "",
    "price": "6100",
    "tags": "",
    "source": "",
    "url": "https://bj.lianjia.com/zufang/BJ2151316637494542336.html",
    "rent_type": "整租",
    "location": "朝阳区-东坝-汇景苑三区",
    "scraped_at": "2026-05-02 20:39:28",
    "region": "东坝",
    "unit_price": 75.9,
    "lat": 39.952706,
    "lng": 116.531718
  },
  {
    "title": "整租·金泰丽富嘉园北区 2室1厅 南",
    "community": "金泰丽富嘉园北区",
    "area": "79.42",
    "rooms": "2室1厅",
    "direction": "南",
    "floor": "",
    "price": "6000",
    "tags": "",
    "source": "",
    "url": "https://bj.lianjia.com/zufang/BJ2151356832495435776.html",
    "rent_type": "整租",
    "location": "朝阳区-东坝-金泰丽富嘉园北区",
    "scraped_at": "2026-05-02 20:39:28",
    "region": "东坝",
    "unit_price": 75.5,
    "lat": 39.956383,
    "lng": 116.543279
  },
  {
    "title": "整租·福润四季B区 1室1厅 南",
    "community": "福润四季B区",
    "area": "59.85",
    "rooms": "1室1厅",
    "direction": "南",
    "floor": "",
    "price": "4200",
    "tags": "",
    "source": "",
    "url": "https://bj.lianjia.com/zufang/BJ2152033821233512448.html",
    "rent_type": "整租",
    "location": "朝阳区-东坝-福润四季",
    "scraped_at": "2026-05-02 20:39:28",
    "region": "东坝",
    "unit_price": 70.2,
    "lat": 39.957221,
    "lng": 116.572019
  },
  {
    "title": "整租·金隅悦和园 2室1厅 南/北",
    "community": "金隅悦和园",
    "area": "76.92",
    "rooms": "2室1厅",
    "direction": "南/北",
    "floor": "",
    "price": "5500",
    "tags": "",
    "source": "",
    "url": "https://bj.lianjia.com/zufang/BJ2152420363256987648.html",
    "rent_type": "整租",
    "location": "朝阳区-东坝-金隅悦和园",
    "scraped_at": "2026-05-02 20:39:28",
    "region": "东坝",
    "unit_price": 71.5,
    "lat": 39.956566,
    "lng": 116.530868
  },
  {
    "title": "整租·保利首开丽湾家园 2室1厅 东/西",
    "community": "保利首开丽湾家园",
    "area": "76.86",
    "rooms": "2室1厅",
    "direction": "东/西",
    "floor": "",
    "price": "5500",
    "tags": "",
    "source": "",
    "url": "https://bj.lianjia.com/zufang/BJ2153860138161668096.html",
    "rent_type": "整租",
    "location": "朝阳区-东坝-保利首开丽湾家园",
    "scraped_at": "2026-05-02 20:39:28",
    "region": "东坝",
    "unit_price": 71.6,
    "lat": 39.9672,
    "lng": 116.5135
  },
  {
    "title": "整租·汇景苑二区 3室1厅 东/南/北",
    "community": "汇景苑二区",
    "area": "87.53",
    "rooms": "3室1厅",
    "direction": "东/南/北",
    "floor": "",
    "price": "7200",
    "tags": "",
    "source": "",
    "url": "https://bj.lianjia.com/zufang/BJ2154541405844799488.html",
    "rent_type": "整租",
    "location": "朝阳区-东坝-汇景苑二区",
    "scraped_at": "2026-05-02 20:39:28",
    "region": "东坝",
    "unit_price": 82.3,
    "lat": 39.952706,
    "lng": 116.531718
  },
  {
    "title": "整租·汇景苑二区 2室1厅 南",
    "community": "汇景苑二区",
    "area": "87.57",
    "rooms": "2室1厅",
    "direction": "南",
    "floor": "",
    "price": "5700",
    "tags": "",
    "source": "",
    "url": "https://bj.lianjia.com/zufang/BJ2154543512358486016.html",
    "rent_type": "整租",
    "location": "朝阳区-东坝-汇景苑二区",
    "scraped_at": "2026-05-02 20:39:28",
    "region": "东坝",
    "unit_price": 65.1,
    "lat": 39.952706,
    "lng": 116.531718
  },
  {
    "title": "整租·金驹家园F区 1室1厅 南",
    "community": "金驹家园F区",
    "area": "54.27",
    "rooms": "1室1厅",
    "direction": "南",
    "floor": "",
    "price": "4300",
    "tags": "",
    "source": "",
    "url": "https://bj.lianjia.com/zufang/BJ2154968173122682880.html",
    "rent_type": "整租",
    "location": "朝阳区-东坝-金驹家园",
    "scraped_at": "2026-05-02 20:39:28",
    "region": "东坝",
    "unit_price": 79.2,
    "lat": 39.960081,
    "lng": 116.558231
  },
  {
    "title": "整租·金隅景和园六区 2室1厅 南",
    "community": "金隅景和园六区",
    "area": "84.77",
    "rooms": "2室1厅",
    "direction": "南",
    "floor": "",
    "price": "5950",
    "tags": "",
    "source": "",
    "url": "https://bj.lianjia.com/zufang/BJ2156326060885540864.html",
    "rent_type": "整租",
    "location": "朝阳区-东坝-金隅景和园六区",
    "scraped_at": "2026-05-02 20:39:57",
    "region": "东坝",
    "unit_price": 70.2,
    "lat": 39.950566,
    "lng": 116.549168
  },
  {
    "title": "整租·利锦府 2室1厅 南/北",
    "community": "利锦府",
    "area": "120.27",
    "rooms": "2室1厅",
    "direction": "南/北",
    "floor": "",
    "price": "11000",
    "tags": "",
    "source": "",
    "url": "https://bj.lianjia.com/zufang/BJ2156428454759759872.html",
    "rent_type": "整租",
    "location": "朝阳区-东坝-利锦府",
    "scraped_at": "2026-05-02 20:39:57",
    "region": "东坝",
    "unit_price": 91.5,
    "lat": 39.965783,
    "lng": 116.541917
  },
  {
    "title": "整租·恒大江湾 3室1厅 南/北",
    "community": "恒大江湾",
    "area": "89.65",
    "rooms": "3室1厅",
    "direction": "南/北",
    "floor": "",
    "price": "7500",
    "tags": "",
    "source": "",
    "url": "https://bj.lianjia.com/zufang/BJ2156717517093994496.html",
    "rent_type": "整租",
    "location": "朝阳区-东坝-恒大江湾",
    "scraped_at": "2026-05-02 20:39:57",
    "region": "东坝",
    "unit_price": 83.7,
    "lat": 39.969646,
    "lng": 116.527618
  },
  {
    "title": "整租·朝新嘉园东里四区 2室1厅 南",
    "community": "朝新嘉园东里四区",
    "area": "89.85",
    "rooms": "2室1厅",
    "direction": "南",
    "floor": "",
    "price": "5600",
    "tags": "",
    "source": "",
    "url": "https://bj.lianjia.com/zufang/BJ2157073603412099072.html",
    "rent_type": "整租",
    "location": "朝阳区-东坝-朝新嘉园东里四区",
    "scraped_at": "2026-05-02 20:39:57",
    "region": "东坝",
    "unit_price": 62.3,
    "lat": 39.945236,
    "lng": 116.548868
  },
  {
    "title": "整租·康静里 2室1厅 南/北",
    "community": "康静里",
    "area": "55.00",
    "rooms": "2室1厅",
    "direction": "南/北",
    "floor": "",
    "price": "4200",
    "tags": "",
    "source": "",
    "url": "https://bj.lianjia.com/zufang/BJ2159260130909093888.html",
    "rent_type": "整租",
    "location": "朝阳区-东坝-康静里",
    "scraped_at": "2026-05-02 20:39:57",
    "region": "东坝",
    "unit_price": 76.4,
    "lat": 39.960497,
    "lng": 116.526579
  },
  {
    "title": "整租·汇景苑二区 2室1厅 南",
    "community": "汇景苑二区",
    "area": "86.88",
    "rooms": "2室1厅",
    "direction": "南",
    "floor": "",
    "price": "4700",
    "tags": "",
    "source": "",
    "url": "https://bj.lianjia.com/zufang/BJ2160352094182178816.html",
    "rent_type": "整租",
    "location": "朝阳区-东坝-汇景苑二区",
    "scraped_at": "2026-05-02 20:39:57",
    "region": "东坝",
    "unit_price": 54.1,
    "lat": 39.952706,
    "lng": 116.531718
  },
  {
    "title": "整租·朝阳新城二区 2室1厅 南/北",
    "community": "朝阳新城二区",
    "area": "105.30",
    "rooms": "2室1厅",
    "direction": "南/北",
    "floor": "",
    "price": "5600",
    "tags": "",
    "source": "",
    "url": "https://bj.lianjia.com/zufang/BJ2160413129765289984.html",
    "rent_type": "整租",
    "location": "朝阳区-东坝-朝阳新城二区",
    "scraped_at": "2026-05-02 20:39:57",
    "region": "东坝",
    "unit_price": 53.2,
    "lat": 39.948176,
    "lng": 116.550348
  },
  {
    "title": "整租·朝阳新城三区 2室1厅 东/南",
    "community": "朝阳新城三区",
    "area": "74.34",
    "rooms": "2室1厅",
    "direction": "东/南",
    "floor": "",
    "price": "4800",
    "tags": "",
    "source": "",
    "url": "https://bj.lianjia.com/zufang/BJ2160710291472515072.html",
    "rent_type": "整租",
    "location": "朝阳区-东坝-朝阳新城三区",
    "scraped_at": "2026-05-02 20:39:57",
    "region": "东坝",
    "unit_price": 64.6,
    "lat": 39.948176,
    "lng": 116.550348
  },
  {
    "title": "整租·金隅景和园 3室1厅 南/北",
    "community": "金隅景和园",
    "area": "89.59",
    "rooms": "3室1厅",
    "direction": "南/北",
    "floor": "",
    "price": "6500",
    "tags": "",
    "source": "",
    "url": "https://bj.lianjia.com/zufang/BJ2159572608125763584.html",
    "rent_type": "整租",
    "location": "朝阳区-东坝-金隅景和园",
    "scraped_at": "2026-05-02 20:39:57",
    "region": "东坝",
    "unit_price": 72.6,
    "lat": 39.953542,
    "lng": 116.5316
  },
  {
    "title": "整租·朝新嘉园东里四区 3室1厅 南/北",
    "community": "朝新嘉园东里四区",
    "area": "109.32",
    "rooms": "3室1厅",
    "direction": "南/北",
    "floor": "",
    "price": "7600",
    "tags": "",
    "source": "",
    "url": "https://bj.lianjia.com/zufang/BJ2161034577651433472.html",
    "rent_type": "整租",
    "location": "朝阳区-东坝-朝新嘉园东里四区",
    "scraped_at": "2026-05-02 20:39:57",
    "region": "东坝",
    "unit_price": 69.5,
    "lat": 39.945236,
    "lng": 116.548868
  },
  {
    "title": "整租·和悦园 1室1厅 南",
    "community": "和悦园",
    "area": "63.51",
    "rooms": "1室1厅",
    "direction": "南",
    "floor": "",
    "price": "4300",
    "tags": "",
    "source": "",
    "url": "https://bj.lianjia.com/zufang/BJ1890303074468102144.html",
    "rent_type": "整租",
    "location": "朝阳区-东坝-和悦园",
    "scraped_at": "2026-05-02 20:39:28",
    "region": "东坝",
    "unit_price": 67.7,
    "lat": 39.957947,
    "lng": 116.574888
  },
  {
    "title": "整租·恒大江湾 2室1厅 东/西",
    "community": "恒大江湾",
    "area": "90.23",
    "rooms": "2室1厅",
    "direction": "东/西",
    "floor": "",
    "price": "6000",
    "tags": "",
    "source": "",
    "url": "https://bj.lianjia.com/zufang/BJ1890336776816427008.html",
    "rent_type": "整租",
    "location": "朝阳区-东坝-恒大江湾",
    "scraped_at": "2026-05-02 20:39:28",
    "region": "东坝",
    "unit_price": 66.5,
    "lat": 39.969646,
    "lng": 116.527618
  },
  {
    "title": "整租·首开畅颐园 1室1厅 南",
    "community": "首开畅颐园",
    "area": "58.01",
    "rooms": "1室1厅",
    "direction": "南",
    "floor": "",
    "price": "5200",
    "tags": "",
    "source": "",
    "url": "https://bj.lianjia.com/zufang/BJ1891395681109671936.html",
    "rent_type": "整租",
    "location": "朝阳区-东坝-首开畅颐园",
    "scraped_at": "2026-05-02 20:39:28",
    "region": "东坝",
    "unit_price": 89.6,
    "lat": 39.962783,
    "lng": 116.531153
  },
  {
    "title": "整租·富北嘉园 2室1厅 东/南",
    "community": "富北嘉园",
    "area": "95.48",
    "rooms": "2室1厅",
    "direction": "东/南",
    "floor": "",
    "price": "5500",
    "tags": "",
    "source": "",
    "url": "https://bj.lianjia.com/zufang/BJ1887910727113506816.html",
    "rent_type": "整租",
    "location": "朝阳区-东坝-富北嘉园",
    "scraped_at": "2026-05-02 20:39:32",
    "region": "东坝",
    "unit_price": 57.6,
    "lat": 39.951099,
    "lng": 116.549089
  },
  {
    "title": "整租·东泽园 3室1厅 东/南/北",
    "community": "东泽园",
    "area": "90.58",
    "rooms": "3室1厅",
    "direction": "东/南/北",
    "floor": "",
    "price": "5500",
    "tags": "",
    "source": "",
    "url": "https://bj.lianjia.com/zufang/BJ1903852144188981248.html",
    "rent_type": "整租",
    "location": "朝阳区-东坝-东泽园",
    "scraped_at": "2026-05-02 20:39:32",
    "region": "东坝",
    "unit_price": 60.7,
    "lat": 39.959275,
    "lng": 116.55216
  },
  {
    "title": "整租·金隅悦和园 3室1厅 南/西/北",
    "community": "金隅悦和园",
    "area": "88.10",
    "rooms": "3室1厅",
    "direction": "南/西/北",
    "floor": "",
    "price": "5500",
    "tags": "",
    "source": "",
    "url": "https://bj.lianjia.com/zufang/BJ1892478547230982144.html",
    "rent_type": "整租",
    "location": "朝阳区-东坝-金隅悦和园",
    "scraped_at": "2026-05-02 20:40:09",
    "region": "东坝",
    "unit_price": 62.4,
    "lat": 39.956566,
    "lng": 116.530868
  },
  {
    "title": "整租·朝阳新城二区 2室1厅 南/北",
    "community": "朝阳新城二区",
    "area": "99.09",
    "rooms": "2室1厅",
    "direction": "南/北",
    "floor": "",
    "price": "4500",
    "tags": "",
    "source": "",
    "url": "https://bj.lianjia.com/zufang/BJ1986342546917294080.html",
    "rent_type": "整租",
    "location": "朝阳区-东坝-朝阳新城二区",
    "scraped_at": "2026-05-02 20:39:32",
    "region": "东坝",
    "unit_price": 45.4,
    "lat": 39.948176,
    "lng": 116.550348
  },
  {
    "title": "整租·康静里 2室1厅 南/北",
    "community": "康静里",
    "area": "57.14",
    "rooms": "2室1厅",
    "direction": "南/北",
    "floor": "",
    "price": "4300",
    "tags": "",
    "source": "",
    "url": "https://bj.lianjia.com/zufang/BJ1902319043738599424.html",
    "rent_type": "整租",
    "location": "朝阳区-东坝-康静里",
    "scraped_at": "2026-05-02 20:39:32",
    "region": "东坝",
    "unit_price": 75.3,
    "lat": 39.960497,
    "lng": 116.526579
  },
  {
    "title": "整租·首开常青藤一期 3室1厅 南/北",
    "community": "首开常青藤一期",
    "area": "92.33",
    "rooms": "3室1厅",
    "direction": "南/北",
    "floor": "",
    "price": "7500",
    "tags": "",
    "source": "",
    "url": "https://bj.lianjia.com/zufang/BJ1896041883377860608.html",
    "rent_type": "整租",
    "location": "朝阳区-东坝-首开常青藤一期",
    "scraped_at": "2026-05-02 20:39:32",
    "region": "东坝",
    "unit_price": 81.2,
    "lat": 39.962783,
    "lng": 116.531153
  },
  {
    "title": "整租·东泽园 2室1厅 南",
    "community": "东泽园",
    "area": "70.00",
    "rooms": "2室1厅",
    "direction": "南",
    "floor": "",
    "price": "3990",
    "tags": "",
    "source": "",
    "url": "https://bj.lianjia.com/zufang/BJ1898679303596408832.html",
    "rent_type": "整租",
    "location": "朝阳区-东坝-东泽园",
    "scraped_at": "2026-05-02 20:39:32",
    "region": "东坝",
    "unit_price": 57.0,
    "lat": 39.959275,
    "lng": 116.55216
  },
  {
    "title": "整租·朝阳新城一区 2室1厅 南/北",
    "community": "朝阳新城一区",
    "area": "118.98",
    "rooms": "2室1厅",
    "direction": "南/北",
    "floor": "",
    "price": "5040",
    "tags": "",
    "source": "",
    "url": "https://bj.lianjia.com/zufang/BJ1898959807272976384.html",
    "rent_type": "整租",
    "location": "朝阳区-东坝-朝阳新城一区",
    "scraped_at": "2026-05-02 20:39:32",
    "region": "东坝",
    "unit_price": 42.4,
    "lat": 39.948176,
    "lng": 116.550348
  },
  {
    "title": "整租·金泰丽富嘉园北区 2室1厅 南/北",
    "community": "金泰丽富嘉园北区",
    "area": "79.00",
    "rooms": "2室1厅",
    "direction": "南/北",
    "floor": "",
    "price": "5300",
    "tags": "",
    "source": "",
    "url": "https://bj.lianjia.com/zufang/BJ1967900012247515136.html",
    "rent_type": "整租",
    "location": "朝阳区-东坝-金泰丽富嘉园北区",
    "scraped_at": "2026-05-02 20:39:57",
    "region": "东坝",
    "unit_price": 67.1,
    "lat": 39.956383,
    "lng": 116.543279
  },
  {
    "title": "整租·金隅悦和园 1室1厅 东",
    "community": "金隅悦和园",
    "area": "61.04",
    "rooms": "1室1厅",
    "direction": "东",
    "floor": "",
    "price": "4600",
    "tags": "",
    "source": "",
    "url": "https://bj.lianjia.com/zufang/BJ1987181718204841984.html",
    "rent_type": "整租",
    "location": "朝阳区-东坝-金隅悦和园",
    "scraped_at": "2026-05-02 20:39:32",
    "region": "东坝",
    "unit_price": 75.4,
    "lat": 39.956566,
    "lng": 116.530868
  },
  {
    "title": "整租·康静里 2室1厅 东/西",
    "community": "康静里",
    "area": "61.00",
    "rooms": "2室1厅",
    "direction": "东/西",
    "floor": "",
    "price": "4725",
    "tags": "",
    "source": "",
    "url": "https://bj.lianjia.com/zufang/BJ2014726228254130176.html",
    "rent_type": "整租",
    "location": "朝阳区-东坝-康静里",
    "scraped_at": "2026-05-02 20:39:32",
    "region": "东坝",
    "unit_price": 77.5,
    "lat": 39.960497,
    "lng": 116.526579
  },
  {
    "title": "整租·首开畅颐园 2室1厅 东/西",
    "community": "首开畅颐园",
    "area": "87.45",
    "rooms": "2室1厅",
    "direction": "东/西",
    "floor": "",
    "price": "5300",
    "tags": "",
    "source": "",
    "url": "https://bj.lianjia.com/zufang/BJ2015003455516573696.html",
    "rent_type": "整租",
    "location": "朝阳区-东坝-首开畅颐园",
    "scraped_at": "2026-05-02 20:39:32",
    "region": "东坝",
    "unit_price": 60.6,
    "lat": 39.962783,
    "lng": 116.531153
  },
  {
    "title": "整租·富东嘉园 2室1厅 南/北",
    "community": "富东嘉园",
    "area": "92.02",
    "rooms": "2室1厅",
    "direction": "南/北",
    "floor": "",
    "price": "5775",
    "tags": "",
    "source": "",
    "url": "https://bj.lianjia.com/zufang/BJ2021547874508079104.html",
    "rent_type": "整租",
    "location": "朝阳区-东坝-富东嘉园",
    "scraped_at": "2026-05-02 20:39:32",
    "region": "东坝",
    "unit_price": 62.8,
    "lat": 39.945326,
    "lng": 116.546368
  },
  {
    "title": "整租·首城东郡汇 2室1厅 南",
    "community": "首城东郡汇",
    "area": "86.29",
    "rooms": "2室1厅",
    "direction": "南",
    "floor": "",
    "price": "5250",
    "tags": "",
    "source": "",
    "url": "https://bj.lianjia.com/zufang/BJ1979428591380725760.html",
    "rent_type": "整租",
    "location": "朝阳区-东坝-首城东郡汇",
    "scraped_at": "2026-05-02 20:39:32",
    "region": "东坝",
    "unit_price": 60.8,
    "lat": 39.968985,
    "lng": 116.523883
  },
  {
    "title": "整租·和悦园 1室1厅 南",
    "community": "和悦园",
    "area": "63.17",
    "rooms": "1室1厅",
    "direction": "南",
    "floor": "",
    "price": "4500",
    "tags": "",
    "source": "",
    "url": "https://bj.lianjia.com/zufang/BJ2021224673529823232.html",
    "rent_type": "整租",
    "location": "朝阳区-东坝-和悦园",
    "scraped_at": "2026-05-02 20:39:32",
    "region": "东坝",
    "unit_price": 71.2,
    "lat": 39.957947,
    "lng": 116.574888
  },
  {
    "title": "整租·红松园3号院 2室1厅 南/北",
    "community": "红松园3号院",
    "area": "70.55",
    "rooms": "2室1厅",
    "direction": "南/北",
    "floor": "",
    "price": "4200",
    "tags": "",
    "source": "",
    "url": "https://bj.lianjia.com/zufang/BJ2021816472627576832.html",
    "rent_type": "整租",
    "location": "朝阳区-东坝-红松园",
    "scraped_at": "2026-05-02 20:39:32",
    "region": "东坝",
    "unit_price": 59.5,
    "lat": 39.961243,
    "lng": 116.549478
  },
  {
    "title": "整租·富东嘉园 3室1厅 南/西/北",
    "community": "富东嘉园",
    "area": "108.00",
    "rooms": "3室1厅",
    "direction": "南/西/北",
    "floor": "",
    "price": "6600",
    "tags": "",
    "source": "",
    "url": "https://bj.lianjia.com/zufang/BJ2017962724159389696.html",
    "rent_type": "整租",
    "location": "朝阳区-东坝-富东嘉园",
    "scraped_at": "2026-05-02 20:39:32",
    "region": "东坝",
    "unit_price": 61.1,
    "lat": 39.945326,
    "lng": 116.546368
  },
  {
    "title": "整租·华纺星海家园 1室1厅 南",
    "community": "华纺星海家园",
    "area": "56.53",
    "rooms": "1室1厅",
    "direction": "南",
    "floor": "",
    "price": "4200",
    "tags": "",
    "source": "",
    "url": "https://bj.lianjia.com/zufang/BJ1716734771528204288.html",
    "rent_type": "整租",
    "location": "朝阳区-东坝-华纺星海家园",
    "scraped_at": "2026-05-02 20:39:32",
    "region": "东坝",
    "unit_price": 74.3,
    "lat": 39.960428,
    "lng": 116.568485
  },
  {
    "title": "整租·保利首开丽湾家园 2室1厅 南",
    "community": "保利首开丽湾家园",
    "area": "89.99",
    "rooms": "2室1厅",
    "direction": "南",
    "floor": "",
    "price": "6300",
    "tags": "",
    "source": "",
    "url": "https://bj.lianjia.com/zufang/BJ1746930365064282112.html",
    "rent_type": "整租",
    "location": "朝阳区-东坝-保利首开丽湾家园",
    "scraped_at": "2026-05-02 20:39:32",
    "region": "东坝",
    "unit_price": 70.0,
    "lat": 39.9672,
    "lng": 116.5135
  },
  {
    "title": "整租·利锦府 1室1厅 东",
    "community": "利锦府",
    "area": "62.56",
    "rooms": "1室1厅",
    "direction": "东",
    "floor": "",
    "price": "5460",
    "tags": "",
    "source": "",
    "url": "https://bj.lianjia.com/zufang/BJ2027907584400293888.html",
    "rent_type": "整租",
    "location": "朝阳区-东坝-利锦府",
    "scraped_at": "2026-05-02 20:39:32",
    "region": "东坝",
    "unit_price": 87.3,
    "lat": 39.965783,
    "lng": 116.541917
  },
  {
    "title": "整租·奥林匹克花园四期 4室2厅 错层 南/北",
    "community": "奥林匹克花园四期",
    "area": "151.48",
    "rooms": "4室2厅",
    "direction": "",
    "floor": "",
    "price": "15750",
    "tags": "",
    "source": "",
    "url": "https://bj.lianjia.com/zufang/BJ2028342884935139328.html",
    "rent_type": "整租",
    "location": "朝阳区-东坝-奥林匹克花园四期",
    "scraped_at": "2026-05-02 20:39:32",
    "region": "东坝",
    "unit_price": 104.0,
    "lat": 39.959073,
    "lng": 116.537068
  },
  {
    "title": "整租·朝新嘉园东里四区 1室1厅 南",
    "community": "朝新嘉园东里四区",
    "area": "65.29",
    "rooms": "1室1厅",
    "direction": "南",
    "floor": "",
    "price": "4400",
    "tags": "",
    "source": "",
    "url": "https://bj.lianjia.com/zufang/BJ1878331130508214272.html",
    "rent_type": "整租",
    "location": "朝阳区-东坝-朝新嘉园东里四区",
    "scraped_at": "2026-05-02 20:39:32",
    "region": "东坝",
    "unit_price": 67.4,
    "lat": 39.945236,
    "lng": 116.548868
  },
  {
    "title": "整租·首开常青藤一期 2室1厅 南/北",
    "community": "首开常青藤一期",
    "area": "86.00",
    "rooms": "2室1厅",
    "direction": "南/北",
    "floor": "",
    "price": "7500",
    "tags": "",
    "source": "",
    "url": "https://bj.lianjia.com/zufang/BJ1859117318466961408.html",
    "rent_type": "整租",
    "location": "朝阳区-东坝-首开常青藤一期",
    "scraped_at": "2026-05-02 20:40:09",
    "region": "东坝",
    "unit_price": 87.2,
    "lat": 39.962783,
    "lng": 116.531153
  },
  {
    "title": "整租·兴盛怡景苑 1室0厅 东",
    "community": "兴盛怡景苑",
    "area": "63.11",
    "rooms": "1室0厅",
    "direction": "东",
    "floor": "",
    "price": "4500",
    "tags": "",
    "source": "",
    "url": "https://bj.lianjia.com/zufang/BJ1875120679280443392.html",
    "rent_type": "整租",
    "location": "朝阳区-东坝-兴盛怡景苑",
    "scraped_at": "2026-05-02 20:40:09",
    "region": "东坝",
    "unit_price": 71.3,
    "lat": 39.9672,
    "lng": 116.5135
  },