region,title,rent_type,community,location,area,rooms,direction,floor,price,unit_price,tags,source,url,scraped_at,lat,lng
chuansha,整租·妙境一村 3室1厅 南,整租,妙境一村,浦东-川沙-妙境一村,76.65,3室1厅,南,,4100,53.5,,,https://sh.lianjia.com/zufang/SH1723924062767415296.html,2026-04-23 00:24:57,31.1886,121.69168
chuansha,整租·龙馨公寓 2室2厅 南,整租,龙馨公寓,浦东-川沙-龙馨公寓,127.63,2室2厅,南,,3600,28.2,,,https://sh.lianjia.com/zufang/SH2102732541311057920.html,2026-04-23 00:23:41,31.159,121.71281
chuansha,整租·佳运公寓 3室2厅 南,整租,佳运公寓,浦东-川沙-佳运公寓,125.00,3室2厅,南,,5800,46.4,,,https://sh.lianjia.com/zufang/SH1962178521740607488.html,2026-04-23 00:24:57,31.189,121.69781
chuansha,独栋·知遇青年社区 川环南路店 近地铁 朝南一居室 不短租 不要打电话信息秒回 1室1厅,独栋,知遇青年社区 川环南路店,,22.00,1室1厅,,,2300,104.5,,,https://sh.lianjia.com/apartment/107167.html,2026-04-23 00:23:47,39.875182,116.317333
chuansha,整租·舜川公寓 2室1厅 南/北,整租,舜川公寓,浦东-川沙-舜川公寓,80.02,2室1厅,南/北,,3885,48.6,,,https://sh.lianjia.com/zufang/SH1969262535517405184.html,2026-04-23 00:24:57,31.20452,121.71239
chuansha,独栋·华夏公寓 华夏东路店 2号线凌空路旁 精装一室户 独立厨卫 干净清爽 1室1厅,独栋,华夏公寓 华夏东路店,,20.00,1室1厅,,,1100,55.0,,,https://sh.lianjia.com/apartment/88042.html,2026-04-23 00:23:47,39.939866,116.089038
chuansha,整租·晴川佳苑 3室2厅 南,整租,晴川佳苑,浦东-川沙-晴川佳苑,104.00,3室2厅,南,,5400,51.9,,,https://sh.lianjia.com/zufang/SH1737003711613370368.html,2026-04-23 00:24:57,31.19468,121.67565
chuansha,整租·同济东时区 3室2厅 南,整租,同济东时区,浦东-川沙-同济东时区,115.47,3室2厅,南,,4300,37.2,,,https://sh.lianjia.com/zufang/SH2143277810158927872.html,2026-04-23 00:23:41,31.14903,121.74438
chuansha,整租·大洪佳苑 4室1厅 南,整租,大洪佳苑,浦东-川沙-大洪佳苑,110.00,4室1厅,南,,4500,40.9,,,https://sh.lianjia.com/zufang/SH2008135842656157696.html,2026-04-23 00:23:41,31.186343,121.722614
chuansha,整租·新德佳苑 2室1厅 南,整租,新德佳苑,浦东-川沙-新德佳苑,83.00,2室1厅,南,,4600,55.4,,,https://sh.lianjia.com/zufang/SH1760659370057662464.html,2026-04-23 00:24:57,31.1918,121.66386
chuansha,独栋·自在居服务式公寓 上海川沙古镇店 LOFT复式 不要打电话！发信息会马上回复！ 2号线直达张江陆家嘴 独厨独卫 1室1厅,独栋,自在居服务式公寓 上海川沙古镇店 LOFT复式 不要打电话！发信息会马上回复！,,35.00,1室1厅,,,1800-1900,,,,https://sh.lianjia.com/apartment/83351.html,2026-04-23 00:23:41,31.16941,121.37868
chuansha,整租·新德路506弄 3室1厅 南,整租,新德路506弄,浦东-川沙-新德路,73.06,3室1厅,南,,3570,48.9,,,https://sh.lianjia.com/zufang/SH1878102713816842240.html,2026-04-23 00:23:41,31.19907,121.68935
chuansha,整租·妙虹新苑 3室2厅 南,整租,妙虹新苑,浦东-川沙-妙虹新苑,100.40,3室2厅,南,,5400,53.8,,,https://sh.lianjia.com/zufang/SH1982337955095642112.html,2026-04-23 00:24:57,31.184223,121.713053
chuansha,独栋·朗悦茗酒店公寓 妙境路店 广兰路 2号线 华夏东路站直达 阳光房 无中介 中介勿扰 1室1厅,独栋,朗悦茗酒店公寓 妙境路店 广兰路,,28.00,1室1厅,,,2700,96.4,,,https://sh.lianjia.com/apartment/63726.html,2026-04-23 00:23:44,39.892016,116.327048
chuansha,整租·思凡花苑一街坊 2室2厅 南,整租,思凡花苑一街坊,浦东-川沙-思凡花苑一街坊,75.01,2室2厅,南,,3180,42.4,,,https://sh.lianjia.com/zufang/SH1981739875040231424.html,2026-04-23 00:24:57,31.14696,121.74758
chuansha,整租·同济东时区 3室2厅 南,整租,同济东时区,浦东-川沙-同济东时区,118.53,3室2厅,南,,4700,39.7,,,https://sh.lianjia.com/zufang/SH2154219652044029952.html,2026-04-23 00:23:41,31.14903,121.74438
chuansha,整租·普陀新村 3室1厅 南,整租,普陀新村,浦东-川沙-普陀新村,102.44,3室1厅,南,,2900,28.3,,,https://sh.lianjia.com/zufang/SH2008772948470530048.html,2026-04-23 00:23:41,31.15787,121.7251
chuansha,整租·鹿康雅苑 1室1厅 南,整租,鹿康雅苑,浦东-川沙-鹿康雅苑,55.00,1室1厅,南,,2700,49.1,,,https://sh.lianjia.com/zufang/SH2157004959856459776.html,2026-04-23 00:23:41,31.17111,121.66367
chuansha,整租·盛泰家园 3室1厅 南,整租,盛泰家园,浦东-川沙-盛泰家园,113.00,3室1厅,南,,3801,33.6,,,https://sh.lianjia.com/zufang/SH1940755850637344768.html,2026-04-23 00:23:41,31.172,121.73899
chuansha,整租·妙栏小区 3室1厅 南,整租,妙栏小区,浦东-川沙-妙栏小区,91.69,3室1厅,南,,3990,43.5,,,https://sh.lianjia.com/zufang/SH1974030874156466176.html,2026-04-23 00:24:57,31.18866,121.68577
chuansha,整租·思凡花苑一街坊 3室2厅 南,整租,思凡花苑一街坊,浦东-川沙-思凡花苑一街坊,99.00,3室2厅,南,,3200,32.3,,,https://sh.lianjia.com/zufang/SH2111427384279302144.html,2026-04-23 00:23:44,31.14696,121.74758
chuansha,整租·绿地云悦坊 1室1厅 北,整租,绿地云悦坊,浦东-川沙-绿地云悦坊,50.00,1室1厅,北,,2200,44.0,,,https://sh.lianjia.com/zufang/SH2140343639505633280.html,2026-04-23 00:23:41,31.18391,121.69528
chuansha,整租·思凡南苑 4室1厅 南,整租,思凡南苑,浦东-川沙-思凡南苑,104.17,4室1厅,南,,3600,34.6,,,https://sh.lianjia.com/zufang/SH2140654248604467200.html,2026-04-23 00:23:47,31.14212,121.74774
chuansha,整租·龙馨华庭 2室2厅 南,整租,龙馨华庭,浦东-川沙-龙馨华庭,84.00,2室2厅,南,,3300,39.3,,,https://sh.lianjia.com/zufang/SH2141358526314840064.html,2026-04-23 00:23:47,31.15679,121.71539
chuansha,整租·心圆西苑 3室1厅 南,整租,心圆西苑,浦东-川沙-心圆西苑,78.00,3室1厅,南,,3990,51.2,,,https://sh.lianjia.com/zufang/SH2026647699486408704.html,2026-04-23 00:23:44,31.17407,121.68609
chuansha,整租·凌川佳苑 3室2厅 南,整租,凌川佳苑,浦东-川沙-凌川佳苑,112.00,3室2厅,南,,6600,58.9,,,https://sh.lianjia.com/zufang/SH2150133047448567808.html,2026-04-23 00:23:47,31.17111,121.66367
chuansha,整租·江晖苑 1室1厅 南,整租,江晖苑,浦东-川沙-江晖苑,56.70,1室1厅,南,,3045,53.7,,,https://sh.lianjia.com/zufang/SH2027634790940803072.html,2026-04-23 00:25:05,31.176065,121.73265
chuansha,独栋·府邸公寓 川沙店 复试 1室1厅,独栋,府邸公寓 川沙店 复试,,25.00,1室1厅,,,2100,84.0,,,https://sh.lianjia.com/apartment/90220.html,2026-04-23 00:23:44,39.730087,116.135325
chuansha,整租·西泥路小区 1室1厅 东南,整租,西泥路小区,浦东-川沙-西泥路小区,47.29,1室1厅,东南,,3150,66.6,,,https://sh.lianjia.com/zufang/SH1816116496607215616.html,2026-04-23 00:23:44,31.197151,121.699204
chuansha,整租·顺馨佳园 1室1厅 南,整租,顺馨佳园,浦东-川沙-顺馨佳园,60.46,1室1厅,南,,3400,56.2,,,https://sh.lianjia.com/zufang/SH2022341431900766208.html,2026-04-23 00:25:05,31.19436,121.6722
chuansha,整租·天和湖滨家园(公寓) 2室2厅 南,整租,天和湖滨家园(公寓),浦东-川沙-天和湖滨家园(公寓),93.12,2室2厅,南,,6600,70.9,,,https://sh.lianjia.com/zufang/SH2048771746986721280.html,2026-04-23 00:25:59,31.15584,121.70348
chuansha,独栋·贰拾伍号公寓 25号公寓 独厨独卫 全实墙 全屋采光一居室 2号线直达张江陆家嘴 开间,独栋,贰拾伍号公寓 25号公寓,,30.00,,,,1900-2100,,,,https://sh.lianjia.com/apartment/83483.html,2026-04-23 00:23:44,40.096161,116.368234
chuansha,整租·龙馨华庭 3室2厅 南,整租,龙馨华庭,浦东-川沙-龙馨华庭,126.89,3室2厅,南,,3800,29.9,,,https://sh.lianjia.com/zufang/SH2045785310536663040.html,2026-04-23 00:25:59,31.15679,121.71539
chuansha,整租·同济东时区 3室2厅 南,整租,同济东时区,浦东-川沙-同济东时区,89.18,3室2厅,南,,4200,47.1,,,https://sh.lianjia.com/zufang/SH2054774838844719104.html,2026-04-23 00:25:59,31.14903,121.74438
chuansha,整租·心圆西苑 2室0厅 南,整租,心圆西苑,浦东-川沙-心圆西苑,56.00,2室0厅,南,,3045,54.4,,,https://sh.lianjia.com/zufang/SH2027718016837353472.html,2026-04-23 00:23:44,31.17407,121.68609
chuansha,整租·晨阳小区 3室2厅 南,整租,晨阳小区,浦东-川沙-晨阳小区,99.00,3室2厅,南,,3480,35.2,,,https://sh.lianjia.com/zufang/SH1793657991552040960.html,2026-04-23 00:23:44,31.17945,121.74677
chuansha,整租·河滨小区 2室2厅 南,整租,河滨小区,浦东-川沙-河滨小区,80.00,2室2厅,南,,3500,43.8,,,https://sh.lianjia.com/zufang/SH2150485427889373184.html,2026-04-23 00:23:44,31.19505,121.6987
chuansha,整租·心圆西苑 4室1厅 南,整租,心圆西苑,浦东-川沙-心圆西苑,100.00,4室1厅,南,,4500,45.0,,,https://sh.lianjia.com/zufang/SH2014660694149955584.html,2026-04-23 00:24:57,31.17407,121.68609
chuansha,整租·天环苑 3室2厅 南,整租,天环苑,浦东-川沙-天环苑,105.44,3室2厅,南,,4300,40.8,,,https://sh.lianjia.com/zufang/SH2152978343157301248.html,2026-04-23 00:23:44,31.17349,121.7351
chuansha,整租·河滨小区 2室1厅 南,整租,河滨小区,浦东-川沙-河滨小区,48.27,2室1厅,南,,3255,67.4,,,https://sh.lianjia.com/zufang/SH2053322689690468352.html,2026-04-23 00:25:59,31.19505,121.6987
chuansha,整租·新德佳苑 1室1厅 南/北,整租,新德佳苑,浦东-川沙-新德佳苑,55.66,1室1厅,南/北,,3675,66.0,,,https://sh.lianjia.com/zufang/SH2158114671125594112.html,2026-04-23 00:24:57,31.1918,121.66386
chuansha,整租·江通苑 2室2厅 南,整租,江通苑,浦东-川沙-江通苑,82.00,2室2厅,南,,4500,54.9,,,https://sh.lianjia.com/zufang/SH2154581465118015488.html,2026-04-23 00:23:44,31.17111,121.66367
chuansha,整租·心圆西苑 2室1厅 南,整租,心圆西苑,浦东-川沙-心圆西苑,73.85,2室1厅,南,,3900,52.8,,,https://sh.lianjia.com/zufang/SH2154784389563678720.html,2026-04-23 00:23:44,31.17407,121.68609
chuansha,整租·东亚启航公馆 2室1厅 南,整租,东亚启航公馆,浦东-川沙-东亚启航公馆,78.96,2室1厅,南,,3800,48.1,,,https://sh.lianjia.com/zufang/SH2155256477135142912.html,2026-04-23 00:23:44,31.15259,121.74639
chuansha,整租·江晖苑 3室1厅 南,整租,江晖苑,浦东-川沙-江晖苑,77.00,3室1厅,南,,3200,41.6,,,https://sh.lianjia.com/zufang/SH2156271270730137600.html,2026-04-23 00:23:44,31.176065,121.73265
chuansha,整租·绿海家园 1室1厅 南,整租,绿海家园,浦东-川沙-绿海家园,41.33,1室1厅,南,,3000,72.6,,,https://sh.lianjia.com/zufang/SH2150800373844017152.html,2026-04-23 00:25:54,40.070626,116.330928
chuansha,整租·川沙路5046弄 1室1厅 南,整租,川沙路5046弄,浦东-川沙-川沙路,51.82,1室1厅,南,,3780,72.9,,,https://sh.lianjia.com/zufang/SH2152679460845912064.html,2026-04-23 00:25:54,31.1341,121.71743
chuansha,整租·天和湖滨家园(公寓) 2室2厅 南,整租,天和湖滨家园(公寓),浦东-川沙-天和湖滨家园(公寓),86.00,2室2厅,南,,3850,44.8,,,https://sh.lianjia.com/zufang/SH2081385957512183808.html,2026-04-23 00:25:59,31.15584,121.70348
chuansha,整租·妙栏路392弄 2室1厅 南,整租,妙栏路392弄,浦东-川沙-妙栏路,68.72,2室1厅,南,,3400,49.5,,,https://sh.lianjia.com/zufang/SH2151654234922156032.html,2026-04-23 00:25:54,31.18782,121.68669
chuansha,整租·永达城市公寓 3室1厅 南,整租,永达城市公寓,浦东-川沙-永达城市公寓,95.71,3室1厅,南,,5400,56.4,,,https://sh.lianjia.com/zufang/SH2090789707129552896.html,2026-04-23 00:25:54,31.17111,121.66367
chuansha,整租·馨汇佳苑 2室1厅 南,整租,馨汇佳苑,浦东-川沙-馨汇佳苑,78.00,2室1厅,南,,4090,52.4,,,https://sh.lianjia.com/zufang/SH2144396488246034432.html,2026-04-23 00:25:54,31.17942,121.7052
chuansha,整租·晨阳小区 1室1厅 南,整租,晨阳小区,浦东-川沙-晨阳小区,50.00,1室1厅,南,,2520,50.4,,,https://sh.lianjia.com/zufang/SH1988544952551866368.html,2026-04-23 00:23:47,31.17945,121.74677
chuansha,整租·江通苑 2室2厅 南,整租,江通苑,浦东-川沙-江通苑,82.00,2室2厅,南,,3570,43.5,,,https://sh.lianjia.com/zufang/SH2077433950564777984.html,2026-04-23 00:23:47,31.17111,121.66367
chuansha,整租·佳腾花园 2室2厅 南,整租,佳腾花园,浦东-川沙-佳腾花园,89.33,2室2厅,南,,4500,50.4,,,https://sh.lianjia.com/zufang/SH2141463006981128192.html,2026-04-23 00:23:47,31.2004,121.68137
chuansha,整租·江通苑 2室1厅 南,整租,江通苑,浦东-川沙-江通苑,78.00,2室1厅,南,,3570,45.8,,,https://sh.lianjia.com/zufang/SH2078476114430263296.html,2026-04-23 00:25:59,31.17111,121.66367
chuansha,整租·绿海家园 2室2厅 南,整租,绿海家园,浦东-川沙-绿海家园,90.00,2室2厅,南,,3990,44.3,,,https://sh.lianjia.com/zufang/SH2144400523380391936.html,2026-04-23 00:25:54,40.070626,116.330928
chuansha,整租·海霞新苑 3室2厅 南,整租,海霞新苑,浦东-川沙-海霞新苑,112.00,3室2厅,南,,3500,31.2,,,https://sh.lianjia.com/zufang/SH2151240662769467392.html,2026-04-23 00:25:54,31.16995,121.7352
chuansha,整租·盛丰佳苑 3室2厅 南,整租,盛丰佳苑,浦东-川沙-盛丰佳苑,110.00,3室2厅,南,,4725,43.0,,,https://sh.lianjia.com/zufang/SH2112830334344101888.html,2026-04-23 00:25:59,31.17111,121.66367
chuansha,整租·妙栏路200弄 3室1厅 南,整租,妙栏路200弄,浦东-川沙-妙栏路,87.39,3室1厅,南,,5460,62.5,,,https://sh.lianjia.com/zufang/SH2149464969299623936.html,2026-04-23 00:25:54,31.18773,121.68522
chuansha,整租·城南小区 2室1厅 南,整租,城南小区,浦东-川沙-城南小区,63.12,2室1厅,南,,3334,52.8,,,https://sh.lianjia.com/zufang/SH2152679130045349888.html,2026-04-23 00:25:54,31.19253,121.70681
chuansha,整租·爱家华城 2室2厅 南,整租,爱家华城,浦东-川沙-爱家华城,83.00,2室2厅,南,,3000,36.1,,,https://sh.lianjia.com/zufang/SH2142135348816248832.html,2026-04-23 00:23:47,31.1126,121.70372
chuansha,整租·川虹新苑 2室1厅 南,整租,川虹新苑,浦东-川沙-川虹新苑,77.81,2室1厅,南,,4700,60.4,,,https://sh.lianjia.com/zufang/SH2149458952134328320.html,2026-04-23 00:23:47,31.18231,121.71077
chuansha,整租·阳光城愉景湾 5室2厅 复式 南,整租,阳光城愉景湾,浦东-川沙-阳光城愉景湾,191.30,5室2厅,,,17000,88.9,,,https://sh.lianjia.com/zufang/SH2113195808038846464.html,2026-04-23 00:23:47,31.17929,121.69974
chuansha,整租·欧泊圣堡苑 6室6厅 南,整租,欧泊圣堡苑,浦东-川沙-欧泊圣堡苑,294.00,6室6厅,南,,15000,51.0,,,https://sh.lianjia.com/zufang/SH2029048765834330112.html,2026-04-23 00:23:47,31.16904,121.66229
chuansha,整租·阳光城愉景湾 3室2厅 南/北,整租,阳光城愉景湾,浦东-川沙-阳光城愉景湾,96.59,3室2厅,南/北,,6500,67.3,,,https://sh.lianjia.com/zufang/SH2137518287292989440.html,2026-04-23 00:24:01,31.17929,121.69974
chuansha,整租·思凡南苑 3室1厅 南,整租,思凡南苑,浦东-川沙-思凡南苑,76.00,3室1厅,南,,2900,38.2,,,https://sh.lianjia.com/zufang/SH2154131612273475584.html,2026-04-23 00:23:50,31.14212,121.74774
chuansha,整租·阳光城愉景湾 3室2厅 南,整租,阳光城愉景湾,浦东-川沙-阳光城愉景湾,97.00,3室2厅,南,,7500,77.3,,,https://sh.lianjia.com/zufang/SH2146933693657120768.html,2026-04-23 00:23:50,31.17929,121.69974
chuansha,整租·新生小区 2室1厅 南,整租,新生小区,浦东-川沙-新生小区,78.50,2室1厅,南,,2600,33.1,,,https://sh.lianjia.com/zufang/SH2154838103364206592.html,2026-04-23 00:23:50,31.10024,121.68265
chuansha,整租·海迪创客小镇 3室2厅 南,整租,海迪创客小镇,浦东-川沙-海迪创客小镇,100.51,3室2厅,南,,3200,31.8,,,https://sh.lianjia.com/zufang/SH2148713408311066624.html,2026-04-23 00:24:01,31.195229,121.691296
chuansha,整租·天和湖滨家园(公寓) 2室1厅 南,整租,天和湖滨家园(公寓),浦东-川沙-天和湖滨家园(公寓),73.27,2室1厅,南,,3100,42.3,,,https://sh.lianjia.com/zufang/SH2140392375766220800.html,2026-04-23 00:24:01,31.15584,121.70348
chuansha,整租·佳腾花园 2室1厅 南,整租,佳腾花园,浦东-川沙-佳腾花园,87.93,2室1厅,南,,5200,59.1,,,https://sh.lianjia.com/zufang/SH2155686190165000192.html,2026-04-23 00:23:50,31.2004,121.68137
chuansha,整租·界龙花苑 2室2厅 南,整租,界龙花苑,浦东-川沙-界龙花苑,94.00,2室2厅,南,,4100,43.6,,,https://sh.lianjia.com/zufang/SH2147320417650475008.html,2026-04-23 00:23:58,31.18673,121.68976
chuansha,整租·佳运公寓 2室2厅 南,整租,佳运公寓,浦东-川沙-佳运公寓,108.00,2室2厅,南,,6000,55.6,,,https://sh.lianjia.com/zufang/SH2156328997544263680.html,2026-04-23 00:23:50,31.189,121.69781
chuansha,整租·川六公路1789弄 2室1厅 南,整租,川六公路1789弄,浦东-川沙-川六公路,94.55,2室1厅,南,,2700,28.6,,,https://sh.lianjia.com/zufang/SH2150533832497954816.html,2026-04-23 00:23:50,31.15659,121.72277
chuansha,整租·南市街小区 2室1厅 南,整租,南市街小区,浦东-川沙-南市街小区,64.00,2室1厅,南,,3700,57.8,,,https://sh.lianjia.com/zufang/SH2142080808037384192.html,2026-04-23 00:23:50,31.19762,121.700218
chuansha,整租·陆家嘴锦绣云澜 3室2厅 南,整租,陆家嘴锦绣云澜,浦东-川沙-陆家嘴锦绣云澜,98.13,3室2厅,南,,8500,86.6,,,https://sh.lianjia.com/zufang/SH2149380967221952512.html,2026-04-23 00:23:58,31.18941,121.69466
chuansha,整租·恒纬家苑 3室2厅 南,整租,恒纬家苑,浦东-川沙-恒纬家苑,108.00,3室2厅,南,,3800,35.2,,,https://sh.lianjia.com/zufang/SH2122667379933577216.html,2026-04-23 00:23:58,31.15452,121.75215
chuansha,整租·润沁家园 2室1厅 南,整租,润沁家园,浦东-川沙-润沁家园,83.00,2室1厅,南,,2300,27.7,,,https://sh.lianjia.com/zufang/SH2127700281205456896.html,2026-04-23 00:23:50,31.17111,121.66367
chuansha,整租·江晖苑 2室2厅 南,整租,江晖苑,浦东-川沙-江晖苑,77.00,2室2厅,南,,3100,40.3,,,https://sh.lianjia.com/zufang/SH2126661787934785536.html,2026-04-23 00:23:58,31.176065,121.73265
chuansha,整租·运通路728弄 3室1厅 南,整租,运通路728弄,浦东-川沙-运通路,77.50,3室1厅,南,,3300,42.6,,,https://sh.lianjia.com/zufang/SH2141213787686961152.html,2026-04-23 00:23:58,31.20566,121.69827
chuansha,整租·贝越水岸名邸 3室2厅 南,整租,贝越水岸名邸,浦东-川沙-贝越水岸名邸,133.00,3室2厅,南,,6800,51.1,,,https://sh.lianjia.com/zufang/SH2153706901534146560.html,2026-04-23 00:24:01,31.18001,121.69131
chuansha,整租·凌港城 2室1厅 南,整租,凌港城,浦东-川沙-凌港城,75.00,2室1厅,南,,3000,40.0,,,https://sh.lianjia.com/zufang/SH2155590042335051776.html,2026-04-23 00:23:58,31.1723,121.73198
chuansha,整租·华府188 3室2厅 南,整租,华府188,浦东-川沙-华府,89.00,3室2厅,南,,8500,95.5,,,https://sh.lianjia.com/zufang/SH2148029875984793600.html,2026-04-23 00:23:50,31.18326,121.69384
chuansha,整租·曙光东苑 3室2厅 南,整租,曙光东苑,浦东-川沙-曙光东苑,142.39,3室2厅,南,,7000,49.2,,,https://sh.lianjia.com/zufang/SH2124430063481913344.html,2026-04-23 00:23:58,31.1934,121.70716
chuansha,整租·新德佳苑 2室2厅 南/北,整租,新德佳苑,浦东-川沙-新德佳苑,83.00,2室2厅,南/北,,3900,47.0,,,https://sh.lianjia.com/zufang/SH2091722710567616512.html,2026-04-23 00:23:50,31.1918,121.66386
chuansha,整租·沙田公寓 2室1厅 南,整租,沙田公寓,浦东-川沙-沙田公寓,70.78,2室1厅,南,,4300,60.8,,,https://sh.lianjia.com/zufang/SH2146586731921539072.html,2026-04-23 00:23:58,31.1974,121.66723
chuansha,整租·阳光城愉景湾 3室2厅 南,整租,阳光城愉景湾,浦东-川沙-阳光城愉景湾,96.62,3室2厅,南,,6900,71.4,,,https://sh.lianjia.com/zufang/SH2077964847395373056.html,2026-04-23 00:23:58,31.17929,121.69974
chuansha,整租·晨阳小区 2室1厅 南,整租,晨阳小区,浦东-川沙-晨阳小区,76.86,2室1厅,南,,3000,39.0,,,https://sh.lianjia.com/zufang/SH2154907132879699968.html,2026-04-23 00:23:50,31.17945,121.74677
chuansha,整租·保利云上拾光 3室2厅 南,整租,保利云上拾光,浦东-川沙-保利云上拾光,85.44,3室2厅,南,,4700,55.0,,,https://sh.lianjia.com/zufang/SH2144732928989462528.html,2026-04-23 00:23:58,31.17111,121.66367
chuansha,整租·晨阳小区 3室1厅 南,整租,晨阳小区,浦东-川沙-晨阳小区,98.54,3室1厅,南,,3500,35.5,,,https://sh.lianjia.com/zufang/SH2154521953879195648.html,2026-04-23 00:23:58,31.17945,121.74677
chuansha,整租·新德三村 1室1厅 南,整租,新德三村,浦东-川沙-新德三村,45.60,1室1厅,南,,2800,61.4,,,https://sh.lianjia.com/zufang/SH2132519236193484800.html,2026-04-23 00:24:01,31.20053,121.68784
chuansha,整租·城南居委小区 1室1厅 南,整租,城南居委小区,浦东-川沙-城南居委小区,34.26,1室1厅,南,,2900,84.6,,,https://sh.lianjia.com/zufang/SH2151657479606370304.html,2026-04-23 00:24:01,31.193838,121.701543
chuansha,整租·鼎鑫名流苑 1室1厅 南,整租,鼎鑫名流苑,浦东-川沙-鼎鑫名流苑,65.42,1室1厅,南,,4500,68.8,,,https://sh.lianjia.com/zufang/SH2152348289905721344.html,2026-04-23 00:24:01,31.1867,121.70551
chuansha,整租·润沁家园 2室1厅 南,整租,润沁家园,浦东-川沙-润沁家园,83.00,2室1厅,南,,2300,27.7,,,https://sh.lianjia.com/zufang/SH2127702420992557056.html,2026-04-23 00:23:53,31.17111,121.66367
chuansha,整租·青厦小区 2室1厅 南,整租,青厦小区,浦东-川沙-青厦小区,75.48,2室1厅,南,,3500,46.4,,,https://sh.lianjia.com/zufang/SH2139935989555003392.html,2026-04-23 00:23:53,31.19859,121.68386
chuansha,整租·润沁家园 2室1厅 南,整租,润沁家园,浦东-川沙-润沁家园,83.00,2室1厅,南,,3000,36.1,,,https://sh.lianjia.com/zufang/SH2127700990609063936.html,2026-04-23 00:24:01,31.17111,121.66367
chuansha,整租·金湾佳园 2室1厅 南,整租,金湾佳园,浦东-川沙-金湾佳园,85.39,2室1厅,南,,3200,37.5,,,https://sh.lianjia.com/zufang/SH2138657618321735680.html,2026-04-23 00:24:01,31.14301,121.7539
chuansha,整租·新德公寓(浦东) 2室2厅 南,整租,新德公寓(浦东),浦东-川沙-新德公寓(浦东),64.39,2室2厅,南,,4300,66.8,,,https://sh.lianjia.com/zufang/SH2157037880554291200.html,2026-04-23 00:23:53,31.197,121.68381
chuansha,整租·盛世联弈苑 2室1厅 南,整租,盛世联弈苑,浦东-川沙-盛世联弈苑,84.53,2室1厅,南,,3800,45.0,,,https://sh.lianjia.com/zufang/SH2117450557193977856.html,2026-04-23 00:23:53,31.1554,121.75068
chuansha,整租·城南小区 2室1厅 南,整租,城南小区,浦东-川沙-城南小区,66.53,2室1厅,南,,3500,52.6,,,https://sh.lianjia.com/zufang/SH2128833610260676608.html,2026-04-23 00:23:53,31.19253,121.70681
chuansha,整租·妙栏小区 2室2厅 南/北,整租,妙栏小区,浦东-川沙-妙栏小区,73.31,2室2厅,南/北,,3900,53.2,,,https://sh.lianjia.com/zufang/SH1662762936784912384.html,2026-04-23 00:23:58,31.18866,121.68577
chuansha,整租·心圆西苑 2室1厅 南,整租,心圆西苑,浦东-川沙-心圆西苑,74.00,2室1厅,南,,3800,51.4,,,https://sh.lianjia.com/zufang/SH2150946461058072576.html,2026-04-23 00:23:53,31.17407,121.68609
chuansha,整租·鹿康雅苑 2室2厅 南,整租,鹿康雅苑,浦东-川沙-鹿康雅苑,77.60,2室2厅,南,,2000,25.8,,,https://sh.lianjia.com/zufang/SH2122952079059189760.html,2026-04-23 00:23:53,31.17111,121.66367
chuansha,整租·爱家华城东区 3室2厅 南,整租,爱家华城东区,浦东-川沙-爱家华城东区,132.33,3室2厅,南,,3000,22.7,,,https://sh.lianjia.com/zufang/SH2125209875708379136.html,2026-04-23 00:23:53,31.1126,121.70372
chuansha,整租·瀚龙苑 2室2厅 复式 南/北,整租,瀚龙苑,浦东-川沙-瀚龙苑,116.97,2室2厅,,,5500,47.0,,,https://sh.lianjia.com/zufang/SH2154961640708112384.html,2026-04-23 00:23:53,31.19688,121.66228
chuansha,整租·界龙新世纪公寓 3室2厅 南,整租,界龙新世纪公寓,浦东-川沙-界龙新世纪公寓,152.77,3室2厅,南,,7000,45.8,,,https://sh.lianjia.com/zufang/SH2146091477334228992.html,2026-04-23 00:23:58,31.19696,121.69265
chuansha,整租·妙栏路392弄 3室1厅 南,整租,妙栏路392弄,浦东-川沙-妙栏路,87.00,3室1厅,南,,4500,51.7,,,https://sh.lianjia.com/zufang/SH2153362308103929856.html,2026-04-23 00:23:58,31.18782,121.68669
chuansha,整租·施湾家园 3室1厅 南,整租,施湾家园,浦东-川沙-施湾家园,100.00,3室1厅,南,,3000,30.0,,,https://sh.lianjia.com/zufang/SH2130940178733203456.html,2026-04-23 00:23:53,31.14752,121.75252
chuansha,整租·海霞新苑 3室2厅 南,整租,海霞新苑,浦东-川沙-海霞新苑,111.73,3室2厅,南,,2300,20.6,,,https://sh.lianjia.com/zufang/SH2150893498830684160.html,2026-04-23 00:23:53,31.16995,121.7352
chuansha,整租·园西二居 2室1厅 南,整租,园西二居,浦东-川沙-园西二居,62.00,2室1厅,南,,3800,61.3,,,https://sh.lianjia.com/zufang/SH2151253575672528896.html,2026-04-23 00:23:53,31.19225,121.69322
chuansha,整租·明珠小区(川沙) 2室1厅 南/北,整租,明珠小区(川沙),浦东-川沙-明珠小区(川沙),84.00,2室1厅,南/北,,3800,45.2,,,https://sh.lianjia.com/zufang/SH2121825574644088832.html,2026-04-23 00:23:53,31.19821,121.68604
chuansha,整租·临园小区 3室1厅 南,整租,临园小区,浦东-川沙-临园小区,75.00,3室1厅,南,,3800,50.7,,,https://sh.lianjia.com/zufang/SH2154546435910008832.html,2026-04-23 00:23:53,31.19396,121.6954
chuansha,整租·御景华庭 2室1厅 南,整租,御景华庭,浦东-川沙-御景华庭,97.47,2室1厅,南,,5700,58.5,,,https://sh.lianjia.com/zufang/SH2126706892011995136.html,2026-04-23 00:24:05,31.19503,121.68196
chuansha,整租·绿地云悦坊 2室1厅 东,整租,绿地云悦坊,浦东-川沙-绿地云悦坊,50.73,2室1厅,东,,4200,82.8,,,https://sh.lianjia.com/zufang/SH2087881371182694400.html,2026-04-23 00:24:01,31.18391,121.69528
chuansha,整租·江凌苑 2室1厅 南,整租,江凌苑,浦东-川沙-江凌苑,76.26,2室1厅,南,,2400,31.5,,,https://sh.lianjia.com/zufang/SH2105638511360081920.html,2026-04-23 00:24:05,31.175497,121.730432
chuansha,整租·舒馨北苑 2室1厅 南,整租,舒馨北苑,浦东-川沙-舒馨北苑,74.00,2室1厅,南,,4000,54.1,,,https://sh.lianjia.com/zufang/SH2153474226785353728.html,2026-04-23 00:23:53,31.19366,121.66297
chuansha,整租·妙栏路200弄 4室1厅 南,整租,妙栏路200弄,浦东-川沙-妙栏路,91.31,4室1厅,南,,4500,49.3,,,https://sh.lianjia.com/zufang/SH2119711548304785408.html,2026-04-23 00:23:53,31.18773,121.68522
chuansha,整租·阳光城愉景湾 2室2厅 南/北,整租,阳光城愉景湾,浦东-川沙-阳光城愉景湾,69.40,2室2厅,南/北,,5500,79.3,,,https://sh.lianjia.com/zufang/SH2154139673033703424.html,2026-04-23 00:23:53,31.17929,121.69974
chuansha,整租·北城小区 2室1厅 南,整租,北城小区,浦东-川沙-北城小区,62.73,2室1厅,南,,3300,52.6,,,https://sh.lianjia.com/zufang/SH2104942660396515328.html,2026-04-23 00:23:53,31.19963,121.69697
chuansha,整租·华天小区 2室1厅 南,整租,华天小区,浦东-川沙-华天小区,57.72,2室1厅,南,,2700,46.8,,,https://sh.lianjia.com/zufang/SH2102263606237200384.html,2026-04-23 00:23:53,31.199,121.68557
chuansha,整租·临园小区 1室1厅 南,整租,临园小区,浦东-川沙-临园小区,52.00,1室1厅,南,,3300,63.5,,,https://sh.lianjia.com/zufang/SH2150143581212377088.html,2026-04-23 00:23:53,31.19396,121.6954
chuansha,整租·绿地云悦坊 4室2厅 南,整租,绿地云悦坊,浦东-川沙-绿地云悦坊,120.00,4室2厅,南,,11000,91.7,,,https://sh.lianjia.com/zufang/SH2115298779128135680.html,2026-04-23 00:23:53,31.18391,121.69528
chuansha,整租·新洲豪园 3室2厅 南,整租,新洲豪园,浦东-川沙-新洲豪园,89.81,3室2厅,南,,5200,57.9,,,https://sh.lianjia.com/zufang/SH2154072690095292416.html,2026-04-23 00:23:58,31.20156,121.68115
chuansha,整租·陆家嘴锦绣云澜 4室2厅 南/北,整租,陆家嘴锦绣云澜,浦东-川沙-陆家嘴锦绣云澜,138.00,4室2厅,南/北,,8300,60.1,,,https://sh.lianjia.com/zufang/SH2146087585234026496.html,2026-04-23 00:23:58,31.18941,121.69466
chuansha,整租·和顺欣苑(东区) 1室1厅 南,整租,和顺欣苑(东区),浦东-川沙-和顺欣苑(东区),60.00,1室1厅,南,,4200,70.0,,,https://sh.lianjia.com/zufang/SH2079480413553688576.html,2026-04-23 00:23:56,31.17111,121.66367
chuansha,整租·龙馨公寓 2室2厅 南,整租,龙馨公寓,浦东-川沙-龙馨公寓,89.00,2室2厅,南,,3800,42.7,,,https://sh.lianjia.com/zufang/SH2121585677735821312.html,2026-04-23 00:23:56,31.159,121.71281
chuansha,整租·妙龙小区 3室1厅 南/北,整租,妙龙小区,浦东-川沙-妙龙小区,75.00,3室1厅,南/北,,4150,55.3,,,https://sh.lianjia.com/zufang/SH2140656591412658176.html,2026-04-23 00:23:56,31.18561,121.68461
chuansha,整租·盛世联弈苑 2室2厅 南,整租,盛世联弈苑,浦东-川沙-盛世联弈苑,82.32,2室2厅,南,,3500,42.5,,,https://sh.lianjia.com/zufang/SH2141142985599877120.html,2026-04-23 00:23:56,31.1554,121.75068
chuansha,整租·和顺欣苑(东区) 1室1厅 南,整租,和顺欣苑(东区),浦东-川沙-和顺欣苑(东区),60.00,1室1厅,南,,4000,66.7,,,https://sh.lianjia.com/zufang/SH2109518933412282368.html,2026-04-23 00:23:56,31.17111,121.66367
chuansha,整租·曙光北苑 3室2厅 南,整租,曙光北苑,浦东-川沙-曙光北苑,134.00,3室2厅,南,,6000,44.8,,,https://sh.lianjia.com/zufang/SH2143022830231486464.html,2026-04-23 00:23:56,31.1947,121.70577
chuansha,整租·绿海家园 2室1厅 南/北,整租,绿海家园,浦东-川沙-绿海家园,63.00,2室1厅,南/北,,3800,60.3,,,https://sh.lianjia.com/zufang/SH2143670611229016064.html,2026-04-23 00:23:56,40.070626,116.330928
chuansha,整租·妙境一村 3室1厅 南,整租,妙境一村,浦东-川沙-妙境一村,85.52,3室1厅,南,,4100,47.9,,,https://sh.lianjia.com/zufang/SH2143758263206805504.html,2026-04-23 00:23:56,31.1886,121.69168
chuansha,整租·沐晨雅苑 2室2厅 南,整租,沐晨雅苑,浦东-川沙-沐晨雅苑,90.00,2室2厅,南,,2500,27.8,,,https://sh.lianjia.com/zufang/SH2153869309368074240.html,2026-04-23 00:23:56,31.17111,121.66367
chuansha,整租·东亚启航公馆 3室2厅 南,整租,东亚启航公馆,浦东-川沙-东亚启航公馆,88.00,3室2厅,南,,4000,45.5,,,https://sh.lianjia.com/zufang/SH2154446497884667904.html,2026-04-23 00:23:56,31.15259,121.74639
chuansha,整租·晨阳小区 2室2厅 南,整租,晨阳小区,浦东-川沙-晨阳小区,98.00,2室2厅,南,,3580,36.5,,,https://sh.lianjia.com/zufang/SH2154600494083866624.html,2026-04-23 00:23:56,31.17945,121.74677
chuansha,整租·百欣苑 1室1厅 东南,整租,百欣苑,浦东-川沙-百欣苑,52.00,1室1厅,东南,,2300,44.2,,,https://sh.lianjia.com/zufang/SH2154778963778469888.html,2026-04-23 00:23:56,31.17331,121.74869
chuansha,整租·保利云上拾光 3室2厅 南,整租,保利云上拾光,浦东-川沙-保利云上拾光,88.89,3室2厅,南,,4800,54.0,,,https://sh.lianjia.com/zufang/SH2154884727528488960.html,2026-04-23 00:23:56,31.17111,121.66367
chuansha,整租·同济东时区 3室1厅 南,整租,同济东时区,浦东-川沙-同济东时区,89.00,3室1厅,南,,4200,47.2,,,https://sh.lianjia.com/zufang/SH2155168138570760192.html,2026-04-23 00:23:56,31.14903,121.74438
chuansha,整租·妙龙小区 2室1厅 南,整租,妙龙小区,浦东-川沙-妙龙小区,73.17,2室1厅,南,,4300,58.8,,,https://sh.lianjia.com/zufang/SH2155507142302367744.html,2026-04-23 00:23:56,31.18561,121.68461
chuansha,整租·沐晨雅苑 1室1厅 南,整租,沐晨雅苑,浦东-川沙-沐晨雅苑,56.00,1室1厅,南,,4200,75.0,,,https://sh.lianjia.com/zufang/SH2156028180526268416.html,2026-04-23 00:23:56,31.17111,121.66367
chuansha,整租·御景华庭 2室1厅 南,整租,御景华庭,浦东-川沙-御景华庭,106.00,2室1厅,南,,6700,63.2,,,https://sh.lianjia.com/zufang/SH2156614873641910272.html,2026-04-23 00:23:56,31.19503,121.68196
chuansha,整租·新德三村 1室1厅 南,整租,新德三村,浦东-川沙-新德三村,43.15,1室1厅,南,,2800,64.9,,,https://sh.lianjia.com/zufang/SH2147688255976374272.html,2026-04-23 00:23:56,31.20053,121.68784
chuansha,整租·新德佳苑 2室1厅 南,整租,新德佳苑,浦东-川沙-新德佳苑,74.00,2室1厅,南,,4500,60.8,,,https://sh.lianjia.com/zufang/SH2149020316276359168.html,2026-04-23 00:23:56,31.1918,121.66386
chuansha,整租·顺馨佳园 2室2厅 南/北,整租,顺馨佳园,浦东-川沙-顺馨佳园,86.71,2室2厅,南/北,,4800,55.4,,,https://sh.lianjia.com/zufang/SH2149750960065347584.html,2026-04-23 00:23:56,31.19436,121.6722
chuansha,整租·思凡花苑一街坊 1室1厅 南,整租,思凡花苑一街坊,浦东-川沙-思凡花苑一街坊,54.00,1室1厅,南,,1600,29.6,,,https://sh.lianjia.com/zufang/SH2156765555032326144.html,2026-04-23 00:23:56,31.14696,121.74758
chuansha,整租·盛世联弈苑 2室2厅 南,整租,盛世联弈苑,浦东-川沙-盛世联弈苑,107.30,2室2厅,南,,3500,32.6,,,https://sh.lianjia.com/zufang/SH2151242555373649920.html,2026-04-23 00:23:56,31.1554,121.75068
chuansha,整租·城南居委小区 2室1厅 南,整租,城南居委小区,浦东-川沙-城南居委小区,62.00,2室1厅,南,,3200,51.6,,,https://sh.lianjia.com/zufang/SH2152017644612485120.html,2026-04-23 00:23:56,31.193838,121.701543
chuansha,整租·永达城市公寓 3室2厅 南,整租,永达城市公寓,浦东-川沙-永达城市公寓,130.00,3室2厅,南,,7000,53.8,,,https://sh.lianjia.com/zufang/SH2152251163318157312.html,2026-04-23 00:23:56,31.17111,121.66367
chuansha,整租·贝越水岸名邸 2室2厅 南,整租,贝越水岸名邸,浦东-川沙-贝越水岸名邸,93.70,2室2厅,南,,5800,61.9,,,https://sh.lianjia.com/zufang/SH2153106802013634560.html,2026-04-23 00:23:56,31.18001,121.69131
chuansha,整租·保利云上拾光 3室1厅 南,整租,保利云上拾光,浦东-川沙-保利云上拾光,85.45,3室1厅,南,,5000,58.5,,,https://sh.lianjia.com/zufang/SH2153504310078472192.html,2026-04-23 00:23:56,31.17111,121.66367
chuansha,整租·曙光南桥小区 1室1厅 南,整租,曙光南桥小区,浦东-川沙-曙光南桥小区,41.79,1室1厅,南,,3000,71.8,,,https://sh.lianjia.com/zufang/SH2157776176955785216.html,2026-04-23 00:23:56,31.1935,121.70499
chuansha,整租·绿海家园 2室1厅 南,整租,绿海家园,浦东-川沙-绿海家园,66.92,2室1厅,南,,3800,56.8,,,https://sh.lianjia.com/zufang/SH2157709030435323904.html,2026-04-23 00:24:01,40.070626,116.330928
chuansha,整租·绿地云悦坊 2室1厅 西,整租,绿地云悦坊,浦东-川沙-绿地云悦坊,50.00,2室1厅,西,,4300,86.0,,,https://sh.lianjia.com/zufang/SH2139231045709463552.html,2026-04-23 00:23:58,31.18391,121.69528
chuansha,整租·佳洲欣苑 2室2厅 南,整租,佳洲欣苑,浦东-川沙-佳洲欣苑,98.00,2室2厅,南,,4200,42.9,,,https://sh.lianjia.com/zufang/SH2148652021094285312.html,2026-04-23 00:23:58,31.18999,121.68294
chuansha,整租·鸿基公寓 2室2厅 南,整租,鸿基公寓,浦东-川沙-鸿基公寓,129.60,2室2厅,南,,5300,40.9,,,https://sh.lianjia.com/zufang/SH1922616245887172608.html,2026-04-23 00:23:58,31.19623,121.66092
chuansha,整租·明珠小区(川沙) 2室1厅 南,整租,明珠小区(川沙),浦东-川沙-明珠小区(川沙),85.27,2室1厅,南,,4000,46.9,,,https://sh.lianjia.com/zufang/SH2148696958594711552.html,2026-04-23 00:23:58,31.19821,121.68604
chuansha,整租·百顺苑 2室1厅 南,整租,百顺苑,浦东-川沙-百顺苑,84.00,2室1厅,南,,2500,29.8,,,https://sh.lianjia.com/zufang/SH2157364934789300224.html,2026-04-23 00:23:58,31.17111,121.66367
chuansha,整租·绿海家园 2室1厅 南,整租,绿海家园,浦东-川沙-绿海家园,61.12,2室1厅,南,,3800,62.2,,,https://sh.lianjia.com/zufang/SH2140474833413079040.html,2026-04-23 00:23:58,40.070626,116.330928
chuansha,整租·绿地云悦坊 1室1厅 北,整租,绿地云悦坊,浦东-川沙-绿地云悦坊,38.89,1室1厅,北,,3500,90.0,,,https://sh.lianjia.com/zufang/SH2144800390728646656.html,2026-04-23 00:23:58,31.18391,121.69528
chuansha,整租·城南居委小区 2室1厅 南,整租,城南居委小区,浦东-川沙-城南居委小区,54.13,2室1厅,南,,4300,79.4,,,https://sh.lianjia.com/zufang/SH2155576766083629056.html,2026-04-23 00:24:05,31.193838,121.701543
chuansha,整租·绿地云悦坊 3室2厅 南,整租,绿地云悦坊,浦东-川沙-绿地云悦坊,70.00,3室2厅,南,,5500,78.6,,,https://sh.lianjia.com/zufang/SH2143989298624462848.html,2026-04-23 00:23:58,31.18391,121.69528
chuansha,整租·心圆西苑 2室2厅 南,整租,心圆西苑,浦东-川沙-心圆西苑,79.00,2室2厅,南,,4600,58.2,,,https://sh.lianjia.com/zufang/SH2115649432576851968.html,2026-04-23 00:23:58,31.17407,121.68609
chuansha,整租·天和湖滨家园(公寓) 2室2厅 南,整租,天和湖滨家园(公寓),浦东-川沙-天和湖滨家园(公寓),85.88,2室2厅,南,,3600,41.9,,,https://sh.lianjia.com/zufang/SH2143979727277260800.html,2026-04-23 00:23:58,31.15584,121.70348
chuansha,整租·见龙苑 3室2厅 南,整租,见龙苑,浦东-川沙-见龙苑,74.02,3室2厅,南,,6300,85.1,,,https://sh.lianjia.com/zufang/SH2153416666870972416.html,2026-04-23 00:23:58,31.19717,121.6889
chuansha,整租·同济东时区 3室2厅 南,整租,同济东时区,浦东-川沙-同济东时区,87.97,3室2厅,南,,4200,47.7,,,https://sh.lianjia.com/zufang/SH2154453001874440192.html,2026-04-23 00:23:58,31.14903,121.74438
chuansha,整租·万馨佳园 4室1厅 南/北,整租,万馨佳园,浦东-川沙-万馨佳园,82.94,4室1厅,南/北,,5500,66.3,,,https://sh.lianjia.com/zufang/SH2057797916646440960.html,2026-04-23 00:24:01,31.19332,121.66917
chuansha,整租·舒馨北苑 1室1厅 南,整租,舒馨北苑,浦东-川沙-舒馨北苑,56.07,1室1厅,南,,2600,46.4,,,https://sh.lianjia.com/zufang/SH2151286005846507520.html,2026-04-23 00:24:01,31.19366,121.66297
chuansha,整租·月亮湾园 3室2厅 南/北,整租,月亮湾园,浦东-川沙-月亮湾园,132.74,3室2厅,南/北,,5800,43.7,,,https://sh.lianjia.com/zufang/SH2125426316583895040.html,2026-04-23 00:24:01,31.19183,121.68001
chuansha,整租·锦川佳苑 2室1厅 南/北,整租,锦川佳苑,浦东-川沙-锦川佳苑,83.00,2室1厅,南/北,,3800,45.8,,,https://sh.lianjia.com/zufang/SH2070136853096300544.html,2026-04-23 00:24:05,31.17623,121.68504
chuansha,整租·阳光城愉景湾 3室2厅 南,整租,阳光城愉景湾,浦东-川沙-阳光城愉景湾,90.54,3室2厅,南,,6200,68.5,,,https://sh.lianjia.com/zufang/SH2144621026498052096.html,2026-04-23 00:24:05,31.17929,121.69974
chuansha,整租·心圆西苑 3室1厅 南,整租,心圆西苑,浦东-川沙-心圆西苑,74.02,3室1厅,南,,4000,54.0,,,https://sh.lianjia.com/zufang/SH2107756546917138432.html,2026-04-23 00:24:05,31.17407,121.68609
chuansha,整租·川南奉公路3424弄 3室2厅 北,整租,川南奉公路3424弄,浦东-川沙-川南奉公路,105.42,3室2厅,北,,2500,23.7,,,https://sh.lianjia.com/zufang/SH2129536922345799680.html,2026-04-23 00:24:01,31.16348,121.74611
chuansha,整租·天和湖滨家园(公寓) 2室1厅 南,整租,天和湖滨家园(公寓),浦东-川沙-天和湖滨家园(公寓),97.73,2室1厅,南,,3771,38.6,,,https://sh.lianjia.com/zufang/SH2154539091864059904.html,2026-04-23 00:24:01,31.15584,121.70348
chuansha,整租·新德路386弄 3室1厅 南,整租,新德路386弄,浦东-川沙-新德路,84.21,3室1厅,南,,4500,53.4,,,https://sh.lianjia.com/zufang/SH2145348575981207552.html,2026-04-23 00:24:01,31.19683,121.67924
chuansha,整租·阳光城愉景湾 3室2厅 南,整租,阳光城愉景湾,浦东-川沙-阳光城愉景湾,97.00,3室2厅,南,,7500,77.3,,,https://sh.lianjia.com/zufang/SH2146136957997023232.html,2026-04-23 00:24:01,31.17929,121.69974
chuansha,整租·新川小区 2室1厅 南,整租,新川小区,浦东-川沙-新川小区,65.00,2室1厅,南,,3800,58.5,,,https://sh.lianjia.com/zufang/SH2139193150734860288.html,2026-04-23 00:24:01,31.19593,121.69898
chuansha,整租·海迪创客小镇 4室0厅 南,整租,海迪创客小镇,浦东-川沙-海迪创客小镇,107.36,4室0厅,南,,4000,37.3,,,https://sh.lianjia.com/zufang/SH2087857649222680576.html,2026-04-23 00:24:01,31.195229,121.691296
chuansha,整租·绿地云悦坊 1室1厅 西,整租,绿地云悦坊,浦东-川沙-绿地云悦坊,50.00,1室1厅,西,,4200,84.0,,,https://sh.lianjia.com/zufang/SH2156323278744977408.html,2026-04-23 00:24:01,31.18391,121.69528
chuansha,整租·心圆西苑 1室1厅 南,整租,心圆西苑,浦东-川沙-心圆西苑,54.00,1室1厅,南,,3800,70.4,,,https://sh.lianjia.com/zufang/SH2155999695724347392.html,2026-04-23 00:24:01,31.17407,121.68609
chuansha,整租·天和湖滨家园(公寓) 3室2厅 南,整租,天和湖滨家园(公寓),浦东-川沙-天和湖滨家园(公寓),120.45,3室2厅,南,,4000,33.2,,,https://sh.lianjia.com/zufang/SH2103347954583601152.html,2026-04-23 00:24:01,31.15584,121.70348
chuansha,整租·新生小区 3室1厅 南,整租,新生小区,浦东-川沙-新生小区,94.00,3室1厅,南,,3200,34.0,,,https://sh.lianjia.com/zufang/SH2146826242010120192.html,2026-04-23 00:24:01,31.10024,121.68265
chuansha,整租·新建路16弄 2室1厅 南,整租,新建路16弄,浦东-川沙-新建路,56.31,2室1厅,南,,2500,44.4,,,https://sh.lianjia.com/zufang/SH2156412165060296704.html,2026-04-23 00:24:01,31.175839,121.74157
chuansha,整租·川杨璟苑 3室2厅 南,整租,川杨璟苑,浦东-川沙-川杨璟苑,143.30,3室2厅,南,,8000,55.8,,,https://sh.lianjia.com/zufang/SH2157029029620744192.html,2026-04-23 00:24:01,31.20195,121.67976
chuansha,整租·绿都绣云里 3室2厅 南/北,整租,绿都绣云里,浦东-川沙-绿都绣云里,116.36,3室2厅,南/北,,3600,30.9,,,https://sh.lianjia.com/zufang/SH1975054238622941184.html,2026-04-23 00:24:05,31.11115,121.70639
chuansha,整租·绿地云悦坊 2室1厅 北,整租,绿地云悦坊,浦东-川沙-绿地云悦坊,50.00,2室1厅,北,,5000,100.0,,,https://sh.lianjia.com/zufang/SH2145493531752398848.html,2026-04-23 00:24:05,31.18391,121.69528
chuansha,整租·新德路365弄小区 3室1厅 南,整租,新德路365弄小区,浦东-川沙-新德路,70.74,3室1厅,南,,3000,42.4,,,https://sh.lianjia.com/zufang/SH2116410508570525696.html,2026-04-23 00:24:05,31.19936,121.69322
chuansha,整租·川北小区 1室1厅 南,整租,川北小区,浦东-川沙-川北小区,41.10,1室1厅,南,,3000,73.0,,,https://sh.lianjia.com/zufang/SH2146866885017206784.html,2026-04-23 00:24:29,31.20132,121.69154
chuansha,整租·绿地云悦坊 3室2厅 东北,整租,绿地云悦坊,浦东-川沙-绿地云悦坊,68.42,3室2厅,东北,,5300,77.5,,,https://sh.lianjia.com/zufang/SH2073431343143845888.html,2026-04-23 00:24:29,31.18391,121.69528
chuansha,整租·晨阳小区 3室1厅 南,整租,晨阳小区,浦东-川沙-晨阳小区,76.00,3室1厅,南,,3700,48.7,,,https://sh.lianjia.com/zufang/SH2141152158790189056.html,2026-04-23 00:24:29,31.17945,121.74677
chuansha,整租·大洪佳苑 3室2厅 南,整租,大洪佳苑,浦东-川沙-大洪佳苑,101.00,3室2厅,南,,4700,46.5,,,https://sh.lianjia.com/zufang/SH2152682388449132544.html,2026-04-23 00:24:05,31.186343,121.722614
chuansha,整租·绿海家园 3室1厅 南,整租,绿海家园,浦东-川沙-绿海家园,130.00,3室1厅,南,,5900,45.4,,,https://sh.lianjia.com/zufang/SH2155909897059827712.html,2026-04-23 00:24:05,40.070626,116.330928
chuansha,整租·新洲豪园 3室1厅 南,整租,新洲豪园,浦东-川沙-新洲豪园,96.16,3室1厅,南,,4900,51.0,,,https://sh.lianjia.com/zufang/SH2101187100689825792.html,2026-04-23 00:24:29,31.20156,121.68115
chuansha,整租·沙田公寓 2室1厅 南,整租,沙田公寓,浦东-川沙-沙田公寓,56.26,2室1厅,南,,3800,67.5,,,https://sh.lianjia.com/zufang/SH2150829525389279232.html,2026-04-23 00:24:29,31.1974,121.66723
chuansha,整租·兴东名苑 3室2厅 南,整租,兴东名苑,浦东-川沙-兴东名苑,133.24,3室2厅,南,,5000,37.5,,,https://sh.lianjia.com/zufang/SH2152989516334366720.html,2026-04-23 00:24:29,31.20293,121.68814
chuansha,整租·天和湖滨家园(公寓) 2室1厅 南,整租,天和湖滨家园(公寓),浦东-川沙-天和湖滨家园(公寓),94.07,2室1厅,南,,4000,42.5,,,https://sh.lianjia.com/zufang/SH2150554816206602240.html,2026-04-23 00:24:29,31.15584,121.70348
chuansha,整租·妙境二村 3室1厅 南,整租,妙境二村,浦东-川沙-妙境二村,105.00,3室1厅,南,,5700,54.3,,,https://sh.lianjia.com/zufang/SH2153359496099921920.html,2026-04-23 00:24:29,31.18765,121.6908
chuansha,整租·蓝堡别墅 4室2厅 南,整租,蓝堡别墅,浦东-川沙-蓝堡别墅,373.28,4室2厅,南,,7900,21.2,,,https://sh.lianjia.com/zufang/SH2109146327840456704.html,2026-04-23 00:24:29,31.12388,121.69142
chuansha,整租·阳光城愉景湾 2室1厅 南/北,整租,阳光城愉景湾,浦东-川沙-阳光城愉景湾,69.32,2室1厅,南/北,,5800,83.7,,,https://sh.lianjia.com/zufang/SH2147220698542637056.html,2026-04-23 00:24:29,31.17929,121.69974
chuansha,整租·南桥小区 1室1厅 南,整租,南桥小区,浦东-川沙-南桥小区,41.83,1室1厅,南,,2800,66.9,,,https://sh.lianjia.com/zufang/SH2154820057018925056.html,2026-04-23 00:24:05,31.19311,121.70231
chuansha,整租·顺馨佳园 2室2厅 南,整租,顺馨佳园,浦东-川沙-顺馨佳园,124.00,2室2厅,南,,3700,29.8,,,https://sh.lianjia.com/zufang/SH2155939484217114624.html,2026-04-23 00:24:29,31.19436,121.6722
chuansha,整租·银华苑(浦东) 2室1厅 南,整租,银华苑(浦东),浦东-川沙-银华苑(浦东),76.00,2室1厅,南,,3800,50.0,,,https://sh.lianjia.com/zufang/SH2157385302627319808.html,2026-04-23 00:24:29,31.19748,121.67539
chuansha,整租·水景豪园 3室2厅 南/北,整租,水景豪园,浦东-川沙-水景豪园,139.85,3室2厅,南/北,,6500,46.5,,,https://sh.lianjia.com/zufang/SH2156992011926765568.html,2026-04-23 00:24:57,31.2023,121.69372
chuansha,整租·申华公寓 2室1厅 南,整租,申华公寓,浦东-川沙-申华公寓,69.80,2室1厅,南,,4300,61.6,,,https://sh.lianjia.com/zufang/SH2151583884859408384.html,2026-04-23 00:24:57,31.19817,121.67567
chuansha,整租·华兰雅苑 2室2厅 南,整租,华兰雅苑,浦东-川沙-华兰雅苑,78.00,2室2厅,南,,4600,59.0,,,https://sh.lianjia.com/zufang/SH2156002697579331584.html,2026-04-23 00:24:05,31.16217,121.68852
chuansha,整租·川虹新苑 3室2厅 南,整租,川虹新苑,浦东-川沙-川虹新苑,113.54,3室2厅,南,,5500,48.4,,,https://sh.lianjia.com/zufang/SH2143372978451120128.html,2026-04-23 00:24:05,31.18231,121.71077
chuansha,整租·御景豪园 5室3厅 南,整租,御景豪园,浦东-川沙-御景豪园,227.00,5室3厅,南,,12900,56.8,,,https://sh.lianjia.com/zufang/SH2156061857868152832.html,2026-04-23 00:24:05,31.194,121.68034
chuansha,整租·海迪创客小镇 3室2厅 南/北,整租,海迪创客小镇,浦东-川沙-海迪创客小镇,105.96,3室2厅,南/北,,3600,34.0,,,https://sh.lianjia.com/zufang/SH2146265055405015040.html,2026-04-23 00:24:57,31.195229,121.691296
chuansha,整租·晴川佳苑 1室1厅 南,整租,晴川佳苑,浦东-川沙-晴川佳苑,55.00,1室1厅,南,,3500,63.6,,,https://sh.lianjia.com/zufang/SH2153345375497355264.html,2026-04-23 00:24:29,31.19468,121.67565
chuansha,整租·天环苑 2室2厅 东南,整租,天环苑,浦东-川沙-天环苑,77.00,2室2厅,东南,,1900,24.7,,,https://sh.lianjia.com/zufang/SH2102372612112908288.html,2026-04-23 00:24:29,31.17349,121.7351
chuansha,整租·东锦苑 3室1厅 南,整租,东锦苑,浦东-川沙-东锦苑,109.00,3室1厅,南,,5600,51.4,,,https://sh.lianjia.com/zufang/SH2155944205858373632.html,2026-04-23 00:24:29,31.17775,121.68541
chuansha,整租·江晖苑 2室1厅 南,整租,江晖苑,浦东-川沙-江晖苑,82.00,2室1厅,南,,4200,51.2,,,https://sh.lianjia.com/zufang/SH2156998339864821760.html,2026-04-23 00:24:29,31.176065,121.73265
chuansha,整租·鼎鑫名流苑 2室1厅 南,整租,鼎鑫名流苑,浦东-川沙-鼎鑫名流苑,91.65,2室1厅,南,,5300,57.8,,,https://sh.lianjia.com/zufang/SH2137768932826677248.html,2026-04-23 00:24:29,31.1867,121.70551
chuansha,整租·江晖苑 1室1厅 南,整租,江晖苑,浦东-川沙-江晖苑,57.00,1室1厅,南,,2800,49.1,,,https://sh.lianjia.com/zufang/SH2157085853896146944.html,2026-04-23 00:24:29,31.176065,121.73265
chuansha,整租·天环苑 2室2厅 南,整租,天环苑,浦东-川沙-天环苑,76.11,2室2厅,南,,2400,31.5,,,https://sh.lianjia.com/zufang/SH2077975948623347712.html,2026-04-23 00:24:29,31.17349,121.7351
chuansha,整租·金湾佳园 2室1厅 南,整租,金湾佳园,浦东-川沙-金湾佳园,56.00,2室1厅,南,,2800,50.0,,,https://sh.lianjia.com/zufang/SH2121102521937166336.html,2026-04-23 00:24:29,31.14301,121.7539
chuansha,整租·绿海家园 2室2厅 南,整租,绿海家园,浦东-川沙-绿海家园,90.90,2室2厅,南,,4200,46.2,,,https://sh.lianjia.com/zufang/SH2145037764800806912.html,2026-04-23 00:24:29,40.070626,116.330928
chuansha,整租·天和湖滨家园(公寓) 4室2厅 南,整租,天和湖滨家园(公寓),浦东-川沙-天和湖滨家园(公寓),162.85,4室2厅,南,,7800,47.9,,,https://sh.lianjia.com/zufang/SH2141455143940390912.html,2026-04-23 00:24:29,31.15584,121.70348
chuansha,整租·大洪佳苑 2室1厅 南,整租,大洪佳苑,浦东-川沙-大洪佳苑,78.00,2室1厅,南,,5000,64.1,,,https://sh.lianjia.com/zufang/SH2151616730881851392.html,2026-04-23 00:24:29,31.186343,121.722614
chuansha,整租·阳光城愉景湾 3室2厅 南/北,整租,阳光城愉景湾,浦东-川沙-阳光城愉景湾,96.54,3室2厅,南/北,,7500,77.7,,,https://sh.lianjia.com/zufang/SH2140778978208645120.html,2026-04-23 00:24:29,31.17929,121.69974
chuansha,整租·馨汇佳苑 2室1厅 南,整租,馨汇佳苑,浦东-川沙-馨汇佳苑,57.00,2室1厅,南,,3500,61.4,,,https://sh.lianjia.com/zufang/SH2153449629708976128.html,2026-04-23 00:24:29,31.17942,121.7052
chuansha,整租·龙馨华庭 1室1厅 南/北,整租,龙馨华庭,浦东-川沙-龙馨华庭,58.72,1室1厅,南/北,,2600,44.3,,,https://sh.lianjia.com/zufang/SH2157800402878201856.html,2026-04-23 00:24:29,31.15679,121.71539
chuansha,整租·心圆西苑 3室2厅 南/北,整租,心圆西苑,浦东-川沙-心圆西苑,100.66,3室2厅,南/北,,6300,62.6,,,https://sh.lianjia.com/zufang/SH2158133448814886912.html,2026-04-23 00:24:29,31.17407,121.68609
chuansha,整租·川北小区 2室1厅 南,整租,川北小区,浦东-川沙-川北小区,62.29,2室1厅,南,,3700,59.4,,,https://sh.lianjia.com/zufang/SH2138724757485387776.html,2026-04-23 00:24:57,31.20132,121.69154
chuansha,整租·桃园公寓(川沙) 2室2厅 南,整租,桃园公寓(川沙),浦东-川沙-桃园公寓(川沙),112.64,2室2厅,南,,5000,44.4,,,https://sh.lianjia.com/zufang/SH2158130080788774912.html,2026-04-23 00:24:57,31.19109,121.69728
chuansha,整租·新德路386弄 2室1厅 南,整租,新德路386弄,浦东-川沙-新德路,80.96,2室1厅,南,,3300,40.8,,,https://sh.lianjia.com/zufang/SH2125908390365364224.html,2026-04-23 00:24:57,31.19683,121.67924
chuansha,整租·东锦苑 2室2厅 南/北,整租,东锦苑,浦东-川沙-东锦苑,79.54,2室2厅,南/北,,4053,51.0,,,https://sh.lianjia.com/zufang/SH1947668582376669184.html,2026-04-23 00:24:57,31.17775,121.68541
chuansha,整租·临河小区 1室1厅 南,整租,临河小区,浦东-川沙-临河小区,42.65,1室1厅,南,,3000,70.3,,,https://sh.lianjia.com/zufang/SH1961260668116008960.html,2026-04-23 00:24:57,31.19589,121.68425
chuansha,整租·江晖苑 1室1厅 南,整租,江晖苑,浦东-川沙-江晖苑,56.00,1室1厅,南,,3150,56.2,,,https://sh.lianjia.com/zufang/SH1960580304980672512.html,2026-04-23 00:24:57,31.176065,121.73265
chuansha,整租·新德三村 2室1厅 南,整租,新德三村,浦东-川沙-新德三村,64.51,2室1厅,南,,3500,54.3,,,https://sh.lianjia.com/zufang/SH1738495101874733056.html,2026-04-23 00:24:57,31.20053,121.68784
chuansha,整租·绿地云悦坊 2室1厅 东,整租,绿地云悦坊,浦东-川沙-绿地云悦坊,38.89,2室1厅,东,,3675,94.5,,,https://sh.lianjia.com/zufang/SH1746168431801008128.html,2026-04-23 00:24:57,31.18391,121.69528
chuansha,整租·川北小区 1室1厅 南,整租,川北小区,浦东-川沙-川北小区,31.00,1室1厅,南,,2800,90.3,,,https://sh.lianjia.com/zufang/SH1754751368276475904.html,2026-04-23 00:24:57,31.20132,121.69154
chuansha,整租·合欢公寓 3室2厅 南,整租,合欢公寓,浦东-川沙-合欢公寓,128.62,3室2厅,南,,4935,38.4,,,https://sh.lianjia.com/zufang/SH1759063599763947520.html,2026-04-23 00:24:57,31.19803,121.68047
chuansha,整租·城西小区 1室1厅 南,整租,城西小区,浦东-川沙-城西小区,38.18,1室1厅,南,,2800,73.3,,,https://sh.lianjia.com/zufang/SH1764556568336007168.html,2026-04-23 00:24:57,31.19943,121.69052
chuansha,整租·大洪佳苑 3室1厅 南,整租,大洪佳苑,浦东-川沙-大洪佳苑,81.73,3室1厅,南,,4400,53.8,,,https://sh.lianjia.com/zufang/SH2010601338840285184.html,2026-04-23 00:24:57,31.186343,121.722614
chuansha,整租·施宏小区 2室2厅 南,整租,施宏小区,浦东-川沙-施宏小区,71.67,2室2厅,南,,2625,36.6,,,https://sh.lianjia.com/zufang/SH2014706490530594816.html,2026-04-23 00:24:57,31.15503,121.75592
chuansha,整租·阳光城愉景湾 3室2厅 南,整租,阳光城愉景湾,浦东-川沙-阳光城愉景湾,97.00,3室2厅,南,,7000,72.2,,,https://sh.lianjia.com/zufang/SH2017556817701240832.html,2026-04-23 00:24:57,31.17929,121.69974
chuansha,整租·天和湖滨家园(公寓) 3室2厅 南,整租,天和湖滨家园(公寓),浦东-川沙-天和湖滨家园(公寓),121.00,3室2厅,南,,4800,39.7,,,https://sh.lianjia.com/zufang/SH2005578987161518080.html,2026-04-23 00:24:57,31.15584,121.70348
chuansha,整租·界龙花苑 2室1厅 南,整租,界龙花苑,浦东-川沙-界龙花苑,72.79,2室1厅,南,,3780,51.9,,,https://sh.lianjia.com/zufang/SH2619639359825256448.html,2026-04-23 00:24:57,31.18673,121.68976
chuansha,整租·德川新苑 3室2厅 南,整租,德川新苑,浦东-川沙-德川新苑,109.00,3室2厅,南,,5513,50.6,,,https://sh.lianjia.com/zufang/SH1979134131379896320.html,2026-04-23 00:24:57,31.19648,121.6647
chuansha,整租·金湾佳园 3室2厅 南,整租,金湾佳园,浦东-川沙-金湾佳园,106.53,3室2厅,南,,3600,33.8,,,https://sh.lianjia.com/zufang/SH2153425954045689856.html,2026-04-23 00:25:05,31.14301,121.7539
chuansha,整租·江晖苑 2室1厅 南,整租,江晖苑,浦东-川沙-江晖苑,77.00,2室1厅,南,,3150,40.9,,,https://sh.lianjia.com/zufang/SH2154864608504971264.html,2026-04-23 00:25:05,31.176065,121.73265
chuansha,整租·妙龙小区 1室1厅 南,整租,妙龙小区,浦东-川沙-妙龙小区,43.26,1室1厅,南,,3150,72.8,,,https://sh.lianjia.com/zufang/SH2155896237549682688.html,2026-04-23 00:25:05,31.18561,121.68461
chuansha,整租·新德路506弄 2室1厅 南/北,整租,新德路506弄,浦东-川沙-新德路,73.73,2室1厅,南/北,,3800,51.5,,,https://sh.lianjia.com/zufang/SH2150282493452877824.html,2026-04-23 00:25:54,31.19907,121.68935
chuansha,整租·大洪佳苑 2室1厅 南,整租,大洪佳苑,浦东-川沙-大洪佳苑,79.99,2室1厅,南,,4000,50.0,,,https://sh.lianjia.com/zufang/SH2152354314717233152.html,2026-04-23 00:25:54,31.186343,121.722614
chuansha,整租·江凌苑 3室1厅 南,整租,江凌苑,浦东-川沙-江凌苑,110.00,3室1厅,南,,3800,34.5,,,https://sh.lianjia.com/zufang/SH2152419079367950336.html,2026-04-23 00:25:54,31.175497,121.730432
chuansha,整租·东绣苑 2室1厅 南,整租,东绣苑,浦东-川沙-东绣苑,74.57,2室1厅,南,,4200,56.3,,,https://sh.lianjia.com/zufang/SH2157144634004865024.html,2026-04-23 00:25:05,31.17851,121.68744
chuansha,整租·阳光城愉景湾 3室2厅 南,整租,阳光城愉景湾,浦东-川沙-阳光城愉景湾,97.09,3室2厅,南,,6800,70.0,,,https://sh.lianjia.com/zufang/SH2150619587119415296.html,2026-04-23 00:25:54,31.17929,121.69974
chuansha,整租·新德佳苑 3室1厅 南/北,整租,新德佳苑,浦东-川沙-新德佳苑,82.16,3室1厅,南/北,,4200,51.1,,,https://sh.lianjia.com/zufang/SH2153137697097515008.html,2026-04-23 00:25:54,31.1918,121.66386
chuansha,整租·顺馨佳园 2室1厅 南,整租,顺馨佳园,浦东-川沙-顺馨佳园,86.71,2室1厅,南,,4725,54.5,,,https://sh.lianjia.com/zufang/SH2155980758420815872.html,2026-04-23 00:25:05,31.19436,121.6722
chuansha,整租·天环苑 2室2厅 东南,整租,天环苑,浦东-川沙-天环苑,76.00,2室2厅,东南,,2940,38.7,,,https://sh.lianjia.com/zufang/SH2117599121916297216.html,2026-04-23 00:25:59,31.17349,121.7351
chuansha,整租·百欣苑 3室1厅 南,整租,百欣苑,浦东-川沙-百欣苑,100.00,3室1厅,南,,3600,36.0,,,https://sh.lianjia.com/zufang/SH2142991681358659584.html,2026-04-23 00:25:59,31.17331,121.74869
chuansha,整租·江晖苑 1室1厅 南,整租,江晖苑,浦东-川沙-江晖苑,56.70,1室1厅,南,,2667,47.0,,,https://sh.lianjia.com/zufang/SH2053394521646956544.html,2026-04-23 00:25:59,31.176065,121.73265
chuansha,整租·天和湖滨家园(公寓) 3室2厅 南,整租,天和湖滨家园(公寓),浦东-川沙-天和湖滨家园(公寓),129.12,3室2厅,南,,5670,43.9,,,https://sh.lianjia.com/zufang/SH2037805054466981888.html,2026-04-23 00:25:05,31.15584,121.70348
chuansha,整租·大洪佳苑 3室1厅 南,整租,大洪佳苑,浦东-川沙-大洪佳苑,80.00,3室1厅,南,,3780,47.2,,,https://sh.lianjia.com/zufang/SH2088619856319479808.html,2026-04-23 00:25:54,31.186343,121.722614
chuansha,整租·绿地云悦坊 3室1厅 南,整租,绿地云悦坊,浦东-川沙-绿地云悦坊,54.12,3室1厅,南,,3900,72.1,,,https://sh.lianjia.com/zufang/SH2091763173303517184.html,2026-04-23 00:25:54,31.18391,121.69528
chuansha,整租·锦川佳苑 2室1厅 南,整租,锦川佳苑,浦东-川沙-锦川佳苑,87.00,2室1厅,南,,4620,53.1,,,https://sh.lianjia.com/zufang/SH2104189812662599680.html,2026-04-23 00:25:59,31.17623,121.68504
chuansha,整租·大洪佳苑 2室1厅 南,整租,大洪佳苑,浦东-川沙-大洪佳苑,81.73,2室1厅,南,,4000,48.9,,,https://sh.lianjia.com/zufang/SH2149739452803579904.html,2026-04-23 00:25:54,31.186343,121.722614
chuansha,整租·阳光城愉景湾 3室2厅 南,整租,阳光城愉景湾,浦东-川沙-阳光城愉景湾,90.57,3室2厅,南,,6000,66.2,,,https://sh.lianjia.com/zufang/SH2146538937257033728.html,2026-04-23 00:25:54,31.17929,121.69974
chuansha,整租·天和湖滨家园(公寓) 3室2厅 南,整租,天和湖滨家园(公寓),浦东-川沙-天和湖滨家园(公寓),137.63,3室2厅,南,,6400,46.5,,,https://sh.lianjia.com/zufang/SH2146969039916761088.html,2026-04-23 00:25:54,31.15584,121.70348
chuansha,整租·凌港城 3室2厅 南,整租,凌港城,浦东-川沙-凌港城,105.70,3室2厅,南,,3650,34.5,,,https://sh.lianjia.com/zufang/SH2144800248319442944.html,2026-04-23 00:25:54,31.1723,121.73198
chuansha,整租·青厦小区 2室1厅 南,整租,青厦小区,浦东-川沙-青厦小区,64.28,2室1厅,南,,3500,54.4,,,https://sh.lianjia.com/zufang/SH2145474532238950400.html,2026-04-23 00:25:54,31.19859,121.68386
chuansha,整租·江绣苑 2室2厅 南,整租,江绣苑,浦东-川沙-江绣苑,83.43,2室2厅,南,,3100,37.2,,,https://sh.lianjia.com/zufang/SH2149066165886910464.html,2026-04-23 00:25:54,31.1705,121.73281
chuansha,整租·川沙新川路190弄 2室1厅 南,整租,川沙新川路190弄,浦东-川沙-川沙新川路,60.60,2室1厅,南,,2800,46.2,,,https://sh.lianjia.com/zufang/SH2068309740101828608.html,2026-04-23 00:25:54,31.19255,121.68716
chuansha,整租·桃园公寓(川沙) 2室1厅 南,整租,桃园公寓(川沙),浦东-川沙-桃园公寓(川沙),68.69,2室1厅,南,,3900,56.8,,,https://sh.lianjia.com/zufang/SH2109284849784193024.html,2026-04-23 00:25:59,31.19109,121.69728
chuansha,整租·万馨佳园 2室1厅 南,整租,万馨佳园,浦东-川沙-万馨佳园,55.00,2室1厅,南,,3500,63.6,,,https://sh.lianjia.com/zufang/SH1909980842516545536.html,2026-04-23 00:25:59,31.19332,121.66917
chuansha,整租·绿地云悦坊 1室2厅 西,整租,绿地云悦坊,浦东-川沙-绿地云悦坊,50.87,1室2厅,西,,3800,74.7,,,https://sh.lianjia.com/zufang/SH1912464497327472640.html,2026-04-23 00:25:59,31.18391,121.69528
chuansha,整租·东绣苑 1室1厅 南,整租,东绣苑,浦东-川沙-东绣苑,54.00,1室1厅,南,,3570,66.1,,,https://sh.lianjia.com/zufang/SH1912491201613791232.html,2026-04-23 00:25:59,31.17851,121.68744
chuansha,整租·东都小区 1室1厅 南,整租,东都小区,浦东-川沙-东都小区,38.89,1室1厅,南,,2835,72.9,,,https://sh.lianjia.com/zufang/SH1912427761062903808.html,2026-04-23 00:25:59,31.193782,121.699545
chuansha,整租·东亚启航公馆 3室1厅 南,整租,东亚启航公馆,浦东-川沙-东亚启航公馆,88.53,3室1厅,南,,3500,39.5,,,https://sh.lianjia.com/zufang/SH2141165282083733504.html,2026-04-23 00:25:59,31.15259,121.74639
chuansha,整租·城南居委小区 2室1厅 南,整租,城南居委小区,浦东-川沙-城南居委小区,64.00,2室1厅,南,,3360,52.5,,,https://sh.lianjia.com/zufang/SH2048996651716050944.html,2026-04-23 00:25:59,31.193838,121.701543
chuansha,整租·天环苑 2室2厅 南,整租,天环苑,浦东-川沙-天环苑,77.41,2室2厅,南,,3150,40.7,,,https://sh.lianjia.com/zufang/SH2120201926619430912.html,2026-04-23 00:25:59,31.17349,121.7351
chuansha,整租·金湾佳园 2室1厅 南/北,整租,金湾佳园,浦东-川沙-金湾佳园,86.00,2室1厅,南/北,,3203,37.2,,,https://sh.lianjia.com/zufang/SH2074533110074048512.html,2026-04-23 00:25:59,31.14301,121.7539
chuansha,整租·思凡花苑二街坊 2室1厅 南,整租,思凡花苑二街坊,浦东-川沙-思凡花苑二街坊,75.00,2室1厅,南,,2678,35.7,,,https://sh.lianjia.com/zufang/SH2075193728347144192.html,2026-04-23 00:25:59,31.14643,121.7446
chuansha,整租·盛丰佳苑 3室2厅 南,整租,盛丰佳苑,浦东-川沙-盛丰佳苑,99.77,3室2厅,南,,5040,50.5,,,https://sh.lianjia.com/zufang/SH2083556687687450624.html,2026-04-23 00:25:59,31.17111,121.66367
chuansha,整租·心圆东苑 1室1厅 南,整租,心圆东苑,浦东-川沙-心圆东苑,58.63,1室1厅,南,,3300,56.3,,,https://sh.lianjia.com/zufang/SH1666308220123086848.html,2026-04-23 00:25:59,31.17568,121.68895
chuansha,整租·运通路728弄 3室1厅 南,整租,运通路728弄,浦东-川沙-运通路,73.31,3室1厅,南,,3255,44.4,,,https://sh.lianjia.com/zufang/SH1923370146668216320.html,2026-04-23 00:25:59,31.20566,121.69827
chuansha,整租·海霞佳苑 1室1厅 南,整租,海霞佳苑,浦东-川沙-海霞佳苑,57.00,1室1厅,南,,3045,53.4,,,https://sh.lianjia.com/zufang/SH1927662052550115328.html,2026-04-23 00:25:59,31.1721,121.74034
chuansha,整租·天和湖滨家园(公寓) 2室1厅 南,整租,天和湖滨家园(公寓),浦东-川沙-天和湖滨家园(公寓),75.76,2室1厅,南,,3300,43.6,,,https://sh.lianjia.com/zufang/SH1928837865182068736.html,2026-04-23 00:25:59,31.15584,121.70348
chuansha,整租·顺馨佳园 1室1厅 南,整租,顺馨佳园,浦东-川沙-顺馨佳园,60.00,1室1厅,南,,3570,59.5,,,https://sh.lianjia.com/zufang/SH1935940697970442240.html,2026-04-23 00:25:59,31.19436,121.6722
chuansha,整租·佳洲欣苑 3室2厅 南,整租,佳洲欣苑,浦东-川沙-佳洲欣苑,142.00,3室2厅,南,,4725,33.3,,,https://sh.lianjia.com/zufang/SH2110238862818148352.html,2026-04-23 00:25:59,31.18999,121.68294
chuansha,整租·城西小区 1室1厅 南,整租,城西小区,浦东-川沙-城西小区,38.62,1室1厅,南,,2835,73.4,,,https://sh.lianjia.com/zufang/SH1931756792551833600.html,2026-04-23 00:25:59,31.19943,121.69052
