[
  {
    "title": "整租·万柳书院 3室2厅 南/西/北",
    "community": "万柳书院",
    "area": "268.61",
    "rooms": "3室2厅",
    "direction": "南/西/北",
    "floor": "",
    "price": "110000",
    "tags": "",
    "source": "",
    "url": "https://bj.lianjia.com/zufang/BJ2110588634229899264.html",
    "rent_type": "整租",
    "location": "海淀区-万柳-万柳书院",
    "scraped_at": "2026-05-02 21:56:50",
    "region": "万柳",
    "unit_price": 409.5,
    "lat": 39.967586,
    "lng": 116.295038
  },
  {
    "title": "整租·碧水云天 2室2厅 东北",
    "community": "碧水云天",
    "area": "93.89",
    "rooms": "2室2厅",
    "direction": "东北",
    "floor": "",
    "price": "14000",
    "tags": "",
    "source": "",
    "url": "https://bj.lianjia.com/zufang/BJ2149507990946840576.html",
    "rent_type": "整租",
    "location": "海淀区-万柳-碧水云天",
    "scraped_at": "2026-05-02 21:56:50",
    "region": "万柳",
    "unit_price": 149.1,
    "lat": 39.9661,
    "lng": 116.288752
  },
  {
    "title": "整租·万城华府龙园 6室2厅 东/南/西/北",
    "community": "万城华府龙园",
    "area": "394.15",
    "rooms": "6室2厅",
    "direction": "东/南/西/北",
    "floor": "",
    "price": "110000",
    "tags": "",
    "source": "",
    "url": "https://bj.lianjia.com/zufang/BJ2110602773857828864.html",
    "rent_type": "整租",
    "location": "海淀区-万柳-万城华府龙园",
    "scraped_at": "2026-05-02 21:56:50",
    "region": "万柳",
    "unit_price": 279.1,
    "lat": 39.97164,
    "lng": 116.283172
  },
  {
    "title": "整租·碧水云天 5室3厅 复式 南/北",
    "community": "碧水云天",
    "area": "235.84",
    "rooms": "5室3厅",
    "direction": "",
    "floor": "",
    "price": "36000",
    "tags": "",
    "source": "",
    "url": "https://bj.lianjia.com/zufang/BJ2150875951943122944.html",
    "rent_type": "整租",
    "location": "海淀区-万柳-碧水云天",
    "scraped_at": "2026-05-02 21:56:50",
    "region": "万柳",
    "unit_price": 152.6,
    "lat": 39.9661,
    "lng": 116.288752
  },
  {
    "title": "整租·光大花园 3室1厅 东北",
    "community": "光大花园",
    "area": "112.00",
    "rooms": "3室1厅",
    "direction": "东北",
    "floor": "",
    "price": "12800",
    "tags": "",
    "source": "",
    "url": "https://bj.lianjia.com/zufang/BJ2144805317274238976.html",
    "rent_type": "整租",
    "location": "海淀区-万柳-光大花园",
    "scraped_at": "2026-05-02 21:56:50",
    "region": "万柳",
    "unit_price": 114.3,
    "lat": 39.96252,
    "lng": 116.294713
  },
  {
    "title": "整租·蜂鸟家园 1室1厅 南",
    "community": "蜂鸟家园",
    "area": "62.35",
    "rooms": "1室1厅",
    "direction": "南",
    "floor": "",
    "price": "7590",
    "tags": "",
    "source": "",
    "url": "https://bj.lianjia.com/zufang/BJ1796133613390004224.html",
    "rent_type": "整租",
    "location": "海淀区-万柳-蜂鸟家园",
    "scraped_at": "2026-05-02 21:56:50",
    "region": "万柳",
    "unit_price": 121.7,
    "lat": 39.962196,
    "lng": 116.290578
  },
  {
    "title": "整租·碧水云天 5室3厅 南/北",
    "community": "碧水云天",
    "area": "275.37",
    "rooms": "5室3厅",
    "direction": "南/北",
    "floor": "",
    "price": "45000",
    "tags": "",
    "source": "",
    "url": "https://bj.lianjia.com/zufang/BJ2138858106388480000.html",
    "rent_type": "整租",
    "location": "海淀区-万柳-碧水云天",
    "scraped_at": "2026-05-02 21:56:50",
    "region": "万柳",
    "unit_price": 163.4,
    "lat": 39.9661,
    "lng": 116.288752
  },
  {
    "title": "整租·新起点嘉园 4室2厅 南",
    "community": "新起点嘉园",
    "area": "233.00",
    "rooms": "4室2厅",
    "direction": "南",
    "floor": "",
    "price": "25000",
    "tags": "",
    "source": "",
    "url": "https://bj.lianjia.com/zufang/BJ2153156408441307136.html",
    "rent_type": "整租",
    "location": "海淀区-万柳-新起点嘉园",
    "scraped_at": "2026-05-02 21:56:50",
    "region": "万柳",
    "unit_price": 107.3,
    "lat": 39.963758,
    "lng": 116.292159
  },
  {
    "title": "整租·万泉新新家园 1室1厅 东",
    "community": "万泉新新家园",
    "area": "58.30",
    "rooms": "1室1厅",
    "direction": "东",
    "floor": "",
    "price": "6300",
    "tags": "",
    "source": "",
    "url": "https://bj.lianjia.com/zufang/BJ1901589107910377472.html",
    "rent_type": "整租",
    "location": "海淀区-万柳-万泉新新家园",
    "scraped_at": "2026-05-02 21:56:50",
    "region": "万柳",
    "unit_price": 108.1,
    "lat": 39.969386,
    "lng": 116.292908
  },
  {
    "title": "整租·蜂鸟家园 1室0厅 西南",
    "community": "蜂鸟家园",
    "area": "43.10",
    "rooms": "1室0厅",
    "direction": "西南",
    "floor": "",
    "price": "5800",
    "tags": "",
    "source": "",
    "url": "https://bj.lianjia.com/zufang/BJ2150951482667565056.html",
    "rent_type": "整租",
    "location": "海淀区-万柳-蜂鸟家园",
    "scraped_at": "2026-05-02 21:56:50",
    "region": "万柳",
    "unit_price": 134.6,
    "lat": 39.962196,
    "lng": 116.290578
  },
  {
    "title": "整租·涧桥泊屋 3室2厅 南/北",
    "community": "涧桥泊屋",
    "area": "161.96",
    "rooms": "3室2厅",
    "direction": "南/北",
    "floor": "",
    "price": "16000",
    "tags": "",
    "source": "",
    "url": "https://bj.lianjia.com/zufang/BJ2110003058279710720.html",
    "rent_type": "整租",
    "location": "海淀区-万柳-涧桥泊屋",
    "scraped_at": "2026-05-02 21:56:50",
    "region": "万柳",
    "unit_price": 98.8,
    "lat": 39.971686,
    "lng": 116.289208
  },
  {
    "title": "整租·蜂鸟家园 1室0厅 南",
    "community": "蜂鸟家园",
    "area": "50.24",
    "rooms": "1室0厅",
    "direction": "南",
    "floor": "",
    "price": "6100",
    "tags": "",
    "source": "",
    "url": "https://bj.lianjia.com/zufang/BJ2157793858958655488.html",
    "rent_type": "整租",
    "location": "海淀区-万柳-蜂鸟家园",
    "scraped_at": "2026-05-02 21:56:50",
    "region": "万柳",
    "unit_price": 121.4,
    "lat": 39.962196,
    "lng": 116.290578
  },
  {
    "title": "整租·蜂鸟家园 1室0厅 北",
    "community": "蜂鸟家园",
    "area": "51.68",
    "rooms": "1室0厅",
    "direction": "北",
    "floor": "",
    "price": "6000",
    "tags": "",
    "source": "",
    "url": "https://bj.lianjia.com/zufang/BJ2140465010948702208.html",
    "rent_type": "整租",
    "location": "海淀区-万柳-蜂鸟家园",
    "scraped_at": "2026-05-02 21:56:50",
    "region": "万柳",
    "unit_price": 116.1,
    "lat": 39.962196,
    "lng": 116.290578
  },
  {
    "title": "整租·碧水云天 3室2厅 西南",
    "community": "碧水云天",
    "area": "122.10",
    "rooms": "3室2厅",
    "direction": "西南",
    "floor": "",
    "price": "19000",
    "tags": "",
    "source": "",
    "url": "https://bj.lianjia.com/zufang/BJ2151618356002684928.html",
    "rent_type": "整租",
    "location": "海淀区-万柳-碧水云天",
    "scraped_at": "2026-05-02 21:56:50",
    "region": "万柳",
    "unit_price": 155.6,
    "lat": 39.9661,
    "lng": 116.288752
  },
  {
    "title": "整租·新起点嘉园 1室1厅 东",
    "community": "新起点嘉园",
    "area": "57.51",
    "rooms": "1室1厅",
    "direction": "东",
    "floor": "",
    "price": "6300",
    "tags": "",
    "source": "",
    "url": "https://bj.lianjia.com/zufang/BJ2153861498617724928.html",
    "rent_type": "整租",
    "location": "海淀区-万柳-新起点嘉园",
    "scraped_at": "2026-05-02 21:56:50",
    "region": "万柳",
    "unit_price": 109.5,
    "lat": 39.963758,
    "lng": 116.292159
  },
  {
    "title": "整租·蜂鸟家园 1室1厅 西",
    "community": "蜂鸟家园",
    "area": "47.50",
    "rooms": "1室1厅",
    "direction": "西",
    "floor": "",
    "price": "6730",
    "tags": "",
    "source": "",
    "url": "https://bj.lianjia.com/zufang/BJ1879868492686032896.html",
    "rent_type": "整租",
    "location": "海淀区-万柳-蜂鸟家园",
    "scraped_at": "2026-05-02 21:56:50",
    "region": "万柳",
    "unit_price": 141.7,
    "lat": 39.962196,
    "lng": 116.290578
  },
  {
    "title": "整租·蜂鸟家园 1室1厅 北",
    "community": "蜂鸟家园",
    "area": "49.87",
    "rooms": "1室1厅",
    "direction": "北",
    "floor": "",
    "price": "6000",
    "tags": "",
    "source": "",
    "url": "https://bj.lianjia.com/zufang/BJ2155972076509331456.html",
    "rent_type": "整租",
    "location": "海淀区-万柳-蜂鸟家园",
    "scraped_at": "2026-05-02 21:56:50",
    "region": "万柳",
    "unit_price": 120.3,
    "lat": 39.962196,
    "lng": 116.290578
  },
  {
    "title": "整租·新起点嘉园 2室1厅 东北",
    "community": "新起点嘉园",
    "area": "101.31",
    "rooms": "2室1厅",
    "direction": "东北",
    "floor": "",
    "price": "13000",
    "tags": "",
    "source": "",
    "url": "https://bj.lianjia.com/zufang/BJ2159918380906184704.html",
    "rent_type": "整租",
    "location": "海淀区-万柳-新起点嘉园",
    "scraped_at": "2026-05-02 21:56:50",
    "region": "万柳",
    "unit_price": 128.3,
    "lat": 39.963758,
    "lng": 116.292159
  },
  {
    "title": "整租·碧水云天 4室2厅 西南/东北",
    "community": "碧水云天",
    "area": "197.88",
    "rooms": "4室2厅",
    "direction": "西南/东北",
    "floor": "",
    "price": "29000",
    "tags": "",
    "source": "",
    "url": "https://bj.lianjia.com/zufang/BJ1878075055611576320.html",
    "rent_type": "整租",
    "location": "海淀区-万柳-碧水云天",
    "scraped_at": "2026-05-02 21:56:50",
    "region": "万柳",
    "unit_price": 146.6,
    "lat": 39.9661,
    "lng": 116.288752
  },
  {
    "title": "整租·万泉新新家园 3室2厅 南/北",
    "community": "万泉新新家园",
    "area": "172.00",
    "rooms": "3室2厅",
    "direction": "南/北",
    "floor": "",
    "price": "26000",
    "tags": "",
    "source": "",
    "url": "https://bj.lianjia.com/zufang/BJ2157353111893573632.html",
    "rent_type": "整租",
    "location": "海淀区-万柳-万泉新新家园",
    "scraped_at": "2026-05-02 21:56:50",
    "region": "万柳",
    "unit_price": 151.2,
    "lat": 39.969386,
    "lng": 116.292908
  },
  {
    "title": "整租·康桥水郡 1室1厅 西",
    "community": "康桥水郡",
    "area": "49.00",
    "rooms": "1室1厅",
    "direction": "西",
    "floor": "",
    "price": "7000",
    "tags": "",
    "source": "",
    "url": "https://bj.lianjia.com/zufang/BJ2150518129149607936.html",
    "rent_type": "整租",
    "location": "海淀区-万柳-康桥水郡",
    "scraped_at": "2026-05-02 21:56:50",
    "region": "万柳",
    "unit_price": 142.9,
    "lat": 39.971686,
    "lng": 116.289208
  },
  {
    "title": "整租·光大花园 1室1厅 南",
    "community": "光大花园",
    "area": "78.79",
    "rooms": "1室1厅",
    "direction": "南",
    "floor": "",
    "price": "8400",
    "tags": "",
    "source": "",
    "url": "https://bj.lianjia.com/zufang/BJ2128504812243779584.html",
    "rent_type": "整租",
    "location": "海淀区-万柳-光大花园",
    "scraped_at": "2026-05-02 21:56:50",
    "region": "万柳",
    "unit_price": 106.6,
    "lat": 39.96252,
    "lng": 116.294713
  },
  {
    "title": "整租·光大花园 2室1厅 东南",
    "community": "光大花园",
    "area": "86.46",
    "rooms": "2室1厅",
    "direction": "东南",
    "floor": "",
    "price": "9800",
    "tags": "",
    "source": "",
    "url": "https://bj.lianjia.com/zufang/BJ2158561525927772160.html",
    "rent_type": "整租",
    "location": "海淀区-万柳-光大花园",
    "scraped_at": "2026-05-02 21:56:50",
    "region": "万柳",
    "unit_price": 113.3,
    "lat": 39.96252,
    "lng": 116.294713
  },
  {
    "title": "整租·汇新家园 2室1厅 东南",
    "community": "汇新家园",
    "area": "88.50",
    "rooms": "2室1厅",
    "direction": "东南",
    "floor": "",
    "price": "9800",
    "tags": "",
    "source": "",
    "url": "https://bj.lianjia.com/zufang/BJ2142549459173638144.html",
    "rent_type": "整租",
    "location": "海淀区-万柳-汇新家园",
    "scraped_at": "2026-05-02 21:56:50",
    "region": "万柳",
    "unit_price": 110.7,
    "lat": 39.966269,
    "lng": 116.291244
  },
  {
    "title": "整租·万泉新新家园 1室1厅 东",
    "community": "万泉新新家园",
    "area": "58.73",
    "rooms": "1室1厅",
    "direction": "东",
    "floor": "",
    "price": "7500",
    "tags": "",
    "source": "",
    "url": "https://bj.lianjia.com/zufang/BJ1696024764063154176.html",
    "rent_type": "整租",
    "location": "海淀区-万柳-万泉新新家园",
    "scraped_at": "2026-05-02 21:56:50",
    "region": "万柳",
    "unit_price": 127.7,
    "lat": 39.969386,
    "lng": 116.292908
  },
  {
    "title": "整租·碧水云天 3室2厅 东南",
    "community": "碧水云天",
    "area": "125.29",
    "rooms": "3室2厅",
    "direction": "东南",
    "floor": "",
    "price": "18500",
    "tags": "",
    "source": "",
    "url": "https://bj.lianjia.com/zufang/BJ2038932944935976960.html",
    "rent_type": "整租",
    "location": "海淀区-万柳-碧水云天",
    "scraped_at": "2026-05-02 21:56:50",
    "region": "万柳",
    "unit_price": 147.7,
    "lat": 39.9661,
    "lng": 116.288752
  },
  {
    "title": "整租·山水倾城 2室1厅 西",
    "community": "山水倾城",
    "area": "135.44",
    "rooms": "2室1厅",
    "direction": "西",
    "floor": "",
    "price": "17389",
    "tags": "",
    "source": "",
    "url": "https://bj.lianjia.com/zufang/BJ1916551522678734848.html",
    "rent_type": "整租",
    "location": "海淀区-万柳-山水倾城",
    "scraped_at": "2026-05-02 21:56:50",
    "region": "万柳",
    "unit_price": 128.4,
    "lat": 39.971686,
    "lng": 116.289208
  },
  {
    "title": "整租·山水倾城 3室2厅 复式 东南",
    "community": "山水倾城",
    "area": "188.49",
    "rooms": "3室2厅",
    "direction": "",
    "floor": "",
    "price": "22575",
    "tags": "",
    "source": "",
    "url": "https://bj.lianjia.com/zufang/BJ2021932187900706816.html",
    "rent_type": "整租",
    "location": "海淀区-万柳-山水倾城",
    "scraped_at": "2026-05-02 21:56:50",
    "region": "万柳",
    "unit_price": 119.8,
    "lat": 39.971686,
    "lng": 116.289208
  },
  {
    "title": "整租·阳春光华家园 2室1厅 西南",
    "community": "阳春光华家园",
    "area": "90.56",
    "rooms": "2室1厅",
    "direction": "西南",
    "floor": "",
    "price": "12500",
    "tags": "",
    "source": "",
    "url": "https://bj.lianjia.com/zufang/BJ2157028779975770112.html",
    "rent_type": "整租",
    "location": "海淀区-万柳-阳春光华家园",
    "scraped_at": "2026-05-02 21:56:50",
    "region": "万柳",
    "unit_price": 138.0,
    "lat": 39.966886,
    "lng": 116.292428
  },
  {
    "title": "整租·新起点嘉园 1室1厅 北",
    "community": "新起点嘉园",
    "area": "50.69",
    "rooms": "1室1厅",
    "direction": "北",
    "floor": "",
    "price": "7030",
    "tags": "",
    "source": "",
    "url": "https://bj.lianjia.com/zufang/BJ1821776202302488576.html",
    "rent_type": "整租",
    "location": "海淀区-万柳-新起点嘉园",
    "scraped_at": "2026-05-02 21:56:50",
    "region": "万柳",
    "unit_price": 138.7,
    "lat": 39.963758,
    "lng": 116.292159
  }
]