[
  {
    "title": "整租·昕泰苑 3室2厅 南",
    "community": "昕泰苑",
    "area": "124.28",
    "rooms": "3室2厅",
    "direction": "南",
    "floor": "",
    "price": "7900",
    "tags": "",
    "source": "",
    "url": "https://sh.lianjia.com/zufang/SH2023740250836172800.html",
    "rent_type": "整租",
    "location": "浦东-金杨-昕泰苑",
    "scraped_at": "2026-04-23 00:35:11",
    "region": "jinyang",
    "unit_price": 63.6,
    "lat": 31.257595,
    "lng": 121.562849
  },
  {
    "title": "整租·香山新村西北街坊 3室1厅 南",
    "community": "香山新村西北街坊",
    "area": "84.55",
    "rooms": "3室1厅",
    "direction": "南",
    "floor": "",
    "price": "7100",
    "tags": "",
    "source": "",
    "url": "https://sh.lianjia.com/zufang/SH2156692658217549824.html",
    "rent_type": "整租",
    "location": "浦东-金杨-香山新村西北街坊",
    "scraped_at": "2026-04-23 00:34:02",
    "region": "jinyang",
    "unit_price": 84.0,
    "lat": 31.240895,
    "lng": 121.566633
  },
  {
    "title": "整租·金杨新村九街坊 3室1厅 南",
    "community": "金杨新村九街坊",
    "area": "74.68",
    "rooms": "3室1厅",
    "direction": "南",
    "floor": "",
    "price": "5500",
    "tags": "",
    "source": "",
    "url": "https://sh.lianjia.com/zufang/SH2009561449638133760.html",
    "rent_type": "整租",
    "location": "浦东-金杨-金杨新村九街坊",
    "scraped_at": "2026-04-23 00:35:11",
    "region": "jinyang",
    "unit_price": 73.6,
    "lat": 31.254237,
    "lng": 121.582661
  },
  {
    "title": "独栋·彩虹小居 浦东大道店 14号线直达 公利医院旁房东直租精装复式 阳光房A户型 1室1厅",
    "community": "彩虹小居 浦东大道店",
    "area": "20.00",
    "rooms": "1室1厅",
    "direction": "",
    "floor": "",
    "price": "3080",
    "tags": "",
    "source": "",
    "url": "https://sh.lianjia.com/apartment/45878.html",
    "rent_type": "独栋",
    "location": "",
    "scraped_at": "2026-04-23 00:34:02",
    "region": "jinyang",
    "unit_price": 154.0,
    "lat": 31.254086,
    "lng": 121.553958
  },
  {
    "title": "整租·浦东大道2511弄 1室1厅 南",
    "community": "浦东大道2511弄",
    "area": "42.77",
    "rooms": "1室1厅",
    "direction": "南",
    "floor": "",
    "price": "3500",
    "tags": "",
    "source": "",
    "url": "https://sh.lianjia.com/zufang/SH2017932759195975680.html",
    "rent_type": "整租",
    "location": "浦东-金杨-浦东大道",
    "scraped_at": "2026-04-23 00:35:11",
    "region": "jinyang",
    "unit_price": 81.8,
    "lat": 31.259509,
    "lng": 121.559287
  },
  {
    "title": "独栋·城市e族青年公寓 浦东大道店 外滩一居室大户型外窗 独立厨卫 1室1厅",
    "community": "城市e族青年公寓 浦东大道店",
    "area": "29.00",
    "rooms": "1室1厅",
    "direction": "",
    "floor": "",
    "price": "3100",
    "tags": "",
    "source": "",
    "url": "https://sh.lianjia.com/apartment/107535.html",
    "rent_type": "独栋",
    "location": "",
    "scraped_at": "2026-04-23 00:34:08",
    "region": "jinyang",
    "unit_price": 106.9,
    "lat": 31.261783,
    "lng": 121.447852
  },
  {
    "title": "整租·金杨七街坊 1室1厅 南",
    "community": "金杨七街坊",
    "area": "51.57",
    "rooms": "1室1厅",
    "direction": "南",
    "floor": "",
    "price": "4095",
    "tags": "",
    "source": "",
    "url": "https://sh.lianjia.com/zufang/SH2022981000165851136.html",
    "rent_type": "整租",
    "location": "浦东-金杨-金杨七街坊",
    "scraped_at": "2026-04-23 00:35:11",
    "region": "jinyang",
    "unit_price": 79.4,
    "lat": 31.247293,
    "lng": 121.581729
  },
  {
    "title": "整租·仙都绿苑 2室2厅 南",
    "community": "仙都绿苑",
    "area": "87.50",
    "rooms": "2室2厅",
    "direction": "南",
    "floor": "",
    "price": "5500",
    "tags": "",
    "source": "",
    "url": "https://sh.lianjia.com/zufang/SH2140733925100617728.html",
    "rent_type": "整租",
    "location": "浦东-金杨-仙都绿苑",
    "scraped_at": "2026-04-23 00:34:02",
    "region": "jinyang",
    "unit_price": 62.9,
    "lat": 31.259111,
    "lng": 121.562857
  },
  {
    "title": "整租·寺前浜 2室1厅 南",
    "community": "寺前浜",
    "area": "65.93",
    "rooms": "2室1厅",
    "direction": "南",
    "floor": "",
    "price": "4725",
    "tags": "",
    "source": "",
    "url": "https://sh.lianjia.com/zufang/SH2015018419681755136.html",
    "rent_type": "整租",
    "location": "浦东-金杨-寺前浜",
    "scraped_at": "2026-04-23 00:35:00",
    "region": "jinyang",
    "unit_price": 71.7,
    "lat": 31.251423,
    "lng": 121.582595
  },
  {
    "title": "独栋·金名公寓 金桥店 特价房 1室1厅",
    "community": "金名公寓 金桥店 特价房",
    "area": "25.00",
    "rooms": "1室1厅",
    "direction": "",
    "floor": "",
    "price": "2200",
    "tags": "",
    "source": "",
    "url": "https://sh.lianjia.com/apartment/24764.html",
    "rent_type": "独栋",
    "location": "",
    "scraped_at": "2026-04-23 00:34:08",
    "region": "jinyang",
    "unit_price": 88.0,
    "lat": null,
    "lng": null
  },
  {
    "title": "整租·罗山七村 2室1厅 南",
    "community": "罗山七村",
    "area": "65.80",
    "rooms": "2室1厅",
    "direction": "南",
    "floor": "",
    "price": "4700",
    "tags": "",
    "source": "",
    "url": "https://sh.lianjia.com/zufang/SH2049398483747602432.html",
    "rent_type": "整租",
    "location": "浦东-金杨-罗山七村",
    "scraped_at": "2026-04-23 00:35:05",
    "region": "jinyang",
    "unit_price": 71.4,
    "lat": 31.252182,
    "lng": 121.564362
  },
  {
    "title": "整租·香山新村西北街坊 3室1厅 西南",
    "community": "香山新村西北街坊",
    "area": "83.21",
    "rooms": "3室1厅",
    "direction": "西南",
    "floor": "",
    "price": "6300",
    "tags": "",
    "source": "",
    "url": "https://sh.lianjia.com/zufang/SH2030674976008306688.html",
    "rent_type": "整租",
    "location": "浦东-金杨-香山新村西北街坊",
    "scraped_at": "2026-04-23 00:35:11",
    "region": "jinyang",
    "unit_price": 75.7,
    "lat": 31.240895,
    "lng": 121.566633
  },
  {
    "title": "整租·金杨新村三街坊 1室1厅 南",
    "community": "金杨新村三街坊",
    "area": "43.13",
    "rooms": "1室1厅",
    "direction": "南",
    "floor": "",
    "price": "4200",
    "tags": "",
    "source": "",
    "url": "https://sh.lianjia.com/zufang/SH2000919440580935680.html",
    "rent_type": "整租",
    "location": "浦东-金杨-金杨新村三街坊",
    "scraped_at": "2026-04-23 00:35:11",
    "region": "jinyang",
    "unit_price": 97.4,
    "lat": 31.250356,
    "lng": 121.578003
  },
  {
    "title": "整租·大桥花苑 2室1厅 南/北",
    "community": "大桥花苑",
    "area": "45.68",
    "rooms": "2室1厅",
    "direction": "南/北",
    "floor": "",
    "price": "4400",
    "tags": "",
    "source": "",
    "url": "https://sh.lianjia.com/zufang/SH2024833547830820864.html",
    "rent_type": "整租",
    "location": "浦东-金杨-大桥花苑",
    "scraped_at": "2026-04-23 00:35:05",
    "region": "jinyang",
    "unit_price": 96.3,
    "lat": 31.260843,
    "lng": 121.5621
  },
  {
    "title": "整租·罗山一村 3室1厅 南",
    "community": "罗山一村",
    "area": "84.60",
    "rooms": "3室1厅",
    "direction": "南",
    "floor": "",
    "price": "6200",
    "tags": "",
    "source": "",
    "url": "https://sh.lianjia.com/zufang/SH2143735112917843968.html",
    "rent_type": "整租",
    "location": "浦东-金杨-罗山一村",
    "scraped_at": "2026-04-23 00:34:02",
    "region": "jinyang",
    "unit_price": 73.3,
    "lat": 31.254478,
    "lng": 121.5585
  },
  {
    "title": "独栋·城家公寓 城家公寓上海金桥云山路地铁站店 独厨独卫！【宠物友好】可开票！24H安保！ 开间",
    "community": "城家公寓 城家公寓上海金桥云山路地铁站店",
    "area": "34.00",
    "rooms": "",
    "direction": "",
    "floor": "",
    "price": "3950",
    "tags": "",
    "source": "",
    "url": "https://sh.lianjia.com/apartment/81785.html",
    "rent_type": "独栋",
    "location": "",
    "scraped_at": "2026-04-23 00:34:05",
    "region": "jinyang",
    "unit_price": 116.2,
    "lat": null,
    "lng": null
  },
  {
    "title": "整租·艾山新村 2室1厅 南",
    "community": "艾山新村",
    "area": "68.77",
    "rooms": "2室1厅",
    "direction": "南",
    "floor": "",
    "price": "5200",
    "tags": "",
    "source": "",
    "url": "https://sh.lianjia.com/zufang/SH2062021462784475136.html",
    "rent_type": "整租",
    "location": "浦东-金杨-艾山新村",
    "scraped_at": "2026-04-23 00:35:05",
    "region": "jinyang",
    "unit_price": 75.6,
    "lat": 31.243527,
    "lng": 121.564964
  },
  {
    "title": "整租·金桥路530弄 2室1厅 南",
    "community": "金桥路530弄",
    "area": "78.05",
    "rooms": "2室1厅",
    "direction": "南",
    "floor": "",
    "price": "6000",
    "tags": "",
    "source": "",
    "url": "https://sh.lianjia.com/zufang/SH2150136324143710208.html",
    "rent_type": "整租",
    "location": "浦东-金杨-金桥路",
    "scraped_at": "2026-04-23 00:34:02",
    "region": "jinyang",
    "unit_price": 76.9,
    "lat": 31.261096,
    "lng": 121.574086
  },
  {
    "title": "整租·罗山四村 2室1厅 南",
    "community": "罗山四村",
    "area": "62.34",
    "rooms": "2室1厅",
    "direction": "南",
    "floor": "",
    "price": "4830",
    "tags": "",
    "source": "",
    "url": "https://sh.lianjia.com/zufang/SH1999431857623531520.html",
    "rent_type": "整租",
    "location": "浦东-金杨-罗山四村",
    "scraped_at": "2026-04-23 00:35:11",
    "region": "jinyang",
    "unit_price": 77.5,
    "lat": 31.249921,
    "lng": 121.559595
  },
  {
    "title": "独栋·cat home精品公寓 浦东团林路店 简约欧风朝南 紧临海事大学 无中介 年底特价 先到先得 开间",
    "community": "cat",
    "area": "20.00",
    "rooms": "",
    "direction": "",
    "floor": "",
    "price": "2820",
    "tags": "",
    "source": "",
    "url": "https://sh.lianjia.com/apartment/30782.html",
    "rent_type": "独栋",
    "location": "",
    "scraped_at": "2026-04-23 00:34:05",
    "region": "jinyang",
    "unit_price": 141.0,
    "lat": 31.184683,
    "lng": 121.492173
  },
  {
    "title": "整租·蝶恋园 6室1厅 南",
    "community": "蝶恋园",
    "area": "130.88",
    "rooms": "6室1厅",
    "direction": "南",
    "floor": "",
    "price": "9765",
    "tags": "",
    "source": "",
    "url": "https://sh.lianjia.com/zufang/SH2002322118095667200.html",
    "rent_type": "整租",
    "location": "浦东-金杨-蝶恋园",
    "scraped_at": "2026-04-23 00:35:11",
    "region": "jinyang",
    "unit_price": 74.6,
    "lat": 31.262359,
    "lng": 121.572402
  },
  {
    "title": "整租·金杨新村十街坊 2室1厅 南",
    "community": "金杨新村十街坊",
    "area": "58.00",
    "rooms": "2室1厅",
    "direction": "南",
    "floor": "",
    "price": "4400",
    "tags": "",
    "source": "",
    "url": "https://sh.lianjia.com/zufang/SH2113479224030396416.html",
    "rent_type": "整租",
    "location": "浦东-金杨-金杨新村十街坊",
    "scraped_at": "2026-04-23 00:34:02",
    "region": "jinyang",
    "unit_price": 75.9,
    "lat": 31.249012,
    "lng": 121.584186
  },
  {
    "title": "整租·东方知音苑 3室2厅 南/北",
    "community": "东方知音苑",
    "area": "115.81",
    "rooms": "3室2厅",
    "direction": "南/北",
    "floor": "",
    "price": "9400",
    "tags": "",
    "source": "",
    "url": "https://sh.lianjia.com/zufang/SH2120456222170677248.html",
    "rent_type": "整租",
    "location": "浦东-金杨-东方知音苑",
    "scraped_at": "2026-04-23 00:34:02",
    "region": "jinyang",
    "unit_price": 81.2,
    "lat": 31.258195,
    "lng": 121.574803
  },
  {
    "title": "整租·锦绣河山 2室1厅 南",
    "community": "锦绣河山",
    "area": "75.92",
    "rooms": "2室1厅",
    "direction": "南",
    "floor": "",
    "price": "6000",
    "tags": "",
    "source": "",
    "url": "https://sh.lianjia.com/zufang/SH2152723479118479360.html",
    "rent_type": "整租",
    "location": "浦东-金杨-锦绣河山",
    "scraped_at": "2026-04-23 00:34:02",
    "region": "jinyang",
    "unit_price": 79.0,
    "lat": 31.24585,
    "lng": 121.559685
  },
  {
    "title": "整租·罗山四村 2室1厅 南",
    "community": "罗山四村",
    "area": "63.47",
    "rooms": "2室1厅",
    "direction": "南",
    "floor": "",
    "price": "5000",
    "tags": "",
    "source": "",
    "url": "https://sh.lianjia.com/zufang/SH2153726873153044480.html",
    "rent_type": "整租",
    "location": "浦东-金杨-罗山四村",
    "scraped_at": "2026-04-23 00:34:02",
    "region": "jinyang",
    "unit_price": 78.8,
    "lat": 31.249921,
    "lng": 121.559595
  },
  {
    "title": "整租·金杨新村五街坊 3室1厅 南",
    "community": "金杨新村五街坊",
    "area": "71.96",
    "rooms": "3室1厅",
    "direction": "南",
    "floor": "",
    "price": "6930",
    "tags": "",
    "source": "",
    "url": "https://sh.lianjia.com/zufang/SH2088194850569584640.html",
    "rent_type": "整租",
    "location": "浦东-金杨-金杨新村五街坊",
    "scraped_at": "2026-04-23 00:35:05",
    "region": "jinyang",
    "unit_price": 96.3,
    "lat": 31.245347,
    "lng": 121.577269
  },
  {
    "title": "整租·罗山二村 2室1厅 南",
    "community": "罗山二村",
    "area": "61.40",
    "rooms": "2室1厅",
    "direction": "南",
    "floor": "",
    "price": "6300",
    "tags": "",
    "source": "",
    "url": "https://sh.lianjia.com/zufang/SH2087823392194428928.html",
    "rent_type": "整租",
    "location": "浦东-金杨-罗山二村",
    "scraped_at": "2026-04-23 00:34:05",
    "region": "jinyang",
    "unit_price": 102.6,
    "lat": 31.253214,
    "lng": 121.556928
  },
  {
    "title": "整租·弘扬雅苑 3室1厅 南",
    "community": "弘扬雅苑",
    "area": "130.10",
    "rooms": "3室1厅",
    "direction": "南",
    "floor": "",
    "price": "9000",
    "tags": "",
    "source": "",
    "url": "https://sh.lianjia.com/zufang/SH2127767216412688384.html",
    "rent_type": "整租",
    "location": "浦东-金杨-弘扬雅苑",
    "scraped_at": "2026-04-23 00:35:05",
    "region": "jinyang",
    "unit_price": 69.2,
    "lat": 31.260362,
    "lng": 121.573268
  },
  {
    "title": "独栋·百洲青年公寓 德平路店 本周特惠 陆家嘴 世纪大道商圈直达 品质阳光一居室 开间",
    "community": "百洲青年公寓 德平路店",
    "area": "38.00",
    "rooms": "",
    "direction": "",
    "floor": "",
    "price": "3399-3599",
    "tags": "",
    "source": "",
    "url": "https://sh.lianjia.com/apartment/84472.html",
    "rent_type": "独栋",
    "location": "",
    "scraped_at": "2026-04-23 00:34:08",
    "region": "jinyang",
    "unit_price": "",
    "lat": 31.241532,
    "lng": 121.569208
  },
  {
    "title": "整租·金杨六街坊 1室1厅 南",
    "community": "金杨六街坊",
    "area": "41.07",
    "rooms": "1室1厅",
    "direction": "南",
    "floor": "",
    "price": "4050",
    "tags": "",
    "source": "",
    "url": "https://sh.lianjia.com/zufang/SH2156080495669018624.html",
    "rent_type": "整租",
    "location": "浦东-金杨-金杨六街坊",
    "scraped_at": "2026-04-23 00:35:16",
    "region": "jinyang",
    "unit_price": 98.6,
    "lat": 31.208146,
    "lng": 121.554839
  },
  {
    "title": "整租·金杨新村四街坊 1室1厅 南",
    "community": "金杨新村四街坊",
    "area": "42.88",
    "rooms": "1室1厅",
    "direction": "南",
    "floor": "",
    "price": "4250",
    "tags": "",
    "source": "",
    "url": "https://sh.lianjia.com/zufang/SH2129090201308364800.html",
    "rent_type": "整租",
    "location": "浦东-金杨-金杨新村四街坊",
    "scraped_at": "2026-04-23 00:35:05",
    "region": "jinyang",
    "unit_price": 99.1,
    "lat": null,
    "lng": null
  },
  {
    "title": "整租·金杨新村四街坊 1室1厅 南",
    "community": "金杨新村四街坊",
    "area": "42.88",
    "rooms": "1室1厅",
    "direction": "南",
    "floor": "",
    "price": "4000",
    "tags": "",
    "source": "",
    "url": "https://sh.lianjia.com/zufang/SH2155601524502298624.html",
    "rent_type": "整租",
    "location": "浦东-金杨-金杨新村四街坊",
    "scraped_at": "2026-04-23 00:34:05",
    "region": "jinyang",
    "unit_price": 93.3,
    "lat": null,
    "lng": null
  },
  {
    "title": "整租·金杨七街坊 1室1厅 南",
    "community": "金杨七街坊",
    "area": "48.12",
    "rooms": "1室1厅",
    "direction": "南",
    "floor": "",
    "price": "3600",
    "tags": "",
    "source": "",
    "url": "https://sh.lianjia.com/zufang/SH2147225207062921216.html",
    "rent_type": "整租",
    "location": "浦东-金杨-金杨七街坊",
    "scraped_at": "2026-04-23 00:34:05",
    "region": "jinyang",
    "unit_price": 74.8,
    "lat": 31.247293,
    "lng": 121.581729
  },
  {
    "title": "整租·金杨新村三街坊 1室1厅 南",
    "community": "金杨新村三街坊",
    "area": "43.13",
    "rooms": "1室1厅",
    "direction": "南",
    "floor": "",
    "price": "4800",
    "tags": "",
    "source": "",
    "url": "https://sh.lianjia.com/zufang/SH2131611649998585856.html",
    "rent_type": "整租",
    "location": "浦东-金杨-金杨新村三街坊",
    "scraped_at": "2026-04-23 00:35:05",
    "region": "jinyang",
    "unit_price": 111.3,
    "lat": 31.250356,
    "lng": 121.578003
  },
  {
    "title": "整租·香山新村东北街坊 2室1厅 南",
    "community": "香山新村东北街坊",
    "area": "63.98",
    "rooms": "2室1厅",
    "direction": "南",
    "floor": "",
    "price": "5250",
    "tags": "",
    "source": "",
    "url": "https://sh.lianjia.com/zufang/SH1989272567365500928.html",
    "rent_type": "整租",
    "location": "浦东-金杨-香山新村东北街坊",
    "scraped_at": "2026-04-23 00:34:05",
    "region": "jinyang",
    "unit_price": 82.1,
    "lat": 31.243138,
    "lng": 121.569851
  },
  {
    "title": "整租·栖山路1861弄 2室1厅 南",
    "community": "栖山路1861弄",
    "area": "61.41",
    "rooms": "2室1厅",
    "direction": "南",
    "floor": "",
    "price": "4100",
    "tags": "",
    "source": "",
    "url": "https://sh.lianjia.com/zufang/SH2141486008133222400.html",
    "rent_type": "整租",
    "location": "浦东-金杨-栖山路",
    "scraped_at": "2026-04-23 00:35:05",
    "region": "jinyang",
    "unit_price": 66.8,
    "lat": 31.26199,
    "lng": 121.57064
  },
  {
    "title": "整租·罗山一村 2室1厅 南",
    "community": "罗山一村",
    "area": "54.88",
    "rooms": "2室1厅",
    "direction": "南",
    "floor": "",
    "price": "4800",
    "tags": "",
    "source": "",
    "url": "https://sh.lianjia.com/zufang/SH1985009035174215680.html",
    "rent_type": "整租",
    "location": "浦东-金杨-罗山一村",
    "scraped_at": "2026-04-23 00:34:05",
    "region": "jinyang",
    "unit_price": 87.5,
    "lat": 31.254478,
    "lng": 121.5585
  },
  {
    "title": "整租·昕泰苑 3室2厅 南",
    "community": "昕泰苑",
    "area": "135.48",
    "rooms": "3室2厅",
    "direction": "南",
    "floor": "",
    "price": "11000",
    "tags": "",
    "source": "",
    "url": "https://sh.lianjia.com/zufang/SH2141114016443924480.html",
    "rent_type": "整租",
    "location": "浦东-金杨-昕泰苑",
    "scraped_at": "2026-04-23 00:34:08",
    "region": "jinyang",
    "unit_price": 81.2,
    "lat": 31.257595,
    "lng": 121.562849
  },
  {
    "title": "整租·香山新村东北街坊 2室0厅 南",
    "community": "香山新村东北街坊",
    "area": "55.22",
    "rooms": "2室0厅",
    "direction": "南",
    "floor": "",
    "price": "4500",
    "tags": "",
    "source": "",
    "url": "https://sh.lianjia.com/zufang/SH2157355214129070080.html",
    "rent_type": "整租",
    "location": "浦东-金杨-香山新村东北街坊",
    "scraped_at": "2026-04-23 00:35:16",
    "region": "jinyang",
    "unit_price": 81.5,
    "lat": 31.243138,
    "lng": 121.569851
  },
  {
    "title": "整租·香山新村东北街坊 2室1厅 南",
    "community": "香山新村东北街坊",
    "area": "59.40",
    "rooms": "2室1厅",
    "direction": "南",
    "floor": "",
    "price": "5600",
    "tags": "",
    "source": "",
    "url": "https://sh.lianjia.com/zufang/SH2131700515044589568.html",
    "rent_type": "整租",
    "location": "浦东-金杨-香山新村东北街坊",
    "scraped_at": "2026-04-23 00:34:24",
    "region": "jinyang",
    "unit_price": 94.3,
    "lat": 31.243138,
    "lng": 121.569851
  },
  {
    "title": "整租·罗山六村 2室1厅 南/北",
    "community": "罗山六村",
    "area": "65.09",
    "rooms": "2室1厅",
    "direction": "南/北",
    "floor": "",
    "price": "5400",
    "tags": "",
    "source": "",
    "url": "https://sh.lianjia.com/zufang/SH2043341274055966720.html",
    "rent_type": "整租",
    "location": "浦东-金杨-罗山六村",
    "scraped_at": "2026-04-23 00:35:05",
    "region": "jinyang",
    "unit_price": 83.0,
    "lat": 31.246742,
    "lng": 121.561506
  },
  {
    "title": "整租·和景商务楼 1室1厅 南",
    "community": "和景商务楼",
    "area": "36.00",
    "rooms": "1室1厅",
    "direction": "南",
    "floor": "",
    "price": "3150",
    "tags": "",
    "source": "",
    "url": "https://sh.lianjia.com/zufang/SH2027730695421427712.html",
    "rent_type": "整租",
    "location": "浦东-金杨-和景商务楼",
    "scraped_at": "2026-04-23 00:35:05",
    "region": "jinyang",
    "unit_price": 87.5,
    "lat": 31.244653,
    "lng": 121.572425
  },
  {
    "title": "整租·德乐苑 2室2厅 南",
    "community": "德乐苑",
    "area": "99.00",
    "rooms": "2室2厅",
    "direction": "南",
    "floor": "",
    "price": "7700",
    "tags": "",
    "source": "",
    "url": "https://sh.lianjia.com/zufang/SH2149502049803304960.html",
    "rent_type": "整租",
    "location": "浦东-金杨-德乐苑",
    "scraped_at": "2026-04-23 00:34:24",
    "region": "jinyang",
    "unit_price": 77.8,
    "lat": 31.249782,
    "lng": 121.565036
  },
  {
    "title": "整租·天元公寓 3室1厅 南",
    "community": "天元公寓",
    "area": "124.13",
    "rooms": "3室1厅",
    "direction": "南",
    "floor": "",
    "price": "8000",
    "tags": "",
    "source": "",
    "url": "https://sh.lianjia.com/zufang/SH2151550944339296256.html",
    "rent_type": "整租",
    "location": "浦东-金杨-天元公寓",
    "scraped_at": "2026-04-23 00:34:05",
    "region": "jinyang",
    "unit_price": 64.4,
    "lat": 31.245141,
    "lng": 121.569508
  },
  {
    "title": "整租·黄山始信苑 2室1厅 南",
    "community": "黄山始信苑",
    "area": "80.08",
    "rooms": "2室1厅",
    "direction": "南",
    "floor": "",
    "price": "6000",
    "tags": "",
    "source": "",
    "url": "https://sh.lianjia.com/zufang/SH2129457135598174208.html",
    "rent_type": "整租",
    "location": "浦东-金杨-黄山始信苑",
    "scraped_at": "2026-04-23 00:34:05",
    "region": "jinyang",
    "unit_price": 74.9,
    "lat": 31.256111,
    "lng": 121.570352
  },
  {
    "title": "整租·香山新村西北街坊 1室1厅 南",
    "community": "香山新村西北街坊",
    "area": "49.95",
    "rooms": "1室1厅",
    "direction": "南",
    "floor": "",
    "price": "3800",
    "tags": "",
    "source": "",
    "url": "https://sh.lianjia.com/zufang/SH2142282883392339968.html",
    "rent_type": "整租",
    "location": "浦东-金杨-香山新村西北街坊",
    "scraped_at": "2026-04-23 00:34:05",
    "region": "jinyang",
    "unit_price": 76.1,
    "lat": 31.240895,
    "lng": 121.566633
  },
  {
    "title": "整租·黄山一村 1室0厅 南",
    "community": "黄山一村",
    "area": "34.34",
    "rooms": "1室0厅",
    "direction": "南",
    "floor": "",
    "price": "4200",
    "tags": "",
    "source": "",
    "url": "https://sh.lianjia.com/zufang/SH1980929715036225536.html",
    "rent_type": "整租",
    "location": "浦东-金杨-黄山一村",
    "scraped_at": "2026-04-23 00:35:00",
    "region": "jinyang",
    "unit_price": 122.3,
    "lat": 31.251942,
    "lng": 121.569363
  },
  {
    "title": "整租·金杨新村五街坊 1室1厅 南",
    "community": "金杨新村五街坊",
    "area": "49.01",
    "rooms": "1室1厅",
    "direction": "南",
    "floor": "",
    "price": "5000",
    "tags": "",
    "source": "",
    "url": "https://sh.lianjia.com/zufang/SH2144463434098409472.html",
    "rent_type": "整租",
    "location": "浦东-金杨-金杨新村五街坊",
    "scraped_at": "2026-04-23 00:34:08",
    "region": "jinyang",
    "unit_price": 102.0,
    "lat": 31.245347,
    "lng": 121.577269
  },
  {
    "title": "整租·罗山三村 2室1厅 东南",
    "community": "罗山三村",
    "area": "64.11",
    "rooms": "2室1厅",
    "direction": "东南",
    "floor": "",
    "price": "4200",
    "tags": "",
    "source": "",
    "url": "https://sh.lianjia.com/zufang/SH1984613107938361344.html",
    "rent_type": "整租",
    "location": "浦东-金杨-罗山三村",
    "scraped_at": "2026-04-23 00:35:11",
    "region": "jinyang",
    "unit_price": 65.5,
    "lat": 31.251572,
    "lng": 121.561479
  },
  {
    "title": "整租·金杨七街坊 2室1厅 南",
    "community": "金杨七街坊",
    "area": "55.67",
    "rooms": "2室1厅",
    "direction": "南",
    "floor": "",
    "price": "4500",
    "tags": "",
    "source": "",
    "url": "https://sh.lianjia.com/zufang/SH1720332745172844544.html",
    "rent_type": "整租",
    "location": "浦东-金杨-金杨七街坊",
    "scraped_at": "2026-04-23 00:35:00",
    "region": "jinyang",
    "unit_price": 80.8,
    "lat": 31.247293,
    "lng": 121.581729
  },
  {
    "title": "整租·金杨新村十街坊 2室1厅 南",
    "community": "金杨新村十街坊",
    "area": "59.99",
    "rooms": "2室1厅",
    "direction": "南",
    "floor": "",
    "price": "5250",
    "tags": "",
    "source": "",
    "url": "https://sh.lianjia.com/zufang/SH1979801290334535680.html",
    "rent_type": "整租",
    "location": "浦东-金杨-金杨新村十街坊",
    "scraped_at": "2026-04-23 00:35:00",
    "region": "jinyang",
    "unit_price": 87.5,
    "lat": 31.249012,
    "lng": 121.584186
  },
  {
    "title": "整租·金杨新村四街坊 1室1厅 南",
    "community": "金杨新村四街坊",
    "area": "42.88",
    "rooms": "1室1厅",
    "direction": "南",
    "floor": "",
    "price": "4550",
    "tags": "",
    "source": "",
    "url": "https://sh.lianjia.com/zufang/SH1871933316320460800.html",
    "rent_type": "整租",
    "location": "浦东-金杨-金杨新村四街坊",
    "scraped_at": "2026-04-23 00:34:08",
    "region": "jinyang",
    "unit_price": 106.1,
    "lat": null,
    "lng": null
  },
  {
    "title": "整租·仙都绿苑 1室1厅 南",
    "community": "仙都绿苑",
    "area": "44.48",
    "rooms": "1室1厅",
    "direction": "南",
    "floor": "",
    "price": "3600",
    "tags": "",
    "source": "",
    "url": "https://sh.lianjia.com/zufang/SH1752352310551379968.html",
    "rent_type": "整租",
    "location": "浦东-金杨-仙都绿苑",
    "scraped_at": "2026-04-23 00:35:00",
    "region": "jinyang",
    "unit_price": 80.9,
    "lat": 31.259111,
    "lng": 121.562857
  },
  {
    "title": "整租·寺前浜 1室1厅 南",
    "community": "寺前浜",
    "area": "42.27",
    "rooms": "1室1厅",
    "direction": "南",
    "floor": "",
    "price": "3200",
    "tags": "",
    "source": "",
    "url": "https://sh.lianjia.com/zufang/SH1979604384178241536.html",
    "rent_type": "整租",
    "location": "浦东-金杨-寺前浜",
    "scraped_at": "2026-04-23 00:35:00",
    "region": "jinyang",
    "unit_price": 75.7,
    "lat": 31.251423,
    "lng": 121.582595
  },
  {
    "title": "独栋·鹰虹酒店式公寓 鹰虹酒店式公寓 大床房 1室2厅",
    "community": "鹰虹酒店式公寓 鹰虹酒店式公寓 大床房",
    "area": "80.00",
    "rooms": "1室2厅",
    "direction": "",
    "floor": "",
    "price": "5800-6500",
    "tags": "",
    "source": "",
    "url": "https://sh.lianjia.com/apartment/1055.html",
    "rent_type": "独栋",
    "location": "",
    "scraped_at": "2026-04-23 00:34:08",
    "region": "jinyang",
    "unit_price": "",
    "lat": 31.266688,
    "lng": 121.473635
  },
  {
    "title": "整租·金杨新村九街坊 2室1厅 南",
    "community": "金杨新村九街坊",
    "area": "55.60",
    "rooms": "2室1厅",
    "direction": "南",
    "floor": "",
    "price": "4200",
    "tags": "",
    "source": "",
    "url": "https://sh.lianjia.com/zufang/SH1963584457852059648.html",
    "rent_type": "整租",
    "location": "浦东-金杨-金杨新村九街坊",
    "scraped_at": "2026-04-23 00:35:00",
    "region": "jinyang",
    "unit_price": 75.5,
    "lat": 31.254237,
    "lng": 121.582661
  },
  {
    "title": "整租·金杨新村五街坊 1室1厅 南",
    "community": "金杨新村五街坊",
    "area": "46.57",
    "rooms": "1室1厅",
    "direction": "南",
    "floor": "",
    "price": "3990",
    "tags": "",
    "source": "",
    "url": "https://sh.lianjia.com/zufang/SH2013654643132858368.html",
    "rent_type": "整租",
    "location": "浦东-金杨-金杨新村五街坊",
    "scraped_at": "2026-04-23 00:35:00",
    "region": "jinyang",
    "unit_price": 85.7,
    "lat": 31.245347,
    "lng": 121.577269
  },
  {
    "title": "整租·香山新村西北街坊 2室1厅 南",
    "community": "香山新村西北街坊",
    "area": "67.53",
    "rooms": "2室1厅",
    "direction": "南",
    "floor": "",
    "price": "5600",
    "tags": "",
    "source": "",
    "url": "https://sh.lianjia.com/zufang/SH2144422323938131968.html",
    "rent_type": "整租",
    "location": "浦东-金杨-香山新村西北街坊",
    "scraped_at": "2026-04-23 00:34:28",
    "region": "jinyang",
    "unit_price": 82.9,
    "lat": 31.240895,
    "lng": 121.566633
  },
  {
    "title": "独栋·悦徕国际公寓 浦东大道店 近陆家嘴 年租送一个月 价格最低4200起 1室1厅",
    "community": "悦徕国际公寓 浦东大道店 近陆家嘴",
    "area": "48.00",
    "rooms": "1室1厅",
    "direction": "",
    "floor": "",
    "price": "4200",
    "tags": "",
    "source": "",
    "url": "https://sh.lianjia.com/apartment/81605.html",
    "rent_type": "独栋",
    "location": "",
    "scraped_at": "2026-04-23 00:34:08",
    "region": "jinyang",
    "unit_price": 87.5,
    "lat": 31.237015,
    "lng": 121.5025
  },
  {
    "title": "整租·罗山六村 2室1厅 南",
    "community": "罗山六村",
    "area": "71.40",
    "rooms": "2室1厅",
    "direction": "南",
    "floor": "",
    "price": "5700",
    "tags": "",
    "source": "",
    "url": "https://sh.lianjia.com/zufang/SH1999718791415595008.html",
    "rent_type": "整租",
    "location": "浦东-金杨-罗山六村",
    "scraped_at": "2026-04-23 00:35:11",
    "region": "jinyang",
    "unit_price": 79.8,
    "lat": 31.246742,
    "lng": 121.561506
  },
  {
    "title": "整租·金杨新村五街坊 2室1厅 南/北",
    "community": "金杨新村五街坊",
    "area": "59.50",
    "rooms": "2室1厅",
    "direction": "南/北",
    "floor": "",
    "price": "4500",
    "tags": "",
    "source": "",
    "url": "https://sh.lianjia.com/zufang/SH2154039696634675200.html",
    "rent_type": "整租",
    "location": "浦东-金杨-金杨新村五街坊",
    "scraped_at": "2026-04-23 00:34:08",
    "region": "jinyang",
    "unit_price": 75.6,
    "lat": 31.245347,
    "lng": 121.577269
  },
  {
    "title": "独栋·逸菲公寓 金台路店 一居室大户型 酒店式户型 水电免费 1室1厅",
    "community": "逸菲公寓 金台路店",
    "area": "50.00",
    "rooms": "1室1厅",
    "direction": "",
    "floor": "",
    "price": "6000",
    "tags": "",
    "source": "",
    "url": "https://sh.lianjia.com/apartment/107536.html",
    "rent_type": "独栋",
    "location": "",
    "scraped_at": "2026-04-23 00:34:08",
    "region": "jinyang",
    "unit_price": 120.0,
    "lat": 31.261332,
    "lng": 121.677927
  },
  {
    "title": "整租·信罗大厦 2室2厅 南/北",
    "community": "信罗大厦",
    "area": "96.85",
    "rooms": "2室2厅",
    "direction": "南/北",
    "floor": "",
    "price": "6700",
    "tags": "",
    "source": "",
    "url": "https://sh.lianjia.com/zufang/SH2158238658170191872.html",
    "rent_type": "整租",
    "location": "浦东-金杨-信罗大厦",
    "scraped_at": "2026-04-23 00:34:49",
    "region": "jinyang",
    "unit_price": 69.2,
    "lat": null,
    "lng": null
  },
  {
    "title": "整租·金杨新村三街坊 2室1厅 南",
    "community": "金杨新村三街坊",
    "area": "58.70",
    "rooms": "2室1厅",
    "direction": "南",
    "floor": "",
    "price": "4300",
    "tags": "",
    "source": "",
    "url": "https://sh.lianjia.com/zufang/SH2015794771963936768.html",
    "rent_type": "整租",
    "location": "浦东-金杨-金杨新村三街坊",
    "scraped_at": "2026-04-23 00:35:11",
    "region": "jinyang",
    "unit_price": 73.3,
    "lat": 31.250356,
    "lng": 121.578003
  },
  {
    "title": "整租·香山新村西南街坊 5室2厅 南/北",
    "community": "香山新村西南街坊",
    "area": "157.52",
    "rooms": "5室2厅",
    "direction": "南/北",
    "floor": "",
    "price": "10500",
    "tags": "",
    "source": "",
    "url": "https://sh.lianjia.com/zufang/SH2152291786515546112.html",
    "rent_type": "整租",
    "location": "浦东-金杨-香山新村西南街坊",
    "scraped_at": "2026-04-23 00:34:08",
    "region": "jinyang",
    "unit_price": 66.7,
    "lat": 31.238872,
    "lng": 121.568809
  },
  {
    "title": "整租·金杨新村十街坊 2室1厅 南",
    "community": "金杨新村十街坊",
    "area": "72.84",
    "rooms": "2室1厅",
    "direction": "南",
    "floor": "",
    "price": "5500",
    "tags": "",
    "source": "",
    "url": "https://sh.lianjia.com/zufang/SH2152083500965036032.html",
    "rent_type": "整租",
    "location": "浦东-金杨-金杨新村十街坊",
    "scraped_at": "2026-04-23 00:34:08",
    "region": "jinyang",
    "unit_price": 75.5,
    "lat": 31.249012,
    "lng": 121.584186
  },
  {
    "title": "整租·艾山新村 1室1厅 南",
    "community": "艾山新村",
    "area": "54.20",
    "rooms": "1室1厅",
    "direction": "南",
    "floor": "",
    "price": "4800",
    "tags": "",
    "source": "",
    "url": "https://sh.lianjia.com/zufang/SH2123381696064651264.html",
    "rent_type": "整租",
    "location": "浦东-金杨-艾山新村",
    "scraped_at": "2026-04-23 00:34:08",
    "region": "jinyang",
    "unit_price": 88.6,
    "lat": 31.243527,
    "lng": 121.564964
  },
  {
    "title": "整租·罗山三村 1室1厅 南",
    "community": "罗山三村",
    "area": "45.19",
    "rooms": "1室1厅",
    "direction": "南",
    "floor": "",
    "price": "4200",
    "tags": "",
    "source": "",
    "url": "https://sh.lianjia.com/zufang/SH2144402339644047360.html",
    "rent_type": "整租",
    "location": "浦东-金杨-罗山三村",
    "scraped_at": "2026-04-23 00:34:28",
    "region": "jinyang",
    "unit_price": 92.9,
    "lat": 31.251572,
    "lng": 121.561479
  },
  {
    "title": "整租·香山新村东北街坊 3室1厅 南",
    "community": "香山新村东北街坊",
    "area": "93.00",
    "rooms": "3室1厅",
    "direction": "南",
    "floor": "",
    "price": "6800",
    "tags": "",
    "source": "",
    "url": "https://sh.lianjia.com/zufang/SH2129123142642171904.html",
    "rent_type": "整租",
    "location": "浦东-金杨-香山新村东北街坊",
    "scraped_at": "2026-04-23 00:34:12",
    "region": "jinyang",
    "unit_price": 73.1,
    "lat": 31.243138,
    "lng": 121.569851
  },
  {
    "title": "整租·金杨新村三街坊 1室1厅 南",
    "community": "金杨新村三街坊",
    "area": "44.64",
    "rooms": "1室1厅",
    "direction": "南",
    "floor": "",
    "price": "4500",
    "tags": "",
    "source": "",
    "url": "https://sh.lianjia.com/zufang/SH2154223120339173376.html",
    "rent_type": "整租",
    "location": "浦东-金杨-金杨新村三街坊",
    "scraped_at": "2026-04-23 00:34:12",
    "region": "jinyang",
    "unit_price": 100.8,
    "lat": 31.250356,
    "lng": 121.578003
  },
  {
    "title": "整租·金杨新村九街坊 2室1厅 南",
    "community": "金杨新村九街坊",
    "area": "76.00",
    "rooms": "2室1厅",
    "direction": "南",
    "floor": "",
    "price": "6200",
    "tags": "",
    "source": "",
    "url": "https://sh.lianjia.com/zufang/SH2153794366718607360.html",
    "rent_type": "整租",
    "location": "浦东-金杨-金杨新村九街坊",
    "scraped_at": "2026-04-23 00:34:12",
    "region": "jinyang",
    "unit_price": 81.6,
    "lat": 31.254237,
    "lng": 121.582661
  },
  {
    "title": "整租·栖山家园 2室1厅 南",
    "community": "栖山家园",
    "area": "55.05",
    "rooms": "2室1厅",
    "direction": "南",
    "floor": "",
    "price": "4400",
    "tags": "",
    "source": "",
    "url": "https://sh.lianjia.com/zufang/SH2150977317709545472.html",
    "rent_type": "整租",
    "location": "浦东-金杨-栖山家园",
    "scraped_at": "2026-04-23 00:34:12",
    "region": "jinyang",
    "unit_price": 79.9,
    "lat": 31.256003,
    "lng": 121.565451
  },
  {
    "title": "整租·仙都绿苑 2室1厅 南",
    "community": "仙都绿苑",
    "area": "93.83",
    "rooms": "2室1厅",
    "direction": "南",
    "floor": "",
    "price": "6300",
    "tags": "",
    "source": "",
    "url": "https://sh.lianjia.com/zufang/SH2096528922274430976.html",
    "rent_type": "整租",
    "location": "浦东-金杨-仙都绿苑",
    "scraped_at": "2026-04-23 00:34:12",
    "region": "jinyang",
    "unit_price": 67.1,
    "lat": 31.259111,
    "lng": 121.562857
  },
  {
    "title": "整租·龙居大厦 3室2厅 南",
    "community": "龙居大厦",
    "area": "151.74",
    "rooms": "3室2厅",
    "direction": "南",
    "floor": "",
    "price": "9000",
    "tags": "",
    "source": "",
    "url": "https://sh.lianjia.com/zufang/SH2154251056169615360.html",
    "rent_type": "整租",
    "location": "浦东-金杨-龙居大厦",
    "scraped_at": "2026-04-23 00:34:12",
    "region": "jinyang",
    "unit_price": 59.3,
    "lat": 31.251998,
    "lng": 121.582994
  },
  {
    "title": "整租·沪东大楼 1室1厅 南",
    "community": "沪东大楼",
    "area": "52.00",
    "rooms": "1室1厅",
    "direction": "南",
    "floor": "",
    "price": "4500",
    "tags": "",
    "source": "",
    "url": "https://sh.lianjia.com/zufang/SH2157099558016909312.html",
    "rent_type": "整租",
    "location": "浦东-金杨-沪东大楼",
    "scraped_at": "2026-04-23 00:34:12",
    "region": "jinyang",
    "unit_price": 86.5,
    "lat": 31.251998,
    "lng": 121.582994
  },
  {
    "title": "整租·仙都绿苑 1室1厅 南",
    "community": "仙都绿苑",
    "area": "44.73",
    "rooms": "1室1厅",
    "direction": "南",
    "floor": "",
    "price": "4600",
    "tags": "",
    "source": "",
    "url": "https://sh.lianjia.com/zufang/SH2120159599238578176.html",
    "rent_type": "整租",
    "location": "浦东-金杨-仙都绿苑",
    "scraped_at": "2026-04-23 00:34:24",
    "region": "jinyang",
    "unit_price": 102.8,
    "lat": 31.259111,
    "lng": 121.562857
  },
  {
    "title": "整租·金杨二街坊 2室1厅 南",
    "community": "金杨二街坊",
    "area": "60.57",
    "rooms": "2室1厅",
    "direction": "南",
    "floor": "",
    "price": "6500",
    "tags": "",
    "source": "",
    "url": "https://sh.lianjia.com/zufang/SH2125570541841547264.html",
    "rent_type": "整租",
    "location": "浦东-金杨-金杨二街坊",
    "scraped_at": "2026-04-23 00:34:12",
    "region": "jinyang",
    "unit_price": 107.3,
    "lat": 31.250478,
    "lng": 121.575147
  },
  {
    "title": "整租·金杨新村五街坊 1室1厅 南",
    "community": "金杨新村五街坊",
    "area": "48.67",
    "rooms": "1室1厅",
    "direction": "南",
    "floor": "",
    "price": "4600",
    "tags": "",
    "source": "",
    "url": "https://sh.lianjia.com/zufang/SH2139388723257671680.html",
    "rent_type": "整租",
    "location": "浦东-金杨-金杨新村五街坊",
    "scraped_at": "2026-04-23 00:34:28",
    "region": "jinyang",
    "unit_price": 94.5,
    "lat": 31.245347,
    "lng": 121.577269
  },
  {
    "title": "整租·香山新村西北街坊 2室1厅 南",
    "community": "香山新村西北街坊",
    "area": "58.90",
    "rooms": "2室1厅",
    "direction": "南",
    "floor": "",
    "price": "4800",
    "tags": "",
    "source": "",
    "url": "https://sh.lianjia.com/zufang/SH2153736514595454976.html",
    "rent_type": "整租",
    "location": "浦东-金杨-香山新村西北街坊",
    "scraped_at": "2026-04-23 00:34:12",
    "region": "jinyang",
    "unit_price": 81.5,
    "lat": 31.240895,
    "lng": 121.566633
  },
  {
    "title": "整租·金杨新村三街坊 1室1厅 南",
    "community": "金杨新村三街坊",
    "area": "42.88",
    "rooms": "1室1厅",
    "direction": "南",
    "floor": "",
    "price": "3300",
    "tags": "",
    "source": "",
    "url": "https://sh.lianjia.com/zufang/SH2129457138513215488.html",
    "rent_type": "整租",
    "location": "浦东-金杨-金杨新村三街坊",
    "scraped_at": "2026-04-23 00:34:12",
    "region": "jinyang",
    "unit_price": 77.0,
    "lat": 31.250356,
    "lng": 121.578003
  },
  {
    "title": "整租·仁和花苑 2室1厅 南",
    "community": "仁和花苑",
    "area": "99.48",
    "rooms": "2室1厅",
    "direction": "南",
    "floor": "",
    "price": "8000",
    "tags": "",
    "source": "",
    "url": "https://sh.lianjia.com/zufang/SH2138176369127849984.html",
    "rent_type": "整租",
    "location": "浦东-金杨-仁和花苑",
    "scraped_at": "2026-04-23 00:34:12",
    "region": "jinyang",
    "unit_price": 80.4,
    "lat": 31.058481,
    "lng": 121.391616
  },
  {
    "title": "整租·银山路185弄 2室2厅 南",
    "community": "银山路185弄",
    "area": "93.19",
    "rooms": "2室2厅",
    "direction": "南",
    "floor": "",
    "price": "7500",
    "tags": "",
    "source": "",
    "url": "https://sh.lianjia.com/zufang/SH2092472701623992320.html",
    "rent_type": "整租",
    "location": "浦东-金杨-银山路",
    "scraped_at": "2026-04-23 00:34:12",
    "region": "jinyang",
    "unit_price": 80.5,
    "lat": 31.244363,
    "lng": 121.580661
  },
  {
    "title": "整租·金杨二街坊 1室1厅 南",
    "community": "金杨二街坊",
    "area": "43.78",
    "rooms": "1室1厅",
    "direction": "南",
    "floor": "",
    "price": "3700",
    "tags": "",
    "source": "",
    "url": "https://sh.lianjia.com/zufang/SH2123052190783242240.html",
    "rent_type": "整租",
    "location": "浦东-金杨-金杨二街坊",
    "scraped_at": "2026-04-23 00:34:12",
    "region": "jinyang",
    "unit_price": 84.5,
    "lat": 31.250478,
    "lng": 121.575147
  },
  {
    "title": "整租·黄山始信苑 1室1厅 南",
    "community": "黄山始信苑",
    "area": "52.75",
    "rooms": "1室1厅",
    "direction": "南",
    "floor": "",
    "price": "4500",
    "tags": "",
    "source": "",
    "url": "https://sh.lianjia.com/zufang/SH2150197905984585728.html",
    "rent_type": "整租",
    "location": "浦东-金杨-黄山始信苑",
    "scraped_at": "2026-04-23 00:34:12",
    "region": "jinyang",
    "unit_price": 85.3,
    "lat": 31.256111,
    "lng": 121.570352
  },
  {
    "title": "整租·金茂花园 3室2厅 南",
    "community": "金茂花园",
    "area": "121.64",
    "rooms": "3室2厅",
    "direction": "南",
    "floor": "",
    "price": "9900",
    "tags": "",
    "source": "",
    "url": "https://sh.lianjia.com/zufang/SH2143196309312503808.html",
    "rent_type": "整租",
    "location": "浦东-金杨-金茂花园",
    "scraped_at": "2026-04-23 00:34:28",
    "region": "jinyang",
    "unit_price": 81.4,
    "lat": 31.259159,
    "lng": 121.560641
  },
  {
    "title": "整租·罗山七村 1室1厅 南",
    "community": "罗山七村",
    "area": "44.13",
    "rooms": "1室1厅",
    "direction": "南",
    "floor": "",
    "price": "4000",
    "tags": "",
    "source": "",
    "url": "https://sh.lianjia.com/zufang/SH2150912169061908480.html",
    "rent_type": "整租",
    "location": "浦东-金杨-罗山七村",
    "scraped_at": "2026-04-23 00:34:12",
    "region": "jinyang",
    "unit_price": 90.6,
    "lat": 31.252182,
    "lng": 121.564362
  },
  {
    "title": "整租·罗山三村 1室1厅 南",
    "community": "罗山三村",
    "area": "48.74",
    "rooms": "1室1厅",
    "direction": "南",
    "floor": "",
    "price": "6200",
    "tags": "",
    "source": "",
    "url": "https://sh.lianjia.com/zufang/SH2151546656779141120.html",
    "rent_type": "整租",
    "location": "浦东-金杨-罗山三村",
    "scraped_at": "2026-04-23 00:34:28",
    "region": "jinyang",
    "unit_price": 127.2,
    "lat": 31.251572,
    "lng": 121.561479
  },
  {
    "title": "整租·黄山一村 2室1厅 南",
    "community": "黄山一村",
    "area": "66.30",
    "rooms": "2室1厅",
    "direction": "南",
    "floor": "",
    "price": "5200",
    "tags": "",
    "source": "",
    "url": "https://sh.lianjia.com/zufang/SH2148787780686184448.html",
    "rent_type": "整租",
    "location": "浦东-金杨-黄山一村",
    "scraped_at": "2026-04-23 00:34:12",
    "region": "jinyang",
    "unit_price": 78.4,
    "lat": 31.251942,
    "lng": 121.569363
  },
  {
    "title": "整租·广洋苑 3室2厅 复式 南/北",
    "community": "广洋苑",
    "area": "100.55",
    "rooms": "3室2厅",
    "direction": "",
    "floor": "",
    "price": "7999",
    "tags": "",
    "source": "",
    "url": "https://sh.lianjia.com/zufang/SH2095132084061339648.html",
    "rent_type": "整租",
    "location": "浦东-金杨-广洋苑",
    "scraped_at": "2026-04-23 00:34:24",
    "region": "jinyang",
    "unit_price": 79.6,
    "lat": 31.2503,
    "lng": 121.569263
  },
  {
    "title": "整租·仙都绿苑 1室1厅 东南",
    "community": "仙都绿苑",
    "area": "44.80",
    "rooms": "1室1厅",
    "direction": "东南",
    "floor": "",
    "price": "3500",
    "tags": "",
    "source": "",
    "url": "https://sh.lianjia.com/zufang/SH2144348313397231616.html",
    "rent_type": "整租",
    "location": "浦东-金杨-仙都绿苑",
    "scraped_at": "2026-04-23 00:34:12",
    "region": "jinyang",
    "unit_price": 78.1,
    "lat": 31.259111,
    "lng": 121.562857
  },
  {
    "title": "整租·上房金丰苑 2室2厅 南",
    "community": "上房金丰苑",
    "area": "98.73",
    "rooms": "2室2厅",
    "direction": "南",
    "floor": "",
    "price": "6300",
    "tags": "",
    "source": "",
    "url": "https://sh.lianjia.com/zufang/SH2106678533689442304.html",
    "rent_type": "整租",
    "location": "浦东-金杨-上房金丰苑",
    "scraped_at": "2026-04-23 00:34:12",
    "region": "jinyang",
    "unit_price": 63.8,
    "lat": 31.260037,
    "lng": 121.562278
  },
  {
    "title": "整租·金杨新村十一街坊 1室1厅 南",
    "community": "金杨新村十一街坊",
    "area": "44.90",
    "rooms": "1室1厅",
    "direction": "南",
    "floor": "",
    "price": "4300",
    "tags": "",
    "source": "",
    "url": "https://sh.lianjia.com/zufang/SH2148751546492387328.html",
    "rent_type": "整租",
    "location": "浦东-金杨-金杨新村十一街坊",
    "scraped_at": "2026-04-23 00:34:12",
    "region": "jinyang",
    "unit_price": 95.8,
    "lat": 31.247315,
    "lng": 121.586055
  },
  {
    "title": "整租·香山新村东北街坊 3室1厅 南",
    "community": "香山新村东北街坊",
    "area": "84.00",
    "rooms": "3室1厅",
    "direction": "南",
    "floor": "",
    "price": "6400",
    "tags": "",
    "source": "",
    "url": "https://sh.lianjia.com/zufang/SH2150969914192560128.html",
    "rent_type": "整租",
    "location": "浦东-金杨-香山新村东北街坊",
    "scraped_at": "2026-04-23 00:34:12",
    "region": "jinyang",
    "unit_price": 76.2,
    "lat": 31.243138,
    "lng": 121.569851
  },
  {
    "title": "整租·天元公寓 2室1厅 南",
    "community": "天元公寓",
    "area": "85.13",
    "rooms": "2室1厅",
    "direction": "南",
    "floor": "",
    "price": "5900",
    "tags": "",
    "source": "",
    "url": "https://sh.lianjia.com/zufang/SH2117519188552581120.html",
    "rent_type": "整租",
    "location": "浦东-金杨-天元公寓",
    "scraped_at": "2026-04-23 00:34:12",
    "region": "jinyang",
    "unit_price": 69.3,
    "lat": 31.245141,
    "lng": 121.569508
  },
  {
    "title": "整租·沪东大楼 2室1厅 南",
    "community": "沪东大楼",
    "area": "66.61",
    "rooms": "2室1厅",
    "direction": "南",
    "floor": "",
    "price": "5800",
    "tags": "",
    "source": "",
    "url": "https://sh.lianjia.com/zufang/SH2143631590914260992.html",
    "rent_type": "整租",
    "location": "浦东-金杨-沪东大楼",
    "scraped_at": "2026-04-23 00:34:12",
    "region": "jinyang",
    "unit_price": 87.1,
    "lat": 31.251998,
    "lng": 121.582994
  },
  {
    "title": "整租·金杨新村十街坊 2室1厅 南",
    "community": "金杨新村十街坊",
    "area": "55.33",
    "rooms": "2室1厅",
    "direction": "南",
    "floor": "",
    "price": "4300",
    "tags": "",
    "source": "",
    "url": "https://sh.lianjia.com/zufang/SH2120795843068952576.html",
    "rent_type": "整租",
    "location": "浦东-金杨-金杨新村十街坊",
    "scraped_at": "2026-04-23 00:34:21",
    "region": "jinyang",
    "unit_price": 77.7,
    "lat": 31.249012,
    "lng": 121.584186
  },
  {
    "title": "整租·金杨新村四街坊 1室1厅 南",
    "community": "金杨新村四街坊",
    "area": "42.79",
    "rooms": "1室1厅",
    "direction": "南",
    "floor": "",
    "price": "3300",
    "tags": "",
    "source": "",
    "url": "https://sh.lianjia.com/zufang/SH2101235705068912640.html",
    "rent_type": "整租",
    "location": "浦东-金杨-金杨新村四街坊",
    "scraped_at": "2026-04-23 00:34:12",
    "region": "jinyang",
    "unit_price": 77.1,
    "lat": null,
    "lng": null
  },
  {
    "title": "整租·上房金丰苑 3室2厅 南",
    "community": "上房金丰苑",
    "area": "125.27",
    "rooms": "3室2厅",
    "direction": "南",
    "floor": "",
    "price": "8300",
    "tags": "",
    "source": "",
    "url": "https://sh.lianjia.com/zufang/SH2111341730828648448.html",
    "rent_type": "整租",
    "location": "浦东-金杨-上房金丰苑",
    "scraped_at": "2026-04-23 00:34:12",
    "region": "jinyang",
    "unit_price": 66.3,
    "lat": 31.260037,
    "lng": 121.562278
  },
  {
    "title": "整租·金杨新村三街坊 2室1厅 南",
    "community": "金杨新村三街坊",
    "area": "59.50",
    "rooms": "2室1厅",
    "direction": "南",
    "floor": "",
    "price": "5800",
    "tags": "",
    "source": "",
    "url": "https://sh.lianjia.com/zufang/SH2149087938871296000.html",
    "rent_type": "整租",
    "location": "浦东-金杨-金杨新村三街坊",
    "scraped_at": "2026-04-23 00:34:24",
    "region": "jinyang",
    "unit_price": 97.5,
    "lat": 31.250356,
    "lng": 121.578003
  },
  {
    "title": "整租·上泰花苑 3室1厅 南",
    "community": "上泰花苑",
    "area": "74.88",
    "rooms": "3室1厅",
    "direction": "南",
    "floor": "",
    "price": "5800",
    "tags": "",
    "source": "",
    "url": "https://sh.lianjia.com/zufang/SH2124419459417374720.html",
    "rent_type": "整租",
    "location": "浦东-金杨-上泰花苑",
    "scraped_at": "2026-04-23 00:34:15",
    "region": "jinyang",
    "unit_price": 77.5,
    "lat": 31.246142,
    "lng": 121.563456
  },
  {
    "title": "整租·大桥花苑 2室0厅 南/北",
    "community": "大桥花苑",
    "area": "50.00",
    "rooms": "2室0厅",
    "direction": "南/北",
    "floor": "",
    "price": "4500",
    "tags": "",
    "source": "",
    "url": "https://sh.lianjia.com/zufang/SH2155627961875693568.html",
    "rent_type": "整租",
    "location": "浦东-金杨-大桥花苑",
    "scraped_at": "2026-04-23 00:34:15",
    "region": "jinyang",
    "unit_price": 90.0,
    "lat": 31.260843,
    "lng": 121.5621
  },
  {
    "title": "整租·香山新村东南街坊 1室1厅 南",
    "community": "香山新村东南街坊",
    "area": "39.65",
    "rooms": "1室1厅",
    "direction": "南",
    "floor": "",
    "price": "4000",
    "tags": "",
    "source": "",
    "url": "https://sh.lianjia.com/zufang/SH2153497651545374720.html",
    "rent_type": "整租",
    "location": "浦东-金杨-香山新村东南街坊",
    "scraped_at": "2026-04-23 00:34:15",
    "region": "jinyang",
    "unit_price": 100.9,
    "lat": 31.239835,
    "lng": 121.572683
  },
  {
    "title": "整租·金杨一街坊 1室1厅 南",
    "community": "金杨一街坊",
    "area": "48.00",
    "rooms": "1室1厅",
    "direction": "南",
    "floor": "",
    "price": "4000",
    "tags": "",
    "source": "",
    "url": "https://sh.lianjia.com/zufang/SH2152968289435779072.html",
    "rent_type": "整租",
    "location": "浦东-金杨-金杨一街坊",
    "scraped_at": "2026-04-23 00:34:15",
    "region": "jinyang",
    "unit_price": 83.3,
    "lat": 31.144021,
    "lng": 121.611821
  },
  {
    "title": "整租·金台三居 2室1厅 南/北",
    "community": "金台三居",
    "area": "64.00",
    "rooms": "2室1厅",
    "direction": "南/北",
    "floor": "",
    "price": "5100",
    "tags": "",
    "source": "",
    "url": "https://sh.lianjia.com/zufang/SH2143302376675606528.html",
    "rent_type": "整租",
    "location": "浦东-金杨-金台三居",
    "scraped_at": "2026-04-23 00:34:15",
    "region": "jinyang",
    "unit_price": 79.7,
    "lat": 31.250209,
    "lng": 121.589601
  },
  {
    "title": "整租·园丁楼 2室1厅 南",
    "community": "园丁楼",
    "area": "78.51",
    "rooms": "2室1厅",
    "direction": "南",
    "floor": "",
    "price": "5800",
    "tags": "",
    "source": "",
    "url": "https://sh.lianjia.com/zufang/SH2081281759370018816.html",
    "rent_type": "整租",
    "location": "浦东-金杨-园丁楼",
    "scraped_at": "2026-04-23 00:34:28",
    "region": "jinyang",
    "unit_price": 73.9,
    "lat": 31.24619,
    "lng": 121.573503
  },
  {
    "title": "整租·寺前浜 1室1厅 南",
    "community": "寺前浜",
    "area": "42.00",
    "rooms": "1室1厅",
    "direction": "南",
    "floor": "",
    "price": "4600",
    "tags": "",
    "source": "",
    "url": "https://sh.lianjia.com/zufang/SH2146271072943603712.html",
    "rent_type": "整租",
    "location": "浦东-金杨-寺前浜",
    "scraped_at": "2026-04-23 00:34:15",
    "region": "jinyang",
    "unit_price": 109.5,
    "lat": 31.251423,
    "lng": 121.582595
  },
  {
    "title": "整租·和景商务楼 1室0厅 南",
    "community": "和景商务楼",
    "area": "33.40",
    "rooms": "1室0厅",
    "direction": "南",
    "floor": "",
    "price": "3000",
    "tags": "",
    "source": "",
    "url": "https://sh.lianjia.com/zufang/SH2009216161270464512.html",
    "rent_type": "整租",
    "location": "浦东-金杨-和景商务楼",
    "scraped_at": "2026-04-23 00:34:15",
    "region": "jinyang",
    "unit_price": 89.8,
    "lat": 31.244653,
    "lng": 121.572425
  },
  {
    "title": "整租·罗山三村 1室1厅 南",
    "community": "罗山三村",
    "area": "49.40",
    "rooms": "1室1厅",
    "direction": "南",
    "floor": "",
    "price": "4000",
    "tags": "",
    "source": "",
    "url": "https://sh.lianjia.com/zufang/SH2088852442664927232.html",
    "rent_type": "整租",
    "location": "浦东-金杨-罗山三村",
    "scraped_at": "2026-04-23 00:34:28",
    "region": "jinyang",
    "unit_price": 81.0,
    "lat": 31.251572,
    "lng": 121.561479
  },
  {
    "title": "整租·罗山一村 1室1厅 南",
    "community": "罗山一村",
    "area": "44.18",
    "rooms": "1室1厅",
    "direction": "南",
    "floor": "",
    "price": "4000",
    "tags": "",
    "source": "",
    "url": "https://sh.lianjia.com/zufang/SH2143257139584434176.html",
    "rent_type": "整租",
    "location": "浦东-金杨-罗山一村",
    "scraped_at": "2026-04-23 00:34:15",
    "region": "jinyang",
    "unit_price": 90.5,
    "lat": 31.254478,
    "lng": 121.5585
  },
  {
    "title": "整租·金杨新村五街坊 1室1厅 南",
    "community": "金杨新村五街坊",
    "area": "49.00",
    "rooms": "1室1厅",
    "direction": "南",
    "floor": "",
    "price": "4700",
    "tags": "",
    "source": "",
    "url": "https://sh.lianjia.com/zufang/SH2154540682394468352.html",
    "rent_type": "整租",
    "location": "浦东-金杨-金杨新村五街坊",
    "scraped_at": "2026-04-23 00:34:15",
    "region": "jinyang",
    "unit_price": 95.9,
    "lat": 31.245347,
    "lng": 121.577269
  },
  {
    "title": "整租·金台三居 2室1厅 南",
    "community": "金台三居",
    "area": "60.00",
    "rooms": "2室1厅",
    "direction": "南",
    "floor": "",
    "price": "4600",
    "tags": "",
    "source": "",
    "url": "https://sh.lianjia.com/zufang/SH2155944970328997888.html",
    "rent_type": "整租",
    "location": "浦东-金杨-金台三居",
    "scraped_at": "2026-04-23 00:34:15",
    "region": "jinyang",
    "unit_price": 76.7,
    "lat": 31.250209,
    "lng": 121.589601
  },
  {
    "title": "整租·寺前浜 2室1厅 南",
    "community": "寺前浜",
    "area": "53.00",
    "rooms": "2室1厅",
    "direction": "南",
    "floor": "",
    "price": "4100",
    "tags": "",
    "source": "",
    "url": "https://sh.lianjia.com/zufang/SH2156790660638703616.html",
    "rent_type": "整租",
    "location": "浦东-金杨-寺前浜",
    "scraped_at": "2026-04-23 00:34:15",
    "region": "jinyang",
    "unit_price": 77.4,
    "lat": 31.251423,
    "lng": 121.582595
  },
  {
    "title": "整租·金杨新村五街坊 2室1厅 南",
    "community": "金杨新村五街坊",
    "area": "59.43",
    "rooms": "2室1厅",
    "direction": "南",
    "floor": "",
    "price": "5300",
    "tags": "",
    "source": "",
    "url": "https://sh.lianjia.com/zufang/SH2149379371956174848.html",
    "rent_type": "整租",
    "location": "浦东-金杨-金杨新村五街坊",
    "scraped_at": "2026-04-23 00:34:15",
    "region": "jinyang",
    "unit_price": 89.2,
    "lat": 31.245347,
    "lng": 121.577269
  },
  {
    "title": "整租·黄山始信苑 2室2厅 南",
    "community": "黄山始信苑",
    "area": "68.26",
    "rooms": "2室2厅",
    "direction": "南",
    "floor": "",
    "price": "5200",
    "tags": "",
    "source": "",
    "url": "https://sh.lianjia.com/zufang/SH2140473029728141312.html",
    "rent_type": "整租",
    "location": "浦东-金杨-黄山始信苑",
    "scraped_at": "2026-04-23 00:34:15",
    "region": "jinyang",
    "unit_price": 76.2,
    "lat": 31.256111,
    "lng": 121.570352
  },
  {
    "title": "整租·金台三居 2室1厅 南",
    "community": "金台三居",
    "area": "53.68",
    "rooms": "2室1厅",
    "direction": "南",
    "floor": "",
    "price": "5100",
    "tags": "",
    "source": "",
    "url": "https://sh.lianjia.com/zufang/SH2149351641629851648.html",
    "rent_type": "整租",
    "location": "浦东-金杨-金台三居",
    "scraped_at": "2026-04-23 00:34:15",
    "region": "jinyang",
    "unit_price": 95.0,
    "lat": 31.250209,
    "lng": 121.589601
  },
  {
    "title": "整租·枣庄路118弄 2室1厅 南",
    "community": "枣庄路118弄",
    "area": "70.10",
    "rooms": "2室1厅",
    "direction": "南",
    "floor": "",
    "price": "5900",
    "tags": "",
    "source": "",
    "url": "https://sh.lianjia.com/zufang/SH2071226041761792000.html",
    "rent_type": "整租",
    "location": "浦东-金杨-枣庄路",
    "scraped_at": "2026-04-23 00:34:28",
    "region": "jinyang",
    "unit_price": 84.2,
    "lat": 31.258739,
    "lng": 121.5707
  },
  {
    "title": "整租·金茂花园 2室2厅 西北",
    "community": "金茂花园",
    "area": "100.42",
    "rooms": "2室2厅",
    "direction": "西北",
    "floor": "",
    "price": "6200",
    "tags": "",
    "source": "",
    "url": "https://sh.lianjia.com/zufang/SH2144321899096702976.html",
    "rent_type": "整租",
    "location": "浦东-金杨-金茂花园",
    "scraped_at": "2026-04-23 00:34:28",
    "region": "jinyang",
    "unit_price": 61.7,
    "lat": 31.259159,
    "lng": 121.560641
  },
  {
    "title": "整租·金杨新村五街坊 1室1厅 南",
    "community": "金杨新村五街坊",
    "area": "46.45",
    "rooms": "1室1厅",
    "direction": "南",
    "floor": "",
    "price": "4300",
    "tags": "",
    "source": "",
    "url": "https://sh.lianjia.com/zufang/SH2154437611861573632.html",
    "rent_type": "整租",
    "location": "浦东-金杨-金杨新村五街坊",
    "scraped_at": "2026-04-23 00:34:15",
    "region": "jinyang",
    "unit_price": 92.6,
    "lat": 31.245347,
    "lng": 121.577269
  },
  {
    "title": "整租·金杨新村四街坊 1室1厅 南",
    "community": "金杨新村四街坊",
    "area": "44.48",
    "rooms": "1室1厅",
    "direction": "南",
    "floor": "",
    "price": "4400",
    "tags": "",
    "source": "",
    "url": "https://sh.lianjia.com/zufang/SH2148045231776333824.html",
    "rent_type": "整租",
    "location": "浦东-金杨-金杨新村四街坊",
    "scraped_at": "2026-04-23 00:34:28",
    "region": "jinyang",
    "unit_price": 98.9,
    "lat": null,
    "lng": null
  },
  {
    "title": "整租·浦东大道2511弄 1室1厅 南",
    "community": "浦东大道2511弄",
    "area": "45.29",
    "rooms": "1室1厅",
    "direction": "南",
    "floor": "",
    "price": "3600",
    "tags": "",
    "source": "",
    "url": "https://sh.lianjia.com/zufang/SH2144362344350744576.html",
    "rent_type": "整租",
    "location": "浦东-金杨-浦东大道",
    "scraped_at": "2026-04-23 00:34:15",
    "region": "jinyang",
    "unit_price": 79.5,
    "lat": 31.259509,
    "lng": 121.559287
  },
  {
    "title": "整租·金杨二街坊 1室1厅 南",
    "community": "金杨二街坊",
    "area": "44.00",
    "rooms": "1室1厅",
    "direction": "南",
    "floor": "",
    "price": "4800",
    "tags": "",
    "source": "",
    "url": "https://sh.lianjia.com/zufang/SH2155570783819137024.html",
    "rent_type": "整租",
    "location": "浦东-金杨-金杨二街坊",
    "scraped_at": "2026-04-23 00:34:15",
    "region": "jinyang",
    "unit_price": 109.1,
    "lat": 31.250478,
    "lng": 121.575147
  },
  {
    "title": "整租·金杨新村三街坊 2室1厅 南",
    "community": "金杨新村三街坊",
    "area": "60.75",
    "rooms": "2室1厅",
    "direction": "南",
    "floor": "",
    "price": "5600",
    "tags": "",
    "source": "",
    "url": "https://sh.lianjia.com/zufang/SH2154974255589097472.html",
    "rent_type": "整租",
    "location": "浦东-金杨-金杨新村三街坊",
    "scraped_at": "2026-04-23 00:34:15",
    "region": "jinyang",
    "unit_price": 92.2,
    "lat": 31.250356,
    "lng": 121.578003
  },
  {
    "title": "整租·罗山七村 2室1厅 东南",
    "community": "罗山七村",
    "area": "66.90",
    "rooms": "2室1厅",
    "direction": "东南",
    "floor": "",
    "price": "5500",
    "tags": "",
    "source": "",
    "url": "https://sh.lianjia.com/zufang/SH2150102012400762880.html",
    "rent_type": "整租",
    "location": "浦东-金杨-罗山七村",
    "scraped_at": "2026-04-23 00:34:15",
    "region": "jinyang",
    "unit_price": 82.2,
    "lat": 31.252182,
    "lng": 121.564362
  },
  {
    "title": "整租·金杨新村四街坊 1室1厅 南",
    "community": "金杨新村四街坊",
    "area": "44.00",
    "rooms": "1室1厅",
    "direction": "南",
    "floor": "",
    "price": "4200",
    "tags": "",
    "source": "",
    "url": "https://sh.lianjia.com/zufang/SH2150819468530417664.html",
    "rent_type": "整租",
    "location": "浦东-金杨-金杨新村四街坊",
    "scraped_at": "2026-04-23 00:34:15",
    "region": "jinyang",
    "unit_price": 95.5,
    "lat": null,
    "lng": null
  },
  {
    "title": "整租·金杨新村十街坊 2室1厅 南",
    "community": "金杨新村十街坊",
    "area": "72.84",
    "rooms": "2室1厅",
    "direction": "南",
    "floor": "",
    "price": "6200",
    "tags": "",
    "source": "",
    "url": "https://sh.lianjia.com/zufang/SH2148387334427508736.html",
    "rent_type": "整租",
    "location": "浦东-金杨-金杨新村十街坊",
    "scraped_at": "2026-04-23 00:34:28",
    "region": "jinyang",
    "unit_price": 85.1,
    "lat": 31.249012,
    "lng": 121.584186
  },
  {
    "title": "整租·罗山四村 3室1厅 南",
    "community": "罗山四村",
    "area": "87.57",
    "rooms": "3室1厅",
    "direction": "南",
    "floor": "",
    "price": "6800",
    "tags": "",
    "source": "",
    "url": "https://sh.lianjia.com/zufang/SH2151964395729584128.html",
    "rent_type": "整租",
    "location": "浦东-金杨-罗山四村",
    "scraped_at": "2026-04-23 00:34:15",
    "region": "jinyang",
    "unit_price": 77.7,
    "lat": 31.249921,
    "lng": 121.559595
  },
  {
    "title": "整租·居家桥路520弄 2室1厅 南",
    "community": "居家桥路520弄",
    "area": "61.07",
    "rooms": "2室1厅",
    "direction": "南",
    "floor": "",
    "price": "5300",
    "tags": "",
    "source": "",
    "url": "https://sh.lianjia.com/zufang/SH2152682987584487424.html",
    "rent_type": "整租",
    "location": "浦东-金杨-居家桥路",
    "scraped_at": "2026-04-23 00:34:15",
    "region": "jinyang",
    "unit_price": 86.8,
    "lat": 31.254315,
    "lng": 121.564145
  },
  {
    "title": "整租·金台三居 1室2厅 南",
    "community": "金台三居",
    "area": "61.00",
    "rooms": "1室2厅",
    "direction": "南",
    "floor": "",
    "price": "4800",
    "tags": "",
    "source": "",
    "url": "https://sh.lianjia.com/zufang/SH2052984015161393152.html",
    "rent_type": "整租",
    "location": "浦东-金杨-金台三居",
    "scraped_at": "2026-04-23 00:34:24",
    "region": "jinyang",
    "unit_price": 78.7,
    "lat": 31.250209,
    "lng": 121.589601
  },
  {
    "title": "整租·金桥路226弄 2室1厅 南",
    "community": "金桥路226弄",
    "area": "76.04",
    "rooms": "2室1厅",
    "direction": "南",
    "floor": "",
    "price": "4500",
    "tags": "",
    "source": "",
    "url": "https://sh.lianjia.com/zufang/SH2150585500027584512.html",
    "rent_type": "整租",
    "location": "浦东-金杨-金桥路",
    "scraped_at": "2026-04-23 00:34:18",
    "region": "jinyang",
    "unit_price": 59.2,
    "lat": 31.266285,
    "lng": 121.569169
  },
  {
    "title": "整租·金杨新村十街坊 2室1厅 南",
    "community": "金杨新村十街坊",
    "area": "52.00",
    "rooms": "2室1厅",
    "direction": "南",
    "floor": "",
    "price": "4500",
    "tags": "",
    "source": "",
    "url": "https://sh.lianjia.com/zufang/SH2145084086962618368.html",
    "rent_type": "整租",
    "location": "浦东-金杨-金杨新村十街坊",
    "scraped_at": "2026-04-23 00:34:18",
    "region": "jinyang",
    "unit_price": 86.5,
    "lat": 31.249012,
    "lng": 121.584186
  },
  {
    "title": "整租·金杨新村三街坊 1室1厅 东南/南",
    "community": "金杨新村三街坊",
    "area": "44.67",
    "rooms": "1室1厅",
    "direction": "东南/南",
    "floor": "",
    "price": "4300",
    "tags": "",
    "source": "",
    "url": "https://sh.lianjia.com/zufang/SH2148767190667493376.html",
    "rent_type": "整租",
    "location": "浦东-金杨-金杨新村三街坊",
    "scraped_at": "2026-04-23 00:34:18",
    "region": "jinyang",
    "unit_price": 96.3,
    "lat": 31.250356,
    "lng": 121.578003
  },
  {
    "title": "整租·金杨新村五街坊 1室1厅 南",
    "community": "金杨新村五街坊",
    "area": "46.57",
    "rooms": "1室1厅",
    "direction": "南",
    "floor": "",
    "price": "3500",
    "tags": "",
    "source": "",
    "url": "https://sh.lianjia.com/zufang/SH2137946443237818368.html",
    "rent_type": "整租",
    "location": "浦东-金杨-金杨新村五街坊",
    "scraped_at": "2026-04-23 00:34:18",
    "region": "jinyang",
    "unit_price": 75.2,
    "lat": 31.245347,
    "lng": 121.577269
  },
  {
    "title": "整租·金杨新村八街坊 2室1厅 南",
    "community": "金杨新村八街坊",
    "area": "82.06",
    "rooms": "2室1厅",
    "direction": "南",
    "floor": "",
    "price": "6000",
    "tags": "",
    "source": "",
    "url": "https://sh.lianjia.com/zufang/SH2122272074213883904.html",
    "rent_type": "整租",
    "location": "浦东-金杨-金杨新村八街坊",
    "scraped_at": "2026-04-23 00:34:18",
    "region": "jinyang",
    "unit_price": 73.1,
    "lat": 31.245332,
    "lng": 121.584403
  },
  {
    "title": "整租·香山新村西北街坊 2室1厅 南",
    "community": "香山新村西北街坊",
    "area": "80.00",
    "rooms": "2室1厅",
    "direction": "南",
    "floor": "",
    "price": "7500",
    "tags": "",
    "source": "",
    "url": "https://sh.lianjia.com/zufang/SH2154873467629993984.html",
    "rent_type": "整租",
    "location": "浦东-金杨-香山新村西北街坊",
    "scraped_at": "2026-04-23 00:34:18",
    "region": "jinyang",
    "unit_price": 93.8,
    "lat": 31.240895,
    "lng": 121.566633
  },
  {
    "title": "整租·金杨新村十街坊 2室1厅 南",
    "community": "金杨新村十街坊",
    "area": "49.69",
    "rooms": "2室1厅",
    "direction": "南",
    "floor": "",
    "price": "4700",
    "tags": "",
    "source": "",
    "url": "https://sh.lianjia.com/zufang/SH2033497440333594624.html",
    "rent_type": "整租",
    "location": "浦东-金杨-金杨新村十街坊",
    "scraped_at": "2026-04-23 00:34:28",
    "region": "jinyang",
    "unit_price": 94.6,
    "lat": 31.249012,
    "lng": 121.584186
  },
  {
    "title": "整租·罗山四村 2室1厅 南",
    "community": "罗山四村",
    "area": "71.00",
    "rooms": "2室1厅",
    "direction": "南",
    "floor": "",
    "price": "5100",
    "tags": "",
    "source": "",
    "url": "https://sh.lianjia.com/zufang/SH2153462810133135360.html",
    "rent_type": "整租",
    "location": "浦东-金杨-罗山四村",
    "scraped_at": "2026-04-23 00:34:24",
    "region": "jinyang",
    "unit_price": 71.8,
    "lat": 31.249921,
    "lng": 121.559595
  },
  {
    "title": "整租·金杨六街坊 2室1厅 南",
    "community": "金杨六街坊",
    "area": "52.81",
    "rooms": "2室1厅",
    "direction": "南",
    "floor": "",
    "price": "5200",
    "tags": "",
    "source": "",
    "url": "https://sh.lianjia.com/zufang/SH2155522554557628416.html",
    "rent_type": "整租",
    "location": "浦东-金杨-金杨六街坊",
    "scraped_at": "2026-04-23 00:34:18",
    "region": "jinyang",
    "unit_price": 98.5,
    "lat": 31.208146,
    "lng": 121.554839
  },
  {
    "title": "整租·金杨新村十街坊 2室1厅 南",
    "community": "金杨新村十街坊",
    "area": "50.00",
    "rooms": "2室1厅",
    "direction": "南",
    "floor": "",
    "price": "5500",
    "tags": "",
    "source": "",
    "url": "https://sh.lianjia.com/zufang/SH2141796405398732800.html",
    "rent_type": "整租",
    "location": "浦东-金杨-金杨新村十街坊",
    "scraped_at": "2026-04-23 00:34:18",
    "region": "jinyang",
    "unit_price": 110.0,
    "lat": 31.249012,
    "lng": 121.584186
  },
  {
    "title": "整租·锦绣河山 2室1厅 南",
    "community": "锦绣河山",
    "area": "75.92",
    "rooms": "2室1厅",
    "direction": "南",
    "floor": "",
    "price": "6500",
    "tags": "",
    "source": "",
    "url": "https://sh.lianjia.com/zufang/SH2122332182327328768.html",
    "rent_type": "整租",
    "location": "浦东-金杨-锦绣河山",
    "scraped_at": "2026-04-23 00:34:18",
    "region": "jinyang",
    "unit_price": 85.6,
    "lat": 31.24585,
    "lng": 121.559685
  },
  {
    "title": "整租·金桥瑞仕花园 5室2厅 复式 南",
    "community": "金桥瑞仕花园",
    "area": "387.67",
    "rooms": "5室2厅",
    "direction": "",
    "floor": "",
    "price": "35000",
    "tags": "",
    "source": "",
    "url": "https://sh.lianjia.com/zufang/SH2124504769639743488.html",
    "rent_type": "整租",
    "location": "浦东-金杨-金桥瑞仕花园",
    "scraped_at": "2026-04-23 00:34:18",
    "region": "jinyang",
    "unit_price": 90.3,
    "lat": 31.25567,
    "lng": 121.57672
  },
  {
    "title": "整租·罗山一村 2室1厅 南",
    "community": "罗山一村",
    "area": "60.00",
    "rooms": "2室1厅",
    "direction": "南",
    "floor": "",
    "price": "5500",
    "tags": "",
    "source": "",
    "url": "https://sh.lianjia.com/zufang/SH2131236991306563584.html",
    "rent_type": "整租",
    "location": "浦东-金杨-罗山一村",
    "scraped_at": "2026-04-23 00:34:18",
    "region": "jinyang",
    "unit_price": 91.7,
    "lat": 31.254478,
    "lng": 121.5585
  },
  {
    "title": "整租·金茂花园 3室1厅 南/北",
    "community": "金茂花园",
    "area": "155.86",
    "rooms": "3室1厅",
    "direction": "南/北",
    "floor": "",
    "price": "6200",
    "tags": "",
    "source": "",
    "url": "https://sh.lianjia.com/zufang/SH2104152063272288256.html",
    "rent_type": "整租",
    "location": "浦东-金杨-金茂花园",
    "scraped_at": "2026-04-23 00:34:18",
    "region": "jinyang",
    "unit_price": 39.8,
    "lat": 31.259159,
    "lng": 121.560641
  },
  {
    "title": "整租·金杨新村四街坊 1室1厅 南",
    "community": "金杨新村四街坊",
    "area": "40.81",
    "rooms": "1室1厅",
    "direction": "南",
    "floor": "",
    "price": "4500",
    "tags": "",
    "source": "",
    "url": "https://sh.lianjia.com/zufang/SH2106722637060243456.html",
    "rent_type": "整租",
    "location": "浦东-金杨-金杨新村四街坊",
    "scraped_at": "2026-04-23 00:34:18",
    "region": "jinyang",
    "unit_price": 110.3,
    "lat": null,
    "lng": null
  },
  {
    "title": "整租·金杨新村九街坊 3室2厅 南",
    "community": "金杨新村九街坊",
    "area": "84.00",
    "rooms": "3室2厅",
    "direction": "南",
    "floor": "",
    "price": "7500",
    "tags": "",
    "source": "",
    "url": "https://sh.lianjia.com/zufang/SH2157119620597678080.html",
    "rent_type": "整租",
    "location": "浦东-金杨-金杨新村九街坊",
    "scraped_at": "2026-04-23 00:34:18",
    "region": "jinyang",
    "unit_price": 89.3,
    "lat": 31.254237,
    "lng": 121.582661
  },
  {
    "title": "整租·金台三居 2室1厅 南",
    "community": "金台三居",
    "area": "70.99",
    "rooms": "2室1厅",
    "direction": "南",
    "floor": "",
    "price": "5600",
    "tags": "",
    "source": "",
    "url": "https://sh.lianjia.com/zufang/SH2147207759878160384.html",
    "rent_type": "整租",
    "location": "浦东-金杨-金台三居",
    "scraped_at": "2026-04-23 00:34:28",
    "region": "jinyang",
    "unit_price": 78.9,
    "lat": 31.250209,
    "lng": 121.589601
  },
  {
    "title": "整租·弘扬雅苑 3室1厅 南",
    "community": "弘扬雅苑",
    "area": "106.83",
    "rooms": "3室1厅",
    "direction": "南",
    "floor": "",
    "price": "8200",
    "tags": "",
    "source": "",
    "url": "https://sh.lianjia.com/zufang/SH2147999766431137792.html",
    "rent_type": "整租",
    "location": "浦东-金杨-弘扬雅苑",
    "scraped_at": "2026-04-23 00:34:28",
    "region": "jinyang",
    "unit_price": 76.8,
    "lat": 31.260362,
    "lng": 121.573268
  },
  {
    "title": "整租·金芙苑 2室1厅 南",
    "community": "金芙苑",
    "area": "86.86",
    "rooms": "2室1厅",
    "direction": "南",
    "floor": "",
    "price": "5800",
    "tags": "",
    "source": "",
    "url": "https://sh.lianjia.com/zufang/SH2151545320369029120.html",
    "rent_type": "整租",
    "location": "浦东-金杨-金芙苑",
    "scraped_at": "2026-04-23 00:34:18",
    "region": "jinyang",
    "unit_price": 66.8,
    "lat": 31.250995,
    "lng": 121.580471
  },
  {
    "title": "整租·黄山二村 2室1厅 南",
    "community": "黄山二村",
    "area": "74.39",
    "rooms": "2室1厅",
    "direction": "南",
    "floor": "",
    "price": "5200",
    "tags": "",
    "source": "",
    "url": "https://sh.lianjia.com/zufang/SH2152283668473708544.html",
    "rent_type": "整租",
    "location": "浦东-金杨-黄山二村",
    "scraped_at": "2026-04-23 00:34:18",
    "region": "jinyang",
    "unit_price": 69.9,
    "lat": 31.253504,
    "lng": 121.567871
  },
  {
    "title": "整租·金桥瑞仕花园 3室2厅 南",
    "community": "金桥瑞仕花园",
    "area": "116.22",
    "rooms": "3室2厅",
    "direction": "南",
    "floor": "",
    "price": "22000",
    "tags": "",
    "source": "",
    "url": "https://sh.lianjia.com/zufang/SH2152404876867403776.html",
    "rent_type": "整租",
    "location": "浦东-金杨-金桥瑞仕花园",
    "scraped_at": "2026-04-23 00:34:18",
    "region": "jinyang",
    "unit_price": 189.3,
    "lat": 31.25567,
    "lng": 121.57672
  },
  {
    "title": "整租·金桥瑞仕花园 4室2厅 南",
    "community": "金桥瑞仕花园",
    "area": "179.01",
    "rooms": "4室2厅",
    "direction": "南",
    "floor": "",
    "price": "23000",
    "tags": "",
    "source": "",
    "url": "https://sh.lianjia.com/zufang/SH2151184230661488640.html",
    "rent_type": "整租",
    "location": "浦东-金杨-金桥瑞仕花园",
    "scraped_at": "2026-04-23 00:34:18",
    "region": "jinyang",
    "unit_price": 128.5,
    "lat": 31.25567,
    "lng": 121.57672
  },
  {
    "title": "整租·金杨新村三街坊 1室1厅 南/北",
    "community": "金杨新村三街坊",
    "area": "43.00",
    "rooms": "1室1厅",
    "direction": "南/北",
    "floor": "",
    "price": "4300",
    "tags": "",
    "source": "",
    "url": "https://sh.lianjia.com/zufang/SH2152651512856182784.html",
    "rent_type": "整租",
    "location": "浦东-金杨-金杨新村三街坊",
    "scraped_at": "2026-04-23 00:34:18",
    "region": "jinyang",
    "unit_price": 100.0,
    "lat": 31.250356,
    "lng": 121.578003
  },
  {
    "title": "整租·银山小区 1室1厅 南",
    "community": "银山小区",
    "area": "50.18",
    "rooms": "1室1厅",
    "direction": "南",
    "floor": "",
    "price": "4200",
    "tags": "",
    "source": "",
    "url": "https://sh.lianjia.com/zufang/SH2153437159636336640.html",
    "rent_type": "整租",
    "location": "浦东-金杨-银山小区",
    "scraped_at": "2026-04-23 00:34:28",
    "region": "jinyang",
    "unit_price": 83.7,
    "lat": 31.243381,
    "lng": 121.580666
  },
  {
    "title": "整租·锦绣河山 1室1厅 南",
    "community": "锦绣河山",
    "area": "58.00",
    "rooms": "1室1厅",
    "direction": "南",
    "floor": "",
    "price": "4800",
    "tags": "",
    "source": "",
    "url": "https://sh.lianjia.com/zufang/SH2144356493003063296.html",
    "rent_type": "整租",
    "location": "浦东-金杨-锦绣河山",
    "scraped_at": "2026-04-23 00:34:28",
    "region": "jinyang",
    "unit_price": 82.8,
    "lat": 31.24585,
    "lng": 121.559685
  },
  {
    "title": "整租·金杨新村五街坊 1室1厅 南",
    "community": "金杨新村五街坊",
    "area": "49.00",
    "rooms": "1室1厅",
    "direction": "南",
    "floor": "",
    "price": "5000",
    "tags": "",
    "source": "",
    "url": "https://sh.lianjia.com/zufang/SH2154432406566731776.html",
    "rent_type": "整租",
    "location": "浦东-金杨-金杨新村五街坊",
    "scraped_at": "2026-04-23 00:34:18",
    "region": "jinyang",
    "unit_price": 102.0,
    "lat": 31.245347,
    "lng": 121.577269
  },
  {
    "title": "整租·金杨六街坊 1室1厅 南",
    "community": "金杨六街坊",
    "area": "42.00",
    "rooms": "1室1厅",
    "direction": "南",
    "floor": "",
    "price": "5200",
    "tags": "",
    "source": "",
    "url": "https://sh.lianjia.com/zufang/SH2155160117413150720.html",
    "rent_type": "整租",
    "location": "浦东-金杨-金杨六街坊",
    "scraped_at": "2026-04-23 00:34:18",
    "region": "jinyang",
    "unit_price": 123.8,
    "lat": 31.208146,
    "lng": 121.554839
  },
  {
    "title": "整租·金杨新村五街坊 1室1厅 南",
    "community": "金杨新村五街坊",
    "area": "49.00",
    "rooms": "1室1厅",
    "direction": "南",
    "floor": "",
    "price": "4500",
    "tags": "",
    "source": "",
    "url": "https://sh.lianjia.com/zufang/SH2155522606663467008.html",
    "rent_type": "整租",
    "location": "浦东-金杨-金杨新村五街坊",
    "scraped_at": "2026-04-23 00:34:18",
    "region": "jinyang",
    "unit_price": 91.8,
    "lat": 31.245347,
    "lng": 121.577269
  },
  {
    "title": "整租·金杨新村十一街坊 3室1厅 南",
    "community": "金杨新村十一街坊",
    "area": "75.00",
    "rooms": "3室1厅",
    "direction": "南",
    "floor": "",
    "price": "5200",
    "tags": "",
    "source": "",
    "url": "https://sh.lianjia.com/zufang/SH2156436112569008128.html",
    "rent_type": "整租",
    "location": "浦东-金杨-金杨新村十一街坊",
    "scraped_at": "2026-04-23 00:34:18",
    "region": "jinyang",
    "unit_price": 69.3,
    "lat": 31.247315,
    "lng": 121.586055
  },
  {
    "title": "整租·黄山二村 1室1厅 南",
    "community": "黄山二村",
    "area": "42.00",
    "rooms": "1室1厅",
    "direction": "南",
    "floor": "",
    "price": "4500",
    "tags": "",
    "source": "",
    "url": "https://sh.lianjia.com/zufang/SH2156443693979009024.html",
    "rent_type": "整租",
    "location": "浦东-金杨-黄山二村",
    "scraped_at": "2026-04-23 00:34:18",
    "region": "jinyang",
    "unit_price": 107.1,
    "lat": 31.253504,
    "lng": 121.567871
  },
  {
    "title": "整租·黄山始信苑 3室2厅 南/北",
    "community": "黄山始信苑",
    "area": "86.00",
    "rooms": "3室2厅",
    "direction": "南/北",
    "floor": "",
    "price": "8500",
    "tags": "",
    "source": "",
    "url": "https://sh.lianjia.com/zufang/SH2151654075198865408.html",
    "rent_type": "整租",
    "location": "浦东-金杨-黄山始信苑",
    "scraped_at": "2026-04-23 00:34:21",
    "region": "jinyang",
    "unit_price": 98.8,
    "lat": 31.256111,
    "lng": 121.570352
  },
  {
    "title": "整租·仙都绿苑 2室1厅 南",
    "community": "仙都绿苑",
    "area": "73.35",
    "rooms": "2室1厅",
    "direction": "南",
    "floor": "",
    "price": "6600",
    "tags": "",
    "source": "",
    "url": "https://sh.lianjia.com/zufang/SH2146825516907233280.html",
    "rent_type": "整租",
    "location": "浦东-金杨-仙都绿苑",
    "scraped_at": "2026-04-23 00:34:21",
    "region": "jinyang",
    "unit_price": 90.0,
    "lat": 31.259111,
    "lng": 121.562857
  },
  {
    "title": "整租·罗山一村 1室1厅 南/北",
    "community": "罗山一村",
    "area": "52.52",
    "rooms": "1室1厅",
    "direction": "南/北",
    "floor": "",
    "price": "4800",
    "tags": "",
    "source": "",
    "url": "https://sh.lianjia.com/zufang/SH2137580117801566208.html",
    "rent_type": "整租",
    "location": "浦东-金杨-罗山一村",
    "scraped_at": "2026-04-23 00:34:21",
    "region": "jinyang",
    "unit_price": 91.4,
    "lat": 31.254478,
    "lng": 121.5585
  },
  {
    "title": "整租·黄山始信苑 2室1厅 南",
    "community": "黄山始信苑",
    "area": "73.33",
    "rooms": "2室1厅",
    "direction": "南",
    "floor": "",
    "price": "5800",
    "tags": "",
    "source": "",
    "url": "https://sh.lianjia.com/zufang/SH2141884205351567360.html",
    "rent_type": "整租",
    "location": "浦东-金杨-黄山始信苑",
    "scraped_at": "2026-04-23 00:34:21",
    "region": "jinyang",
    "unit_price": 79.1,
    "lat": 31.256111,
    "lng": 121.570352
  },
  {
    "title": "整租·金杨新村五街坊 1室1厅 南",
    "community": "金杨新村五街坊",
    "area": "44.36",
    "rooms": "1室1厅",
    "direction": "南",
    "floor": "",
    "price": "3800",
    "tags": "",
    "source": "",
    "url": "https://sh.lianjia.com/zufang/SH2149478744291540992.html",
    "rent_type": "整租",
    "location": "浦东-金杨-金杨新村五街坊",
    "scraped_at": "2026-04-23 00:34:21",
    "region": "jinyang",
    "unit_price": 85.7,
    "lat": 31.245347,
    "lng": 121.577269
  },
  {
    "title": "整租·仙都绿苑 2室1厅 南",
    "community": "仙都绿苑",
    "area": "73.06",
    "rooms": "2室1厅",
    "direction": "南",
    "floor": "",
    "price": "6500",
    "tags": "",
    "source": "",
    "url": "https://sh.lianjia.com/zufang/SH2146083897346097152.html",
    "rent_type": "整租",
    "location": "浦东-金杨-仙都绿苑",
    "scraped_at": "2026-04-23 00:34:21",
    "region": "jinyang",
    "unit_price": 89.0,
    "lat": 31.259111,
    "lng": 121.562857
  },
  {
    "title": "整租·金樟花苑 2室1厅 南",
    "community": "金樟花苑",
    "area": "67.56",
    "rooms": "2室1厅",
    "direction": "南",
    "floor": "",
    "price": "4869",
    "tags": "",
    "source": "",
    "url": "https://sh.lianjia.com/zufang/SH2069374722906259456.html",
    "rent_type": "整租",
    "location": "浦东-金杨-金樟花苑",
    "scraped_at": "2026-04-23 00:34:21",
    "region": "jinyang",
    "unit_price": 72.1,
    "lat": 31.258611,
    "lng": 121.565013
  },
  {
    "title": "整租·栖山家园 4室2厅 南",
    "community": "栖山家园",
    "area": "120.16",
    "rooms": "4室2厅",
    "direction": "南",
    "floor": "",
    "price": "10000",
    "tags": "",
    "source": "",
    "url": "https://sh.lianjia.com/zufang/SH2157768887658086400.html",
    "rent_type": "整租",
    "location": "浦东-金杨-栖山家园",
    "scraped_at": "2026-04-23 00:34:21",
    "region": "jinyang",
    "unit_price": 83.2,
    "lat": 31.256003,
    "lng": 121.565451
  },
  {
    "title": "整租·金浜小区 2室1厅 南",
    "community": "金浜小区",
    "area": "70.00",
    "rooms": "2室1厅",
    "direction": "南",
    "floor": "",
    "price": "6000",
    "tags": "",
    "source": "",
    "url": "https://sh.lianjia.com/zufang/SH2153464454413549568.html",
    "rent_type": "整租",
    "location": "浦东-金杨-金浜小区",
    "scraped_at": "2026-04-23 00:34:24",
    "region": "jinyang",
    "unit_price": 85.7,
    "lat": 31.257774,
    "lng": 121.565268
  },
  {
    "title": "整租·银山路185弄 2室1厅 南",
    "community": "银山路185弄",
    "area": "52.00",
    "rooms": "2室1厅",
    "direction": "南",
    "floor": "",
    "price": "4300",
    "tags": "",
    "source": "",
    "url": "https://sh.lianjia.com/zufang/SH1854722114569895936.html",
    "rent_type": "整租",
    "location": "浦东-金杨-银山路",
    "scraped_at": "2026-04-23 00:34:24",
    "region": "jinyang",
    "unit_price": 82.7,
    "lat": 31.244363,
    "lng": 121.580661
  },
  {
    "title": "整租·金杨新村三街坊 2室1厅 南",
    "community": "金杨新村三街坊",
    "area": "58.83",
    "rooms": "2室1厅",
    "direction": "南",
    "floor": "",
    "price": "4800",
    "tags": "",
    "source": "",
    "url": "https://sh.lianjia.com/zufang/SH2151988178959990784.html",
    "rent_type": "整租",
    "location": "浦东-金杨-金杨新村三街坊",
    "scraped_at": "2026-04-23 00:34:24",
    "region": "jinyang",
    "unit_price": 81.6,
    "lat": 31.250356,
    "lng": 121.578003
  },
  {
    "title": "整租·金台三居 2室1厅 南/北",
    "community": "金台三居",
    "area": "66.30",
    "rooms": "2室1厅",
    "direction": "南/北",
    "floor": "",
    "price": "5500",
    "tags": "",
    "source": "",
    "url": "https://sh.lianjia.com/zufang/SH2154050473357737984.html",
    "rent_type": "整租",
    "location": "浦东-金杨-金台三居",
    "scraped_at": "2026-04-23 00:34:21",
    "region": "jinyang",
    "unit_price": 83.0,
    "lat": 31.250209,
    "lng": 121.589601
  },
  {
    "title": "整租·金杨新村五街坊 2室1厅 南",
    "community": "金杨新村五街坊",
    "area": "64.00",
    "rooms": "2室1厅",
    "direction": "南",
    "floor": "",
    "price": "5200",
    "tags": "",
    "source": "",
    "url": "https://sh.lianjia.com/zufang/SH2154859851455397888.html",
    "rent_type": "整租",
    "location": "浦东-金杨-金杨新村五街坊",
    "scraped_at": "2026-04-23 00:34:21",
    "region": "jinyang",
    "unit_price": 81.2,
    "lat": 31.245347,
    "lng": 121.577269
  },
  {
    "title": "整租·金杨新村十街坊 2室1厅 南",
    "community": "金杨新村十街坊",
    "area": "55.42",
    "rooms": "2室1厅",
    "direction": "南",
    "floor": "",
    "price": "4800",
    "tags": "",
    "source": "",
    "url": "https://sh.lianjia.com/zufang/SH2068986908003794944.html",
    "rent_type": "整租",
    "location": "浦东-金杨-金杨新村十街坊",
    "scraped_at": "2026-04-23 00:34:21",
    "region": "jinyang",
    "unit_price": 86.6,
    "lat": 31.249012,
    "lng": 121.584186
  },
  {
    "title": "整租·香山新村西南街坊 2室1厅 南",
    "community": "香山新村西南街坊",
    "area": "48.00",
    "rooms": "2室1厅",
    "direction": "南",
    "floor": "",
    "price": "4800",
    "tags": "",
    "source": "",
    "url": "https://sh.lianjia.com/zufang/SH2155904065140162560.html",
    "rent_type": "整租",
    "location": "浦东-金杨-香山新村西南街坊",
    "scraped_at": "2026-04-23 00:34:21",
    "region": "jinyang",
    "unit_price": 100.0,
    "lat": 31.238872,
    "lng": 121.568809
  },
  {
    "title": "整租·仙都绿苑 1室1厅 南",
    "community": "仙都绿苑",
    "area": "45.00",
    "rooms": "1室1厅",
    "direction": "南",
    "floor": "",
    "price": "4200",
    "tags": "",
    "source": "",
    "url": "https://sh.lianjia.com/zufang/SH2144423983678750720.html",
    "rent_type": "整租",
    "location": "浦东-金杨-仙都绿苑",
    "scraped_at": "2026-04-23 00:34:21",
    "region": "jinyang",
    "unit_price": 93.3,
    "lat": 31.259111,
    "lng": 121.562857
  },
  {
    "title": "整租·金杨六街坊 2室1厅 南",
    "community": "金杨六街坊",
    "area": "52.81",
    "rooms": "2室1厅",
    "direction": "南",
    "floor": "",
    "price": "5300",
    "tags": "",
    "source": "",
    "url": "https://sh.lianjia.com/zufang/SH2152410340875304960.html",
    "rent_type": "整租",
    "location": "浦东-金杨-金杨六街坊",
    "scraped_at": "2026-04-23 00:34:21",
    "region": "jinyang",
    "unit_price": 100.4,
    "lat": 31.208146,
    "lng": 121.554839
  },
  {
    "title": "整租·罗山一村 2室1厅 南",
    "community": "罗山一村",
    "area": "63.11",
    "rooms": "2室1厅",
    "direction": "南",
    "floor": "",
    "price": "5600",
    "tags": "",
    "source": "",
    "url": "https://sh.lianjia.com/zufang/SH2152392922048233472.html",
    "rent_type": "整租",
    "location": "浦东-金杨-罗山一村",
    "scraped_at": "2026-04-23 00:34:21",
    "region": "jinyang",
    "unit_price": 88.7,
    "lat": 31.254478,
    "lng": 121.5585
  },
  {
    "title": "整租·艾山新村 2室2厅 南",
    "community": "艾山新村",
    "area": "88.90",
    "rooms": "2室2厅",
    "direction": "南",
    "floor": "",
    "price": "7600",
    "tags": "",
    "source": "",
    "url": "https://sh.lianjia.com/zufang/SH2156671697086840832.html",
    "rent_type": "整租",
    "location": "浦东-金杨-艾山新村",
    "scraped_at": "2026-04-23 00:34:21",
    "region": "jinyang",
    "unit_price": 85.5,
    "lat": 31.243527,
    "lng": 121.564964
  },
  {
    "title": "整租·罗山三村 2室1厅 南",
    "community": "罗山三村",
    "area": "60.07",
    "rooms": "2室1厅",
    "direction": "南",
    "floor": "",
    "price": "5300",
    "tags": "",
    "source": "",
    "url": "https://sh.lianjia.com/zufang/SH2067816666405797888.html",
    "rent_type": "整租",
    "location": "浦东-金杨-罗山三村",
    "scraped_at": "2026-04-23 00:34:21",
    "region": "jinyang",
    "unit_price": 88.2,
    "lat": 31.251572,
    "lng": 121.561479
  },
  {
    "title": "整租·寺前浜 2室1厅 南",
    "community": "寺前浜",
    "area": "52.52",
    "rooms": "2室1厅",
    "direction": "南",
    "floor": "",
    "price": "3700",
    "tags": "",
    "source": "",
    "url": "https://sh.lianjia.com/zufang/SH2092865351619444736.html",
    "rent_type": "整租",
    "location": "浦东-金杨-寺前浜",
    "scraped_at": "2026-04-23 00:34:21",
    "region": "jinyang",
    "unit_price": 70.4,
    "lat": 31.251423,
    "lng": 121.582595
  },
  {
    "title": "整租·金杨新村四街坊 1室1厅 南",
    "community": "金杨新村四街坊",
    "area": "44.48",
    "rooms": "1室1厅",
    "direction": "南",
    "floor": "",
    "price": "3800",
    "tags": "",
    "source": "",
    "url": "https://sh.lianjia.com/zufang/SH2143406066174525440.html",
    "rent_type": "整租",
    "location": "浦东-金杨-金杨新村四街坊",
    "scraped_at": "2026-04-23 00:34:21",
    "region": "jinyang",
    "unit_price": 85.4,
    "lat": null,
    "lng": null
  },
  {
    "title": "整租·金杨二街坊 2室1厅 东南",
    "community": "金杨二街坊",
    "area": "61.62",
    "rooms": "2室1厅",
    "direction": "东南",
    "floor": "",
    "price": "5200",
    "tags": "",
    "source": "",
    "url": "https://sh.lianjia.com/zufang/SH2150499007212814336.html",
    "rent_type": "整租",
    "location": "浦东-金杨-金杨二街坊",
    "scraped_at": "2026-04-23 00:34:21",
    "region": "jinyang",
    "unit_price": 84.4,
    "lat": 31.250478,
    "lng": 121.575147
  },
  {
    "title": "整租·蝶恋园 3室2厅 南",
    "community": "蝶恋园",
    "area": "115.75",
    "rooms": "3室2厅",
    "direction": "南",
    "floor": "",
    "price": "7900",
    "tags": "",
    "source": "",
    "url": "https://sh.lianjia.com/zufang/SH2031963355647836160.html",
    "rent_type": "整租",
    "location": "浦东-金杨-蝶恋园",
    "scraped_at": "2026-04-23 00:34:21",
    "region": "jinyang",
    "unit_price": 68.3,
    "lat": 31.262359,
    "lng": 121.572402
  },
  {
    "title": "整租·黄山一村 1室1厅 南",
    "community": "黄山一村",
    "area": "38.34",
    "rooms": "1室1厅",
    "direction": "南",
    "floor": "",
    "price": "3800",
    "tags": "",
    "source": "",
    "url": "https://sh.lianjia.com/zufang/SH2151916503321018368.html",
    "rent_type": "整租",
    "location": "浦东-金杨-黄山一村",
    "scraped_at": "2026-04-23 00:34:21",
    "region": "jinyang",
    "unit_price": 99.1,
    "lat": 31.251942,
    "lng": 121.569363
  },
  {
    "title": "整租·金杨新村五街坊 2室1厅 南",
    "community": "金杨新村五街坊",
    "area": "60.00",
    "rooms": "2室1厅",
    "direction": "南",
    "floor": "",
    "price": "5400",
    "tags": "",
    "source": "",
    "url": "https://sh.lianjia.com/zufang/SH2157065235784007680.html",
    "rent_type": "整租",
    "location": "浦东-金杨-金杨新村五街坊",
    "scraped_at": "2026-04-23 00:34:21",
    "region": "jinyang",
    "unit_price": 90.0,
    "lat": 31.245347,
    "lng": 121.577269
  },
  {
    "title": "整租·香山新村东南街坊 2室1厅 南",
    "community": "香山新村东南街坊",
    "area": "63.00",
    "rooms": "2室1厅",
    "direction": "南",
    "floor": "",
    "price": "4800",
    "tags": "",
    "source": "",
    "url": "https://sh.lianjia.com/zufang/SH2141553185297268736.html",
    "rent_type": "整租",
    "location": "浦东-金杨-香山新村东南街坊",
    "scraped_at": "2026-04-23 00:34:21",
    "region": "jinyang",
    "unit_price": 76.2,
    "lat": 31.239835,
    "lng": 121.572683
  },
  {
    "title": "整租·寺前浜 1室1厅 南",
    "community": "寺前浜",
    "area": "37.00",
    "rooms": "1室1厅",
    "direction": "南",
    "floor": "",
    "price": "3500",
    "tags": "",
    "source": "",
    "url": "https://sh.lianjia.com/zufang/SH2141837359350546432.html",
    "rent_type": "整租",
    "location": "浦东-金杨-寺前浜",
    "scraped_at": "2026-04-23 00:34:21",
    "region": "jinyang",
    "unit_price": 94.6,
    "lat": 31.251423,
    "lng": 121.582595
  },
  {
    "title": "整租·香山新村东北街坊 1室1厅 南",
    "community": "香山新村东北街坊",
    "area": "46.00",
    "rooms": "1室1厅",
    "direction": "南",
    "floor": "",
    "price": "4500",
    "tags": "",
    "source": "",
    "url": "https://sh.lianjia.com/zufang/SH2147260928272367616.html",
    "rent_type": "整租",
    "location": "浦东-金杨-香山新村东北街坊",
    "scraped_at": "2026-04-23 00:34:21",
    "region": "jinyang",
    "unit_price": 97.8,
    "lat": 31.243138,
    "lng": 121.569851
  },
  {
    "title": "整租·寺前浜 2室0厅 南",
    "community": "寺前浜",
    "area": "38.46",
    "rooms": "2室0厅",
    "direction": "南",
    "floor": "",
    "price": "4200",
    "tags": "",
    "source": "",
    "url": "https://sh.lianjia.com/zufang/SH2155569127408795648.html",
    "rent_type": "整租",
    "location": "浦东-金杨-寺前浜",
    "scraped_at": "2026-04-23 00:34:24",
    "region": "jinyang",
    "unit_price": 109.2,
    "lat": 31.251423,
    "lng": 121.582595
  },
  {
    "title": "整租·金台三居 2室1厅 南",
    "community": "金台三居",
    "area": "64.84",
    "rooms": "2室1厅",
    "direction": "南",
    "floor": "",
    "price": "5200",
    "tags": "",
    "source": "",
    "url": "https://sh.lianjia.com/zufang/SH2151534058155278336.html",
    "rent_type": "整租",
    "location": "浦东-金杨-金台三居",
    "scraped_at": "2026-04-23 00:34:24",
    "region": "jinyang",
    "unit_price": 80.2,
    "lat": 31.250209,
    "lng": 121.589601
  },
  {
    "title": "整租·黄山始信苑 1室1厅 南",
    "community": "黄山始信苑",
    "area": "51.92",
    "rooms": "1室1厅",
    "direction": "南",
    "floor": "",
    "price": "5000",
    "tags": "",
    "source": "",
    "url": "https://sh.lianjia.com/zufang/SH2146626500911169536.html",
    "rent_type": "整租",
    "location": "浦东-金杨-黄山始信苑",
    "scraped_at": "2026-04-23 00:34:24",
    "region": "jinyang",
    "unit_price": 96.3,
    "lat": 31.256111,
    "lng": 121.570352
  },
  {
    "title": "整租·栖山路1861弄 2室1厅 南",
    "community": "栖山路1861弄",
    "area": "62.20",
    "rooms": "2室1厅",
    "direction": "南",
    "floor": "",
    "price": "5000",
    "tags": "",
    "source": "",
    "url": "https://sh.lianjia.com/zufang/SH2124756529918771200.html",
    "rent_type": "整租",
    "location": "浦东-金杨-栖山路",
    "scraped_at": "2026-04-23 00:34:24",
    "region": "jinyang",
    "unit_price": 80.4,
    "lat": 31.26199,
    "lng": 121.57064
  },
  {
    "title": "整租·金杨新村八街坊 2室1厅 西南",
    "community": "金杨新村八街坊",
    "area": "81.81",
    "rooms": "2室1厅",
    "direction": "西南",
    "floor": "",
    "price": "7000",
    "tags": "",
    "source": "",
    "url": "https://sh.lianjia.com/zufang/SH2156224409478627328.html",
    "rent_type": "整租",
    "location": "浦东-金杨-金杨新村八街坊",
    "scraped_at": "2026-04-23 00:34:24",
    "region": "jinyang",
    "unit_price": 85.6,
    "lat": 31.245332,
    "lng": 121.584403
  },
  {
    "title": "整租·金杨六街坊 1室1厅 南",
    "community": "金杨六街坊",
    "area": "41.05",
    "rooms": "1室1厅",
    "direction": "南",
    "floor": "",
    "price": "3700",
    "tags": "",
    "source": "",
    "url": "https://sh.lianjia.com/zufang/SH2153518957129105408.html",
    "rent_type": "整租",
    "location": "浦东-金杨-金杨六街坊",
    "scraped_at": "2026-04-23 00:34:24",
    "region": "jinyang",
    "unit_price": 90.1,
    "lat": 31.208146,
    "lng": 121.554839
  },
  {
    "title": "整租·沪东大楼 1室1厅 南",
    "community": "沪东大楼",
    "area": "52.13",
    "rooms": "1室1厅",
    "direction": "南",
    "floor": "",
    "price": "4900",
    "tags": "",
    "source": "",
    "url": "https://sh.lianjia.com/zufang/SH2146871574785949696.html",
    "rent_type": "整租",
    "location": "浦东-金杨-沪东大楼",
    "scraped_at": "2026-04-23 00:34:24",
    "region": "jinyang",
    "unit_price": 94.0,
    "lat": 31.251998,
    "lng": 121.582994
  },
  {
    "title": "整租·黄山始信苑 2室1厅 南",
    "community": "黄山始信苑",
    "area": "54.90",
    "rooms": "2室1厅",
    "direction": "南",
    "floor": "",
    "price": "4600",
    "tags": "",
    "source": "",
    "url": "https://sh.lianjia.com/zufang/SH2150632374747004928.html",
    "rent_type": "整租",
    "location": "浦东-金杨-黄山始信苑",
    "scraped_at": "2026-04-23 00:34:24",
    "region": "jinyang",
    "unit_price": 83.8,
    "lat": 31.256111,
    "lng": 121.570352
  },
  {
    "title": "整租·天虹苑 3室2厅 南",
    "community": "天虹苑",
    "area": "135.19",
    "rooms": "3室2厅",
    "direction": "南",
    "floor": "",
    "price": "12000",
    "tags": "",
    "source": "",
    "url": "https://sh.lianjia.com/zufang/SH2145402872232148992.html",
    "rent_type": "整租",
    "location": "浦东-金杨-天虹苑",
    "scraped_at": "2026-04-23 00:34:24",
    "region": "jinyang",
    "unit_price": 88.8,
    "lat": 31.24291,
    "lng": 121.566972
  },
  {
    "title": "整租·金杨七街坊 2室1厅 南",
    "community": "金杨七街坊",
    "area": "60.74",
    "rooms": "2室1厅",
    "direction": "南",
    "floor": "",
    "price": "5100",
    "tags": "",
    "source": "",
    "url": "https://sh.lianjia.com/zufang/SH2141162221906952192.html",
    "rent_type": "整租",
    "location": "浦东-金杨-金杨七街坊",
    "scraped_at": "2026-04-23 00:34:24",
    "region": "jinyang",
    "unit_price": 84.0,
    "lat": 31.247293,
    "lng": 121.581729
  },
  {
    "title": "整租·金杨新村五街坊 2室1厅 南",
    "community": "金杨新村五街坊",
    "area": "61.62",
    "rooms": "2室1厅",
    "direction": "南",
    "floor": "",
    "price": "5800",
    "tags": "",
    "source": "",
    "url": "https://sh.lianjia.com/zufang/SH2138933370158055424.html",
    "rent_type": "整租",
    "location": "浦东-金杨-金杨新村五街坊",
    "scraped_at": "2026-04-23 00:34:24",
    "region": "jinyang",
    "unit_price": 94.1,
    "lat": 31.245347,
    "lng": 121.577269
  },
  {
    "title": "整租·上海未来 2室2厅 南",
    "community": "上海未来",
    "area": "100.00",
    "rooms": "2室2厅",
    "direction": "南",
    "floor": "",
    "price": "8000",
    "tags": "",
    "source": "",
    "url": "https://sh.lianjia.com/zufang/SH2071454203884077056.html",
    "rent_type": "整租",
    "location": "浦东-金杨-上海未来",
    "scraped_at": "2026-04-23 00:34:24",
    "region": "jinyang",
    "unit_price": 80.0,
    "lat": 31.252157,
    "lng": 121.580591
  },
  {
    "title": "整租·黄山始信苑 2室1厅 南",
    "community": "黄山始信苑",
    "area": "70.58",
    "rooms": "2室1厅",
    "direction": "南",
    "floor": "",
    "price": "6800",
    "tags": "",
    "source": "",
    "url": "https://sh.lianjia.com/zufang/SH2149814353677778944.html",
    "rent_type": "整租",
    "location": "浦东-金杨-黄山始信苑",
    "scraped_at": "2026-04-23 00:34:24",
    "region": "jinyang",
    "unit_price": 96.3,
    "lat": 31.256111,
    "lng": 121.570352
  },
  {
    "title": "整租·金芙苑 3室2厅 南",
    "community": "金芙苑",
    "area": "109.01",
    "rooms": "3室2厅",
    "direction": "南",
    "floor": "",
    "price": "7500",
    "tags": "",
    "source": "",
    "url": "https://sh.lianjia.com/zufang/SH2130144170919067648.html",
    "rent_type": "整租",
    "location": "浦东-金杨-金芙苑",
    "scraped_at": "2026-04-23 00:34:24",
    "region": "jinyang",
    "unit_price": 68.8,
    "lat": 31.250995,
    "lng": 121.580471
  },
  {
    "title": "整租·罗山五村 2室1厅 南",
    "community": "罗山五村",
    "area": "63.00",
    "rooms": "2室1厅",
    "direction": "南",
    "floor": "",
    "price": "6300",
    "tags": "",
    "source": "",
    "url": "https://sh.lianjia.com/zufang/SH2146122724492181504.html",
    "rent_type": "整租",
    "location": "浦东-金杨-罗山五村",
    "scraped_at": "2026-04-23 00:34:24",
    "region": "jinyang",
    "unit_price": 100.0,
    "lat": 31.24866,
    "lng": 121.558071
  },
  {
    "title": "整租·金桥瑞仕花园 1室2厅 南",
    "community": "金桥瑞仕花园",
    "area": "83.06",
    "rooms": "1室2厅",
    "direction": "南",
    "floor": "",
    "price": "10000",
    "tags": "",
    "source": "",
    "url": "https://sh.lianjia.com/zufang/SH2155578381947633664.html",
    "rent_type": "整租",
    "location": "浦东-金杨-金桥瑞仕花园",
    "scraped_at": "2026-04-23 00:34:28",
    "region": "jinyang",
    "unit_price": 120.4,
    "lat": 31.25567,
    "lng": 121.57672
  },
  {
    "title": "整租·香山新村东南街坊 2室2厅 西南",
    "community": "香山新村东南街坊",
    "area": "95.68",
    "rooms": "2室2厅",
    "direction": "西南",
    "floor": "",
    "price": "6500",
    "tags": "",
    "source": "",
    "url": "https://sh.lianjia.com/zufang/SH2145492489941811200.html",
    "rent_type": "整租",
    "location": "浦东-金杨-香山新村东南街坊",
    "scraped_at": "2026-04-23 00:34:24",
    "region": "jinyang",
    "unit_price": 67.9,
    "lat": 31.239835,
    "lng": 121.572683
  },
  {
    "title": "整租·香山新村东南街坊 1室1厅 南",
    "community": "香山新村东南街坊",
    "area": "51.66",
    "rooms": "1室1厅",
    "direction": "南",
    "floor": "",
    "price": "4600",
    "tags": "",
    "source": "",
    "url": "https://sh.lianjia.com/zufang/SH2157329592812044288.html",
    "rent_type": "整租",
    "location": "浦东-金杨-香山新村东南街坊",
    "scraped_at": "2026-04-23 00:34:24",
    "region": "jinyang",
    "unit_price": 89.0,
    "lat": 31.239835,
    "lng": 121.572683
  },
  {
    "title": "整租·浦东大道2511弄 2室1厅 南",
    "community": "浦东大道2511弄",
    "area": "59.94",
    "rooms": "2室1厅",
    "direction": "南",
    "floor": "",
    "price": "4200",
    "tags": "",
    "source": "",
    "url": "https://sh.lianjia.com/zufang/SH2147698342862258176.html",
    "rent_type": "整租",
    "location": "浦东-金杨-浦东大道",
    "scraped_at": "2026-04-23 00:34:24",
    "region": "jinyang",
    "unit_price": 70.1,
    "lat": 31.259509,
    "lng": 121.559287
  },
  {
    "title": "整租·银山小区 1室1厅 南",
    "community": "银山小区",
    "area": "50.00",
    "rooms": "1室1厅",
    "direction": "南",
    "floor": "",
    "price": "4200",
    "tags": "",
    "source": "",
    "url": "https://sh.lianjia.com/zufang/SH2144992073902718976.html",
    "rent_type": "整租",
    "location": "浦东-金杨-银山小区",
    "scraped_at": "2026-04-23 00:34:24",
    "region": "jinyang",
    "unit_price": 84.0,
    "lat": 31.243381,
    "lng": 121.580666
  },
  {
    "title": "整租·金台苑 2室2厅 南",
    "community": "金台苑",
    "area": "97.53",
    "rooms": "2室2厅",
    "direction": "南",
    "floor": "",
    "price": "6800",
    "tags": "",
    "source": "",
    "url": "https://sh.lianjia.com/zufang/SH2146954832026533888.html",
    "rent_type": "整租",
    "location": "浦东-金杨-金台苑",
    "scraped_at": "2026-04-23 00:34:28",
    "region": "jinyang",
    "unit_price": 69.7,
    "lat": 31.251327,
    "lng": 121.585952
  },
  {
    "title": "整租·金芙苑 2室1厅 南",
    "community": "金芙苑",
    "area": "90.03",
    "rooms": "2室1厅",
    "direction": "南",
    "floor": "",
    "price": "5600",
    "tags": "",
    "source": "",
    "url": "https://sh.lianjia.com/zufang/SH2147240559306080256.html",
    "rent_type": "整租",
    "location": "浦东-金杨-金芙苑",
    "scraped_at": "2026-04-23 00:34:28",
    "region": "jinyang",
    "unit_price": 62.2,
    "lat": 31.250995,
    "lng": 121.580471
  },
  {
    "title": "整租·上房金丰苑 4室2厅 南",
    "community": "上房金丰苑",
    "area": "138.61",
    "rooms": "4室2厅",
    "direction": "南",
    "floor": "",
    "price": "10500",
    "tags": "",
    "source": "",
    "url": "https://sh.lianjia.com/zufang/SH2072681091679911936.html",
    "rent_type": "整租",
    "location": "浦东-金杨-上房金丰苑",
    "scraped_at": "2026-04-23 00:34:28",
    "region": "jinyang",
    "unit_price": 75.8,
    "lat": 31.260037,
    "lng": 121.562278
  },
  {
    "title": "整租·蝶恋园 3室2厅 南",
    "community": "蝶恋园",
    "area": "130.88",
    "rooms": "3室2厅",
    "direction": "南",
    "floor": "",
    "price": "9300",
    "tags": "",
    "source": "",
    "url": "https://sh.lianjia.com/zufang/SH2113236720936812544.html",
    "rent_type": "整租",
    "location": "浦东-金杨-蝶恋园",
    "scraped_at": "2026-04-23 00:34:28",
    "region": "jinyang",
    "unit_price": 71.1,
    "lat": 31.262359,
    "lng": 121.572402
  },
  {
    "title": "整租·仙都绿苑 1室1厅 西北",
    "community": "仙都绿苑",
    "area": "44.73",
    "rooms": "1室1厅",
    "direction": "西北",
    "floor": "",
    "price": "4000",
    "tags": "",
    "source": "",
    "url": "https://sh.lianjia.com/zufang/SH2156696661110292480.html",
    "rent_type": "整租",
    "location": "浦东-金杨-仙都绿苑",
    "scraped_at": "2026-04-23 00:34:28",
    "region": "jinyang",
    "unit_price": 89.4,
    "lat": 31.259111,
    "lng": 121.562857
  },
  {
    "title": "整租·金杨新村五街坊 2室2厅 南/北",
    "community": "金杨新村五街坊",
    "area": "74.34",
    "rooms": "2室2厅",
    "direction": "南/北",
    "floor": "",
    "price": "6390",
    "tags": "",
    "source": "",
    "url": "https://sh.lianjia.com/zufang/SH2124797193482141696.html",
    "rent_type": "整租",
    "location": "浦东-金杨-金杨新村五街坊",
    "scraped_at": "2026-04-23 00:34:49",
    "region": "jinyang",
    "unit_price": 86.0,
    "lat": 31.245347,
    "lng": 121.577269
  },
  {
    "title": "整租·香山新村西北街坊 1室1厅 南",
    "community": "香山新村西北街坊",
    "area": "49.95",
    "rooms": "1室1厅",
    "direction": "南",
    "floor": "",
    "price": "4800",
    "tags": "",
    "source": "",
    "url": "https://sh.lianjia.com/zufang/SH2156767315113279488.html",
    "rent_type": "整租",
    "location": "浦东-金杨-香山新村西北街坊",
    "scraped_at": "2026-04-23 00:34:49",
    "region": "jinyang",
    "unit_price": 96.1,
    "lat": 31.240895,
    "lng": 121.566633
  },
  {
    "title": "整租·金芝苑 2室1厅 南",
    "community": "金芝苑",
    "area": "89.00",
    "rooms": "2室1厅",
    "direction": "南",
    "floor": "",
    "price": "6800",
    "tags": "",
    "source": "",
    "url": "https://sh.lianjia.com/zufang/SH2149145504817086464.html",
    "rent_type": "整租",
    "location": "浦东-金杨-金芝苑",
    "scraped_at": "2026-04-23 00:34:49",
    "region": "jinyang",
    "unit_price": 76.4,
    "lat": 31.249174,
    "lng": 121.583017
  },