[
  {
    "title": "整租·唐山新苑 2室2厅 南",
    "community": "唐山新苑",
    "area": "106.76",
    "rooms": "2室2厅",
    "direction": "南",
    "floor": "",
    "price": "6900",
    "tags": "",
    "source": "",
    "url": "https://sh.lianjia.com/zufang/SH2149100521628106752.html",
    "rent_type": "整租",
    "location": "虹口-北外滩-唐山新苑",
    "scraped_at": "2026-04-23 15:12:33",
    "region": "beiwaitan",
    "unit_price": 64.6,
    "lat": 31.260839,
    "lng": 121.509083
  },
  {
    "title": "整租·阳光前景 3室2厅 南",
    "community": "阳光前景",
    "area": "135.65",
    "rooms": "3室2厅",
    "direction": "南",
    "floor": "",
    "price": "15000",
    "tags": "",
    "source": "",
    "url": "https://sh.lianjia.com/zufang/SH1970718396743942144.html",
    "rent_type": "整租",
    "location": "虹口-北外滩-阳光前景",
    "scraped_at": "2026-04-23 15:12:33",
    "region": "beiwaitan",
    "unit_price": 110.6,
    "lat": 31.240631,
    "lng": 121.49098
  },
  {
    "title": "整租·安国大楼 1室1厅 南",
    "community": "安国大楼",
    "area": "47.36",
    "rooms": "1室1厅",
    "direction": "南",
    "floor": "",
    "price": "5000",
    "tags": "",
    "source": "",
    "url": "https://sh.lianjia.com/zufang/SH2140903811898671104.html",
    "rent_type": "整租",
    "location": "虹口-北外滩-安国大楼",
    "scraped_at": "2026-04-23 15:12:33",
    "region": "beiwaitan",
    "unit_price": 105.6,
    "lat": 31.257722,
    "lng": 121.507993
  },
  {
    "title": "独栋·和光寓 唐山路店 明亮大一居 1室1厅",
    "community": "和光寓 唐山路店 明亮大一居",
    "area": "54.25",
    "rooms": "1室1厅",
    "direction": "",
    "floor": "",
    "price": "6500",
    "tags": "",
    "source": "",
    "url": "https://sh.lianjia.com/apartment/51369.html",
    "rent_type": "独栋",
    "location": "",
    "scraped_at": "2026-04-23 15:12:33",
    "region": "beiwaitan",
    "unit_price": 119.8,
    "lat": 31.260057,
    "lng": 121.509187
  },
  {
    "title": "整租·云舫小区 1室1厅 南",
    "community": "云舫小区",
    "area": "47.99",
    "rooms": "1室1厅",
    "direction": "南",
    "floor": "",
    "price": "5200",
    "tags": "",
    "source": "",
    "url": "https://sh.lianjia.com/zufang/SH2156616955908325376.html",
    "rent_type": "整租",
    "location": "虹口-北外滩-云舫小区",
    "scraped_at": "2026-04-23 15:12:33",
    "region": "beiwaitan",
    "unit_price": 108.4,
    "lat": 31.254936,
    "lng": 121.514263
  },
  {
    "title": "独栋·恒升公寓 武昌路店 LOF复式江景房 1室1厅",
    "community": "恒升公寓 武昌路店 LOF复式江景房",
    "area": "73.00",
    "rooms": "1室1厅",
    "direction": "",
    "floor": "",
    "price": "8500-10500",
    "tags": "",
    "source": "",
    "url": "https://sh.lianjia.com/apartment/36548.html",
    "rent_type": "独栋",
    "location": "",
    "scraped_at": "2026-04-23 15:12:33",
    "region": "beiwaitan",
    "unit_price": "",
    "lat": 31.146078,
    "lng": 121.413875
  },
  {
    "title": "整租·外滩·豪景苑 2室1厅 南",
    "community": "外滩·豪景苑",
    "area": "123.00",
    "rooms": "2室1厅",
    "direction": "南",
    "floor": "",
    "price": "15000",
    "tags": "",
    "source": "",
    "url": "https://sh.lianjia.com/zufang/SH2111847230976557056.html",
    "rent_type": "整租",
    "location": "虹口-北外滩-外滩",
    "scraped_at": "2026-04-23 15:12:33",
    "region": "beiwaitan",
    "unit_price": 122.0,
    "lat": 31.264917,
    "lng": 121.504994
  },
  {
    "title": "整租·临江大厦 3室2厅 南",
    "community": "临江大厦",
    "area": "144.00",
    "rooms": "3室2厅",
    "direction": "南",
    "floor": "",
    "price": "14000",
    "tags": "",
    "source": "",
    "url": "https://sh.lianjia.com/zufang/SH2149356322636693504.html",
    "rent_type": "整租",
    "location": "虹口-北外滩-临江大厦",
    "scraped_at": "2026-04-23 15:12:33",
    "region": "beiwaitan",
    "unit_price": 97.2,
    "lat": 31.250841,
    "lng": 121.507415
  },
  {
    "title": "整租·塘沽小区 1室1厅 南",
    "community": "塘沽小区",
    "area": "32.72",
    "rooms": "1室1厅",
    "direction": "南",
    "floor": "",
    "price": "4400",
    "tags": "",
    "source": "",
    "url": "https://sh.lianjia.com/zufang/SH2129145244350939136.html",
    "rent_type": "整租",
    "location": "虹口-北外滩-塘沽小区",
    "scraped_at": "2026-04-23 15:12:33",
    "region": "beiwaitan",
    "unit_price": 134.5,
    "lat": 31.248889,
    "lng": 121.488
  },
  {
    "title": "整租·久耕小区 2室1厅 南",
    "community": "久耕小区",
    "area": "63.93",
    "rooms": "2室1厅",
    "direction": "南",
    "floor": "",
    "price": "6500",
    "tags": "",
    "source": "",
    "url": "https://sh.lianjia.com/zufang/SH2041898772035796992.html",
    "rent_type": "整租",
    "location": "虹口-北外滩-久耕小区",
    "scraped_at": "2026-04-23 15:12:33",
    "region": "beiwaitan",
    "unit_price": 101.7,
    "lat": 31.252054,
    "lng": 121.490465
  },
  {
    "title": "独栋·寓心公寓 旅顺路店 虹口区北外滩白玉兰广场.独立一室户不短租 1室1厅",
    "community": "寓心公寓 旅顺路店 虹口区北外滩白玉兰广场.独立一室户不短租",
    "area": "36.00",
    "rooms": "1室1厅",
    "direction": "",
    "floor": "",
    "price": "4380",
    "tags": "",
    "source": "",
    "url": "https://sh.lianjia.com/apartment/85054.html",
    "rent_type": "独栋",
    "location": "",
    "scraped_at": "2026-04-23 15:12:33",
    "region": "beiwaitan",
    "unit_price": 121.7,
    "lat": null,
    "lng": null
  },
  {
    "title": "整租·惠民路250弄 1室1厅 南",
    "community": "惠民路250弄",
    "area": "28.05",
    "rooms": "1室1厅",
    "direction": "南",
    "floor": "",
    "price": "4280",
    "tags": "",
    "source": "",
    "url": "https://sh.lianjia.com/zufang/SH1920025223378239488.html",
    "rent_type": "整租",
    "location": "虹口-北外滩-惠民路",
    "scraped_at": "2026-04-23 15:12:33",
    "region": "beiwaitan",
    "unit_price": 152.6,
    "lat": 31.254517,
    "lng": 121.514538
  },
  {
    "title": "整租·恒升半岛 1室1厅 南",
    "community": "恒升半岛",
    "area": "62.01",
    "rooms": "1室1厅",
    "direction": "南",
    "floor": "",
    "price": "6300",
    "tags": "",
    "source": "",
    "url": "https://sh.lianjia.com/zufang/SH1743541903002959872.html",
    "rent_type": "整租",
    "location": "虹口-北外滩-恒升半岛",
    "scraped_at": "2026-04-23 15:12:33",
    "region": "beiwaitan",
    "unit_price": 101.6,
    "lat": 31.24725,
    "lng": 121.489331
  },
  {
    "title": "整租·久耕小区 2室1厅 南",
    "community": "久耕小区",
    "area": "51.61",
    "rooms": "2室1厅",
    "direction": "南",
    "floor": "",
    "price": "6500",
    "tags": "",
    "source": "",
    "url": "https://sh.lianjia.com/zufang/SH2121468028133572608.html",
    "rent_type": "整租",
    "location": "虹口-北外滩-久耕小区",
    "scraped_at": "2026-04-23 15:12:33",
    "region": "beiwaitan",
    "unit_price": 125.9,
    "lat": 31.252054,
    "lng": 121.490465
  },
  {
    "title": "整租·鸿旭豪苑(酒店式公寓) 1室1厅 西南",
    "community": "鸿旭豪苑(酒店式公寓)",
    "area": "87.46",
    "rooms": "1室1厅",
    "direction": "西南",
    "floor": "",
    "price": "5900",
    "tags": "",
    "source": "",
    "url": "https://sh.lianjia.com/zufang/SH2143941588131250176.html",
    "rent_type": "整租",
    "location": "虹口-北外滩-鸿旭豪苑(酒店式公寓)",
    "scraped_at": "2026-04-23 15:12:33",
    "region": "beiwaitan",
    "unit_price": 67.5,
    "lat": 31.258382,
    "lng": 121.511762
  },
  {
    "title": "整租·旅顺路71弄 2室1厅 南",
    "community": "旅顺路71弄",
    "area": "62.01",
    "rooms": "2室1厅",
    "direction": "南",
    "floor": "",
    "price": "7360",
    "tags": "",
    "source": "",
    "url": "https://sh.lianjia.com/zufang/SH1794738936707284992.html",
    "rent_type": "整租",
    "location": "虹口-北外滩-旅顺路",
    "scraped_at": "2026-04-23 15:12:33",
    "region": "beiwaitan",
    "unit_price": 118.7,
    "lat": 31.249711,
    "lng": 121.494472
  },
  {
    "title": "整租·三铭小区 2室1厅 南",
    "community": "三铭小区",
    "area": "44.43",
    "rooms": "2室1厅",
    "direction": "南",
    "floor": "",
    "price": "6000",
    "tags": "",
    "source": "",
    "url": "https://sh.lianjia.com/zufang/SH2041028018222137344.html",
    "rent_type": "整租",
    "location": "虹口-北外滩-三铭小区",
    "scraped_at": "2026-04-23 15:12:33",
    "region": "beiwaitan",
    "unit_price": 135.0,
    "lat": 31.25614,
    "lng": 121.505181
  },
  {
    "title": "整租·白金府邸 6室3厅 南",
    "community": "白金府邸",
    "area": "449.97",
    "rooms": "6室3厅",
    "direction": "南",
    "floor": "",
    "price": "98000",
    "tags": "",
    "source": "",
    "url": "https://sh.lianjia.com/zufang/SH2117984549915852800.html",
    "rent_type": "整租",
    "location": "虹口-北外滩-白金府邸",
    "scraped_at": "2026-04-23 15:12:33",
    "region": "beiwaitan",
    "unit_price": 217.8,
    "lat": 31.250237,
    "lng": 121.494441
  },
  {
    "title": "整租·昆明路155弄 2室1厅 南",
    "community": "昆明路155弄",
    "area": "50.80",
    "rooms": "2室1厅",
    "direction": "南",
    "floor": "",
    "price": "4890",
    "tags": "",
    "source": "",
    "url": "https://sh.lianjia.com/zufang/SH2100228339783434240.html",
    "rent_type": "整租",
    "location": "虹口-北外滩-昆明路",
    "scraped_at": "2026-04-23 15:12:33",
    "region": "beiwaitan",
    "unit_price": 96.3,
    "lat": 31.249293,
    "lng": 121.488725
  },
  {
    "title": "整租·沪工小区 1室1厅 南",
    "community": "沪工小区",
    "area": "55.00",
    "rooms": "1室1厅",
    "direction": "南",
    "floor": "",
    "price": "5800",
    "tags": "",
    "source": "",
    "url": "https://sh.lianjia.com/zufang/SH1883025297104699392.html",
    "rent_type": "整租",
    "location": "虹口-北外滩-沪工小区",
    "scraped_at": "2026-04-23 15:12:33",
    "region": "beiwaitan",
    "unit_price": 105.5,
    "lat": 31.254228,
    "lng": 121.513886
  },
  {
    "title": "整租·东泰大厦 2室1厅 北",
    "community": "东泰大厦",
    "area": "143.69",
    "rooms": "2室1厅",
    "direction": "北",
    "floor": "",
    "price": "10960",
    "tags": "",
    "source": "",
    "url": "https://sh.lianjia.com/zufang/SH1821199886310178816.html",
    "rent_type": "整租",
    "location": "虹口-北外滩-东泰大厦",
    "scraped_at": "2026-04-23 15:12:33",
    "region": "beiwaitan",
    "unit_price": 76.3,
    "lat": 31.247657,
    "lng": 121.489384
  },
  {
    "title": "整租·建唐大楼 2室1厅 南",
    "community": "建唐大楼",
    "area": "77.00",
    "rooms": "2室1厅",
    "direction": "南",
    "floor": "",
    "price": "6855",
    "tags": "",
    "source": "",
    "url": "https://sh.lianjia.com/zufang/SH2156751004563931136.html",
    "rent_type": "整租",
    "location": "虹口-北外滩-建唐大楼",
    "scraped_at": "2026-04-23 15:12:33",
    "region": "beiwaitan",
    "unit_price": 89.0,
    "lat": 31.252304,
    "lng": 121.497778
  },
  {
    "title": "独栋·梓泰公寓 梓泰公寓 北外滩阳台品质平层/近来福士/可短租押一付一 开间",
    "community": "梓泰公寓 梓泰公寓 北外滩阳台品质平层/近来福士/可短租押一付一 开间",
    "area": "32.00",
    "rooms": "",
    "direction": "",
    "floor": "",
    "price": "4700",
    "tags": "",
    "source": "",
    "url": "https://sh.lianjia.com/apartment/33309.html",
    "rent_type": "独栋",
    "location": "",
    "scraped_at": "2026-04-23 15:12:33",
    "region": "beiwaitan",
    "unit_price": 146.9,
    "lat": 31.23231,
    "lng": 121.476606
  },
  {
    "title": "整租·融创外滩188 3室2厅 南",
    "community": "融创外滩188",
    "area": "184.00",
    "rooms": "3室2厅",
    "direction": "南",
    "floor": "",
    "price": "26000",
    "tags": "",
    "source": "",
    "url": "https://sh.lianjia.com/zufang/SH2148381324719685632.html",
    "rent_type": "整租",
    "location": "虹口-北外滩-融创外滩",
    "scraped_at": "2026-04-23 15:12:33",
    "region": "beiwaitan",
    "unit_price": 141.3,
    "lat": 31.234046,
    "lng": 121.490758
  },
  {
    "title": "整租·馨虹苑 3室1厅 南",
    "community": "馨虹苑",
    "area": "99.16",
    "rooms": "3室1厅",
    "direction": "南",
    "floor": "",
    "price": "11500",
    "tags": "",
    "source": "",
    "url": "https://sh.lianjia.com/zufang/SH2153011894082863104.html",
    "rent_type": "整租",
    "location": "虹口-北外滩-馨虹苑",
    "scraped_at": "2026-04-23 15:12:33",
    "region": "beiwaitan",
    "unit_price": 116.0,
    "lat": 31.253722,
    "lng": 121.496946
  },
  {
    "title": "整租·外滩99 3室2厅 南",
    "community": "外滩99",
    "area": "171.79",
    "rooms": "3室2厅",
    "direction": "南",
    "floor": "",
    "price": "19000",
    "tags": "",
    "source": "",
    "url": "https://sh.lianjia.com/zufang/SH2149494963031769088.html",
    "rent_type": "整租",
    "location": "虹口-北外滩-外滩",
    "scraped_at": "2026-04-23 15:12:36",
    "region": "beiwaitan",
    "unit_price": 110.6,
    "lat": 31.264917,
    "lng": 121.504994
  },
  {
    "title": "整租·家化公寓 2室1厅 南",
    "community": "家化公寓",
    "area": "89.99",
    "rooms": "2室1厅",
    "direction": "南",
    "floor": "",
    "price": "7500",
    "tags": "",
    "source": "",
    "url": "https://sh.lianjia.com/zufang/SH2150875219374374912.html",
    "rent_type": "整租",
    "location": "虹口-北外滩-家化公寓",
    "scraped_at": "2026-04-23 15:12:33",
    "region": "beiwaitan",
    "unit_price": 83.3,
    "lat": 31.2596,
    "lng": 121.508405
  },
  {
    "title": "整租·鸿旭豪苑(酒店式公寓) 1室1厅 东/南",
    "community": "鸿旭豪苑(酒店式公寓)",
    "area": "47.12",
    "rooms": "1室1厅",
    "direction": "东/南",
    "floor": "",
    "price": "4600",
    "tags": "",
    "source": "",
    "url": "https://sh.lianjia.com/zufang/SH1765726184336785408.html",
    "rent_type": "整租",
    "location": "虹口-北外滩-鸿旭豪苑(酒店式公寓)",
    "scraped_at": "2026-04-23 15:12:36",
    "region": "beiwaitan",
    "unit_price": 97.6,
    "lat": 31.258382,
    "lng": 121.511762
  },
  {
    "title": "整租·九联小区 1室1厅 东",
    "community": "九联小区",
    "area": "56.37",
    "rooms": "1室1厅",
    "direction": "东",
    "floor": "",
    "price": "4500",
    "tags": "",
    "source": "",
    "url": "https://sh.lianjia.com/zufang/SH2151208181244624896.html",
    "rent_type": "整租",
    "location": "虹口-北外滩-九联小区",
    "scraped_at": "2026-04-23 15:12:36",
    "region": "beiwaitan",
    "unit_price": 79.8,
    "lat": 31.257168,
    "lng": 121.507959
  },
  {
    "title": "整租·馨虹苑 2室1厅 南",
    "community": "馨虹苑",
    "area": "99.16",
    "rooms": "2室1厅",
    "direction": "南",
    "floor": "",
    "price": "11730",
    "tags": "",
    "source": "",
    "url": "https://sh.lianjia.com/zufang/SH1860721335274045440.html",
    "rent_type": "整租",
    "location": "虹口-北外滩-馨虹苑",
    "scraped_at": "2026-04-23 15:12:36",
    "region": "beiwaitan",
    "unit_price": 118.3,
    "lat": 31.253722,
    "lng": 121.496946
  },
  {
    "title": "整租·久耕小区 1室1厅 东",
    "community": "久耕小区",
    "area": "41.88",
    "rooms": "1室1厅",
    "direction": "东",
    "floor": "",
    "price": "4515",
    "tags": "",
    "source": "",
    "url": "https://sh.lianjia.com/zufang/SH2116034019408740352.html",
    "rent_type": "整租",
    "location": "虹口-北外滩-久耕小区",
    "scraped_at": "2026-04-23 15:12:36",
    "region": "beiwaitan",
    "unit_price": 107.8,
    "lat": 31.252054,
    "lng": 121.490465
  },
  {
    "title": "整租·久耕小区 1室1厅 东南",
    "community": "久耕小区",
    "area": "48.30",
    "rooms": "1室1厅",
    "direction": "东南",
    "floor": "",
    "price": "5860",
    "tags": "",
    "source": "",
    "url": "https://sh.lianjia.com/zufang/SH2120938095082733568.html",
    "rent_type": "整租",
    "location": "虹口-北外滩-久耕小区",
    "scraped_at": "2026-04-23 15:12:36",
    "region": "beiwaitan",
    "unit_price": 121.3,
    "lat": 31.252054,
    "lng": 121.490465
  },
  {
    "title": "整租·久耕小区 1室1厅 东/北",
    "community": "久耕小区",
    "area": "41.88",
    "rooms": "1室1厅",
    "direction": "东/北",
    "floor": "",
    "price": "4800",
    "tags": "",
    "source": "",
    "url": "https://sh.lianjia.com/zufang/SH1871492389718196224.html",
    "rent_type": "整租",
    "location": "虹口-北外滩-久耕小区",
    "scraped_at": "2026-04-23 15:12:36",
    "region": "beiwaitan",
    "unit_price": 114.6,
    "lat": 31.252054,
    "lng": 121.490465
  },
  {
    "title": "整租·三铭小区 1室1厅 南",
    "community": "三铭小区",
    "area": "40.80",
    "rooms": "1室1厅",
    "direction": "南",
    "floor": "",
    "price": "5500",
    "tags": "",
    "source": "",
    "url": "https://sh.lianjia.com/zufang/SH2150581035522326528.html",
    "rent_type": "整租",
    "location": "虹口-北外滩-三铭小区",
    "scraped_at": "2026-04-23 15:12:36",
    "region": "beiwaitan",
    "unit_price": 134.8,
    "lat": 31.25614,
    "lng": 121.505181
  },
  {
    "title": "整租·春阳住宅小区 1室1厅 南",
    "community": "春阳住宅小区",
    "area": "24.00",
    "rooms": "1室1厅",
    "direction": "南",
    "floor": "",
    "price": "3990",
    "tags": "",
    "source": "",
    "url": "https://sh.lianjia.com/zufang/SH1830208949706555392.html",
    "rent_type": "整租",
    "location": "虹口-北外滩-春阳住宅小区",
    "scraped_at": "2026-04-23 15:12:36",
    "region": "beiwaitan",
    "unit_price": 166.2,
    "lat": 31.252408,
    "lng": 121.49285
  },
  {
    "title": "整租·久耕小区 1室1厅 南",
    "community": "久耕小区",
    "area": "37.91",
    "rooms": "1室1厅",
    "direction": "南",
    "floor": "",
    "price": "5130",
    "tags": "",
    "source": "",
    "url": "https://sh.lianjia.com/zufang/SH1912565406661345280.html",
    "rent_type": "整租",
    "location": "虹口-北外滩-久耕小区",
    "scraped_at": "2026-04-23 15:12:36",
    "region": "beiwaitan",
    "unit_price": 135.3,
    "lat": 31.252054,
    "lng": 121.490465
  },
  {
    "title": "整租·久耕小区 1室1厅 南",
    "community": "久耕小区",
    "area": "36.84",
    "rooms": "1室1厅",
    "direction": "南",
    "floor": "",
    "price": "3885",
    "tags": "",
    "source": "",
    "url": "https://sh.lianjia.com/zufang/SH1959645044914782208.html",
    "rent_type": "整租",
    "location": "虹口-北外滩-久耕小区",
    "scraped_at": "2026-04-23 15:12:36",
    "region": "beiwaitan",
    "unit_price": 105.5,
    "lat": 31.252054,
    "lng": 121.490465
  },
  {
    "title": "整租·前进小区 1室1厅 西",
    "community": "前进小区",
    "area": "35.66",
    "rooms": "1室1厅",
    "direction": "西",
    "floor": "",
    "price": "4360",
    "tags": "",
    "source": "",
    "url": "https://sh.lianjia.com/zufang/SH1803300313872990208.html",
    "rent_type": "整租",
    "location": "虹口-北外滩-前进小区",
    "scraped_at": "2026-04-23 15:12:36",
    "region": "beiwaitan",
    "unit_price": 122.3,
    "lat": 31.25298,
    "lng": 121.494142
  },
  {
    "title": "整租·建唐大楼 1室1厅 东",
    "community": "建唐大楼",
    "area": "47.08",
    "rooms": "1室1厅",
    "direction": "东",
    "floor": "",
    "price": "6090",
    "tags": "",
    "source": "",
    "url": "https://sh.lianjia.com/zufang/SH1991173333973991424.html",
    "rent_type": "整租",
    "location": "虹口-北外滩-建唐大楼",
    "scraped_at": "2026-04-23 15:12:36",
    "region": "beiwaitan",
    "unit_price": 129.4,
    "lat": 31.252304,
    "lng": 121.497778
  },
  {
    "title": "整租·惠民路262号 2室1厅 南",
    "community": "惠民路262号",
    "area": "41.73",
    "rooms": "2室1厅",
    "direction": "南",
    "floor": "",
    "price": "5229",
    "tags": "",
    "source": "",
    "url": "https://sh.lianjia.com/zufang/SH1886111009047838720.html",
    "rent_type": "整租",
    "location": "虹口-北外滩-惠民路",
    "scraped_at": "2026-04-23 15:12:36",
    "region": "beiwaitan",
    "unit_price": 125.3,
    "lat": 31.256991,
    "lng": 121.519522
  },
  {
    "title": "整租·绿屏小区 2室1厅 东南/南",
    "community": "绿屏小区",
    "area": "103.08",
    "rooms": "2室1厅",
    "direction": "东南/南",
    "floor": "",
    "price": "7300",
    "tags": "",
    "source": "",
    "url": "https://sh.lianjia.com/zufang/SH2043308956452913152.html",
    "rent_type": "整租",
    "location": "虹口-北外滩-绿屏小区",
    "scraped_at": "2026-04-23 15:12:36",
    "region": "beiwaitan",
    "unit_price": 70.8,
    "lat": 31.255524,
    "lng": 121.505077
  },
  {
    "title": "整租·白金府邸 3室1厅 南",
    "community": "白金府邸",
    "area": "209.21",
    "rooms": "3室1厅",
    "direction": "南",
    "floor": "",
    "price": "21790",
    "tags": "",
    "source": "",
    "url": "https://sh.lianjia.com/zufang/SH1929963345067114496.html",
    "rent_type": "整租",
    "location": "虹口-北外滩-白金府邸",
    "scraped_at": "2026-04-23 15:12:36",
    "region": "beiwaitan",
    "unit_price": 104.2,
    "lat": 31.250237,
    "lng": 121.494441
  },
  {
    "title": "整租·春阳住宅小区 1室0厅 南",
    "community": "春阳住宅小区",
    "area": "25.00",
    "rooms": "1室0厅",
    "direction": "南",
    "floor": "",
    "price": "3150",
    "tags": "",
    "source": "",
    "url": "https://sh.lianjia.com/zufang/SH1987389795722067968.html",
    "rent_type": "整租",
    "location": "虹口-北外滩-春阳住宅小区",
    "scraped_at": "2026-04-23 15:12:36",
    "region": "beiwaitan",
    "unit_price": 126.0,
    "lat": 31.252408,
    "lng": 121.49285
  },
  {
    "title": "整租·耀江国际广场(峨眉路299弄) 3室2厅 南",
    "community": "耀江国际广场(峨眉路299弄)",
    "area": "177.41",
    "rooms": "3室2厅",
    "direction": "南",
    "floor": "",
    "price": "23800",
    "tags": "",
    "source": "",
    "url": "https://sh.lianjia.com/zufang/SH2137938394624294912.html",
    "rent_type": "整租",
    "location": "虹口-北外滩-耀江国际广场(峨眉路",
    "scraped_at": "2026-04-23 15:12:36",
    "region": "beiwaitan",
    "unit_price": 134.2,
    "lat": 31.249638,
    "lng": 121.4903
  },
  {
    "title": "整租·长江大楼 1室1厅 北",
    "community": "长江大楼",
    "area": "35.32",
    "rooms": "1室1厅",
    "direction": "北",
    "floor": "",
    "price": "5060",
    "tags": "",
    "source": "",
    "url": "https://sh.lianjia.com/zufang/SH1828494123833753600.html",
    "rent_type": "整租",
    "location": "虹口-北外滩-长江大楼",
    "scraped_at": "2026-04-23 15:12:36",
    "region": "beiwaitan",
    "unit_price": 143.3,
    "lat": 31.251835,
    "lng": 121.508689
  },
  {
    "title": "整租·鸿旭豪苑(酒店式公寓) 1室1厅 南",
    "community": "鸿旭豪苑(酒店式公寓)",
    "area": "37.59",
    "rooms": "1室1厅",
    "direction": "南",
    "floor": "",
    "price": "4620",
    "tags": "",
    "source": "",
    "url": "https://sh.lianjia.com/zufang/SH1834224575483740160.html",
    "rent_type": "整租",
    "location": "虹口-北外滩-鸿旭豪苑(酒店式公寓)",
    "scraped_at": "2026-04-23 15:12:36",
    "region": "beiwaitan",
    "unit_price": 122.9,
    "lat": 31.258382,
    "lng": 121.511762
  },
  {
    "title": "整租·新外滩花苑 4室2厅 南/北",
    "community": "新外滩花苑",
    "area": "172.85",
    "rooms": "4室2厅",
    "direction": "南/北",
    "floor": "",
    "price": "18000",
    "tags": "",
    "source": "",
    "url": "https://sh.lianjia.com/zufang/SH2121537365884272640.html",
    "rent_type": "整租",
    "location": "虹口-北外滩-新外滩花苑",
    "scraped_at": "2026-04-23 15:12:36",
    "region": "beiwaitan",
    "unit_price": 104.1,
    "lat": 31.249975,
    "lng": 121.504167
  },
  {
    "title": "整租·九联小区 1室1厅 南",
    "community": "九联小区",
    "area": "51.92",
    "rooms": "1室1厅",
    "direction": "南",
    "floor": "",
    "price": "6990",
    "tags": "",
    "source": "",
    "url": "https://sh.lianjia.com/zufang/SH1810195119979102208.html",
    "rent_type": "整租",
    "location": "虹口-北外滩-九联小区",
    "scraped_at": "2026-04-23 15:12:36",
    "region": "beiwaitan",
    "unit_price": 134.6,
    "lat": 31.257168,
    "lng": 121.507959
  },
  {
    "title": "整租·马厂路63号 1室1厅 南",
    "community": "马厂路63号",
    "area": "39.00",
    "rooms": "1室1厅",
    "direction": "南",
    "floor": "",
    "price": "3675",
    "tags": "",
    "source": "",
    "url": "https://sh.lianjia.com/zufang/SH1987113534453972992.html",
    "rent_type": "整租",
    "location": "虹口-北外滩-马厂路",
    "scraped_at": "2026-04-23 15:12:36",
    "region": "beiwaitan",
    "unit_price": 94.2,
    "lat": 31.247944,
    "lng": 121.495569
  },
  {
    "title": "整租·久耕小区 1室1厅 东",
    "community": "久耕小区",
    "area": "51.61",
    "rooms": "1室1厅",
    "direction": "东",
    "floor": "",
    "price": "6890",
    "tags": "",
    "source": "",
    "url": "https://sh.lianjia.com/zufang/SH2028166901498118144.html",
    "rent_type": "整租",
    "location": "虹口-北外滩-久耕小区",
    "scraped_at": "2026-04-23 15:12:36",
    "region": "beiwaitan",
    "unit_price": 133.5,
    "lat": 31.252054,
    "lng": 121.490465
  },
  {
    "title": "整租·鸿旭豪苑(酒店式公寓) 1室1厅 南/西南",
    "community": "鸿旭豪苑(酒店式公寓)",
    "area": "37.59",
    "rooms": "1室1厅",
    "direction": "南/西南",
    "floor": "",
    "price": "4620",
    "tags": "",
    "source": "",
    "url": "https://sh.lianjia.com/zufang/SH1922180771552952320.html",
    "rent_type": "整租",
    "location": "虹口-北外滩-鸿旭豪苑(酒店式公寓)",
    "scraped_at": "2026-04-23 15:12:36",
    "region": "beiwaitan",
    "unit_price": 122.9,
    "lat": 31.258382,
    "lng": 121.511762
  },
  {
    "title": "整租·久耕小区 2室1厅 东",
    "community": "久耕小区",
    "area": "67.68",
    "rooms": "2室1厅",
    "direction": "东",
    "floor": "",
    "price": "7490",
    "tags": "",
    "source": "",
    "url": "https://sh.lianjia.com/zufang/SH1877093469877436416.html",
    "rent_type": "整租",
    "location": "虹口-北外滩-久耕小区",
    "scraped_at": "2026-04-23 15:12:36",
    "region": "beiwaitan",
    "unit_price": 110.7,
    "lat": 31.252054,
    "lng": 121.490465
  },
  {
    "title": "整租·唐山新苑 2室1厅 东南",
    "community": "唐山新苑",
    "area": "88.19",
    "rooms": "2室1厅",
    "direction": "东南",
    "floor": "",
    "price": "7800",
    "tags": "",
    "source": "",
    "url": "https://sh.lianjia.com/zufang/SH2146101252784652288.html",
    "rent_type": "整租",
    "location": "虹口-北外滩-唐山新苑",
    "scraped_at": "2026-04-23 15:12:36",
    "region": "beiwaitan",
    "unit_price": 88.4,
    "lat": 31.260839,
    "lng": 121.509083
  },
  {
    "title": "整租·融创外滩188 3室2厅 南",
    "community": "融创外滩188",
    "area": "174.74",
    "rooms": "3室2厅",
    "direction": "南",
    "floor": "",
    "price": "29000",
    "tags": "",
    "source": "",
    "url": "https://sh.lianjia.com/zufang/SH2122595284482523136.html",
    "rent_type": "整租",
    "location": "虹口-北外滩-融创外滩",
    "scraped_at": "2026-04-23 15:12:36",
    "region": "beiwaitan",
    "unit_price": 166.0,
    "lat": 31.234046,
    "lng": 121.490758
  },
  {
    "title": "整租·鸿旭豪苑(酒店式公寓) 1室1厅 东",
    "community": "鸿旭豪苑(酒店式公寓)",
    "area": "479.24",
    "rooms": "1室1厅",
    "direction": "东",
    "floor": "",
    "price": "5100",
    "tags": "",
    "source": "",
    "url": "https://sh.lianjia.com/zufang/SH2139660286372610048.html",
    "rent_type": "整租",
    "location": "虹口-北外滩-鸿旭豪苑(酒店式公寓)",
    "scraped_at": "2026-04-23 15:12:36",
    "region": "beiwaitan",
    "unit_price": 10.6,
    "lat": 31.258382,
    "lng": 121.511762
  },
  {
    "title": "整租·白金府邸 3室2厅 南",
    "community": "白金府邸",
    "area": "167.20",
    "rooms": "3室2厅",
    "direction": "南",
    "floor": "",
    "price": "23500",
    "tags": "",
    "source": "",
    "url": "https://sh.lianjia.com/zufang/SH2141065187069788160.html",
    "rent_type": "整租",
    "location": "虹口-北外滩-白金府邸",
    "scraped_at": "2026-04-23 15:12:36",
    "region": "beiwaitan",
    "unit_price": 140.6,
    "lat": 31.250237,
    "lng": 121.494441
  },
  {
    "title": "整租·鸿旭豪苑 1室2厅 南",
    "community": "鸿旭豪苑",
    "area": "85.00",
    "rooms": "1室2厅",
    "direction": "南",
    "floor": "",
    "price": "9975",
    "tags": "",
    "source": "",
    "url": "https://sh.lianjia.com/zufang/SH1982812376084250624.html",
    "rent_type": "整租",
    "location": "虹口-北外滩-鸿旭豪苑",
    "scraped_at": "2026-04-23 15:12:38",
    "region": "beiwaitan",
    "unit_price": 117.4,
    "lat": 31.258382,
    "lng": 121.511762
  },
  {
    "title": "整租·惠民路250弄 2室1厅 南",
    "community": "惠民路250弄",
    "area": "40.89",
    "rooms": "2室1厅",
    "direction": "南",
    "floor": "",
    "price": "6000",
    "tags": "",
    "source": "",
    "url": "https://sh.lianjia.com/zufang/SH2153847720203255808.html",
    "rent_type": "整租",
    "location": "虹口-北外滩-惠民路",
    "scraped_at": "2026-04-23 15:12:38",
    "region": "beiwaitan",
    "unit_price": 146.7,
    "lat": 31.254517,
    "lng": 121.514538
  },
  {
    "title": "整租·榆林路93弄 1室1厅 南",
    "community": "榆林路93弄",
    "area": "32.76",
    "rooms": "1室1厅",
    "direction": "南",
    "floor": "",
    "price": "3300",
    "tags": "",
    "source": "",
    "url": "https://sh.lianjia.com/zufang/SH1798957489958420480.html",
    "rent_type": "整租",
    "location": "虹口-北外滩-榆林路",
    "scraped_at": "2026-04-23 15:12:38",
    "region": "beiwaitan",
    "unit_price": 100.7,
    "lat": 31.253866,
    "lng": 121.515596
  },
  {
    "title": "整租·塘沽小区 2室1厅 南",
    "community": "塘沽小区",
    "area": "47.25",
    "rooms": "2室1厅",
    "direction": "南",
    "floor": "",
    "price": "5930",
    "tags": "",
    "source": "",
    "url": "https://sh.lianjia.com/zufang/SH1822327719313014784.html",
    "rent_type": "整租",
    "location": "虹口-北外滩-塘沽小区",
    "scraped_at": "2026-04-23 15:12:38",
    "region": "beiwaitan",
    "unit_price": 125.5,
    "lat": 31.248889,
    "lng": 121.488
  },
  {
    "title": "整租·丹徒路340弄 2室1厅 南",
    "community": "丹徒路340弄",
    "area": "62.74",
    "rooms": "2室1厅",
    "direction": "南",
    "floor": "",
    "price": "5000",
    "tags": "",
    "source": "",
    "url": "https://sh.lianjia.com/zufang/SH1908794563930095616.html",
    "rent_type": "整租",
    "location": "虹口-北外滩-丹徒路",
    "scraped_at": "2026-04-23 15:12:38",
    "region": "beiwaitan",
    "unit_price": 79.7,
    "lat": 31.254117,
    "lng": 121.503053
  },
  {
    "title": "整租·安国大楼 2室1厅 东北",
    "community": "安国大楼",
    "area": "53.70",
    "rooms": "2室1厅",
    "direction": "东北",
    "floor": "",
    "price": "5990",
    "tags": "",
    "source": "",
    "url": "https://sh.lianjia.com/zufang/SH1834656770165833728.html",
    "rent_type": "整租",
    "location": "虹口-北外滩-安国大楼",
    "scraped_at": "2026-04-23 15:12:38",
    "region": "beiwaitan",
    "unit_price": 111.5,
    "lat": 31.257722,
    "lng": 121.507993
  },
  {
    "title": "整租·建唐大楼 1室1厅 东",
    "community": "建唐大楼",
    "area": "55.00",
    "rooms": "1室1厅",
    "direction": "东",
    "floor": "",
    "price": "5100",
    "tags": "",
    "source": "",
    "url": "https://sh.lianjia.com/zufang/SH2145842914025013248.html",
    "rent_type": "整租",
    "location": "虹口-北外滩-建唐大楼",
    "scraped_at": "2026-04-23 15:12:38",
    "region": "beiwaitan",
    "unit_price": 92.7,
    "lat": 31.252304,
    "lng": 121.497778
  },
  {
    "title": "整租·鸿旭豪苑(酒店式公寓) 1室1厅 东南",
    "community": "鸿旭豪苑(酒店式公寓)",
    "area": "42.00",
    "rooms": "1室1厅",
    "direction": "东南",
    "floor": "",
    "price": "4800",
    "tags": "",
    "source": "",
    "url": "https://sh.lianjia.com/zufang/SH2145123296088162304.html",
    "rent_type": "整租",
    "location": "虹口-北外滩-鸿旭豪苑(酒店式公寓)",
    "scraped_at": "2026-04-23 15:12:38",
    "region": "beiwaitan",
    "unit_price": 114.3,
    "lat": 31.258382,
    "lng": 121.511762
  },
  {
    "title": "整租·九联小区 1室1厅 南",
    "community": "九联小区",
    "area": "53.28",
    "rooms": "1室1厅",
    "direction": "南",
    "floor": "",
    "price": "6300",
    "tags": "",
    "source": "",
    "url": "https://sh.lianjia.com/zufang/SH2033172641447149568.html",
    "rent_type": "整租",
    "location": "虹口-北外滩-九联小区",
    "scraped_at": "2026-04-23 15:12:38",
    "region": "beiwaitan",
    "unit_price": 118.2,
    "lat": 31.257168,
    "lng": 121.507959
  },
  {
    "title": "整租·久耕小区 1室1厅 南",
    "community": "久耕小区",
    "area": "34.29",
    "rooms": "1室1厅",
    "direction": "南",
    "floor": "",
    "price": "5630",
    "tags": "",
    "source": "",
    "url": "https://sh.lianjia.com/zufang/SH2073205166466662400.html",
    "rent_type": "整租",
    "location": "虹口-北外滩-久耕小区",
    "scraped_at": "2026-04-23 15:12:38",
    "region": "beiwaitan",
    "unit_price": 164.2,
    "lat": 31.252054,
    "lng": 121.490465
  },
  {
    "title": "整租·久耕小区 2室1厅 南",
    "community": "久耕小区",
    "area": "51.61",
    "rooms": "2室1厅",
    "direction": "南",
    "floor": "",
    "price": "5600",
    "tags": "",
    "source": "",
    "url": "https://sh.lianjia.com/zufang/SH1665214895697690624.html",
    "rent_type": "整租",
    "location": "虹口-北外滩-久耕小区",
    "scraped_at": "2026-04-23 15:12:38",
    "region": "beiwaitan",
    "unit_price": 108.5,
    "lat": 31.252054,
    "lng": 121.490465
  },
  {
    "title": "整租·久耕小区 1室1厅 东北",
    "community": "久耕小区",
    "area": "41.88",
    "rooms": "1室1厅",
    "direction": "东北",
    "floor": "",
    "price": "5660",
    "tags": "",
    "source": "",
    "url": "https://sh.lianjia.com/zufang/SH2137970287822503936.html",
    "rent_type": "整租",
    "location": "虹口-北外滩-久耕小区",
    "scraped_at": "2026-04-23 15:12:38",
    "region": "beiwaitan",
    "unit_price": 135.1,
    "lat": 31.252054,
    "lng": 121.490465
  },
  {
    "title": "整租·九联小区 1室1厅 南",
    "community": "九联小区",
    "area": "69.00",
    "rooms": "1室1厅",
    "direction": "南",
    "floor": "",
    "price": "6930",
    "tags": "",
    "source": "",
    "url": "https://sh.lianjia.com/zufang/SH2042243448815222784.html",
    "rent_type": "整租",
    "location": "虹口-北外滩-九联小区",
    "scraped_at": "2026-04-23 15:12:38",
    "region": "beiwaitan",
    "unit_price": 100.4,
    "lat": 31.257168,
    "lng": 121.507959
  },
  {
    "title": "整租·新外滩花苑 3室1厅 东",
    "community": "新外滩花苑",
    "area": "135.34",
    "rooms": "3室1厅",
    "direction": "东",
    "floor": "",
    "price": "17730",
    "tags": "",
    "source": "",
    "url": "https://sh.lianjia.com/zufang/SH2131447332787453952.html",
    "rent_type": "整租",
    "location": "虹口-北外滩-新外滩花苑",
    "scraped_at": "2026-04-23 15:12:38",
    "region": "beiwaitan",
    "unit_price": 131.0,
    "lat": 31.249975,
    "lng": 121.504167
  },
  {
    "title": "整租·建唐大楼 2室1厅 南",
    "community": "建唐大楼",
    "area": "72.00",
    "rooms": "2室1厅",
    "direction": "南",
    "floor": "",
    "price": "6400",
    "tags": "",
    "source": "",
    "url": "https://sh.lianjia.com/zufang/SH2151593906926518272.html",
    "rent_type": "整租",
    "location": "虹口-北外滩-建唐大楼",
    "scraped_at": "2026-04-23 15:12:38",
    "region": "beiwaitan",
    "unit_price": 88.9,
    "lat": 31.252304,
    "lng": 121.497778
  },
  {
    "title": "整租·惠民路250弄 1室1厅 北",
    "community": "惠民路250弄",
    "area": "37.08",
    "rooms": "1室1厅",
    "direction": "北",
    "floor": "",
    "price": "4360",
    "tags": "",
    "source": "",
    "url": "https://sh.lianjia.com/zufang/SH2137112009651519488.html",
    "rent_type": "整租",
    "location": "虹口-北外滩-惠民路",
    "scraped_at": "2026-04-23 15:12:38",
    "region": "beiwaitan",
    "unit_price": 117.6,
    "lat": 31.254517,
    "lng": 121.514538
  },
  {
    "title": "整租·绿屏小区 2室1厅 南",
    "community": "绿屏小区",
    "area": "118.46",
    "rooms": "2室1厅",
    "direction": "南",
    "floor": "",
    "price": "6930",
    "tags": "",
    "source": "",
    "url": "https://sh.lianjia.com/zufang/SH2021569465161875456.html",
    "rent_type": "整租",
    "location": "虹口-北外滩-绿屏小区",
    "scraped_at": "2026-04-23 15:12:38",
    "region": "beiwaitan",
    "unit_price": 58.5,
    "lat": 31.255524,
    "lng": 121.505077
  },
  {
    "title": "整租·馨虹苑 2室2厅 南",
    "community": "馨虹苑",
    "area": "112.67",
    "rooms": "2室2厅",
    "direction": "南",
    "floor": "",
    "price": "10000",
    "tags": "",
    "source": "",
    "url": "https://sh.lianjia.com/zufang/SH2141778267051393024.html",
    "rent_type": "整租",
    "location": "虹口-北外滩-馨虹苑",
    "scraped_at": "2026-04-23 15:12:38",
    "region": "beiwaitan",
    "unit_price": 88.8,
    "lat": 31.253722,
    "lng": 121.496946
  },
  {
    "title": "整租·安国大楼 2室0厅 东南",
    "community": "安国大楼",
    "area": "53.70",
    "rooms": "2室0厅",
    "direction": "东南",
    "floor": "",
    "price": "4700",
    "tags": "",
    "source": "",
    "url": "https://sh.lianjia.com/zufang/SH2154818208765313024.html",
    "rent_type": "整租",
    "location": "虹口-北外滩-安国大楼",
    "scraped_at": "2026-04-23 15:12:38",
    "region": "beiwaitan",
    "unit_price": 87.5,
    "lat": 31.257722,
    "lng": 121.507993
  },
  {
    "title": "整租·中虹明珠苑 4室2厅 南",
    "community": "中虹明珠苑",
    "area": "168.00",
    "rooms": "4室2厅",
    "direction": "南",
    "floor": "",
    "price": "23000",
    "tags": "",
    "source": "",
    "url": "https://sh.lianjia.com/zufang/SH2109925957530812416.html",
    "rent_type": "整租",
    "location": "虹口-北外滩-中虹明珠苑",
    "scraped_at": "2026-04-23 15:12:38",
    "region": "beiwaitan",
    "unit_price": 136.9,
    "lat": 31.256551,
    "lng": 121.502473
  },
  {
    "title": "整租·马厂路65号 2室0厅 东/东南",
    "community": "马厂路65号",
    "area": "47.53",
    "rooms": "2室0厅",
    "direction": "东/东南",
    "floor": "",
    "price": "5500",
    "tags": "",
    "source": "",
    "url": "https://sh.lianjia.com/zufang/SH2156800545614987264.html",
    "rent_type": "整租",
    "location": "虹口-北外滩-马厂路",
    "scraped_at": "2026-04-23 15:12:38",
    "region": "beiwaitan",
    "unit_price": 115.7,
    "lat": 31.247944,
    "lng": 121.495569
  },
  {
    "title": "整租·耀江国际广场(峨眉路299弄) 3室2厅 南",
    "community": "耀江国际广场(峨眉路299弄)",
    "area": "177.41",
    "rooms": "3室2厅",
    "direction": "南",
    "floor": "",
    "price": "21000",
    "tags": "",
    "source": "",
    "url": "https://sh.lianjia.com/zufang/SH2150566882996912128.html",
    "rent_type": "整租",
    "location": "虹口-北外滩-耀江国际广场(峨眉路",
    "scraped_at": "2026-04-23 15:12:38",
    "region": "beiwaitan",
    "unit_price": 118.4,
    "lat": 31.249638,
    "lng": 121.4903
  },
  {
    "title": "整租·鸿旭豪苑(酒店式公寓) 1室0厅 东南",
    "community": "鸿旭豪苑(酒店式公寓)",
    "area": "47.00",
    "rooms": "1室0厅",
    "direction": "东南",
    "floor": "",
    "price": "4850",
    "tags": "",
    "source": "",
    "url": "https://sh.lianjia.com/zufang/SH2145761983838814208.html",
    "rent_type": "整租",
    "location": "虹口-北外滩-鸿旭豪苑(酒店式公寓)",
    "scraped_at": "2026-04-23 15:12:38",
    "region": "beiwaitan",
    "unit_price": 103.2,
    "lat": 31.258382,
    "lng": 121.511762
  },
  {
    "title": "整租·阳光前景 2室2厅 南/北",
    "community": "阳光前景",
    "area": "96.11",
    "rooms": "2室2厅",
    "direction": "南/北",
    "floor": "",
    "price": "12500",
    "tags": "",
    "source": "",
    "url": "https://sh.lianjia.com/zufang/SH2140457453010026496.html",
    "rent_type": "整租",
    "location": "虹口-北外滩-阳光前景",
    "scraped_at": "2026-04-23 15:12:38",
    "region": "beiwaitan",
    "unit_price": 130.1,
    "lat": 31.240631,
    "lng": 121.49098
  },
  {
    "title": "整租·景泰大楼 2室1厅 南",
    "community": "景泰大楼",
    "area": "131.22",
    "rooms": "2室1厅",
    "direction": "南",
    "floor": "",
    "price": "8800",
    "tags": "",
    "source": "",
    "url": "https://sh.lianjia.com/zufang/SH2150117717582020608.html",
    "rent_type": "整租",
    "location": "虹口-北外滩-景泰大楼",
    "scraped_at": "2026-04-23 15:12:38",
    "region": "beiwaitan",
    "unit_price": 67.1,
    "lat": 31.25702,
    "lng": 121.501018
  },
  {
    "title": "整租·恒升半岛 1室1厅 东",
    "community": "恒升半岛",
    "area": "52.87",
    "rooms": "1室1厅",
    "direction": "东",
    "floor": "",
    "price": "6600",
    "tags": "",
    "source": "",
    "url": "https://sh.lianjia.com/zufang/SH2143015932212019200.html",
    "rent_type": "整租",
    "location": "虹口-北外滩-恒升半岛",
    "scraped_at": "2026-04-23 15:12:38",
    "region": "beiwaitan",
    "unit_price": 124.8,
    "lat": 31.24725,
    "lng": 121.489331
  },
  {
    "title": "整租·唐山新苑 2室2厅 南/北",
    "community": "唐山新苑",
    "area": "115.43",
    "rooms": "2室2厅",
    "direction": "南/北",
    "floor": "",
    "price": "8200",
    "tags": "",
    "source": "",
    "url": "https://sh.lianjia.com/zufang/SH2146971651500146688.html",
    "rent_type": "整租",
    "location": "虹口-北外滩-唐山新苑",
    "scraped_at": "2026-04-23 15:12:38",
    "region": "beiwaitan",
    "unit_price": 71.0,
    "lat": 31.260839,
    "lng": 121.509083
  },
  {
    "title": "整租·馨虹苑 4室2厅 复式 南",
    "community": "馨虹苑",
    "area": "225.23",
    "rooms": "4室2厅",
    "direction": "",
    "floor": "",
    "price": "22000",
    "tags": "",
    "source": "",
    "url": "https://sh.lianjia.com/zufang/SH2121505150785814528.html",
    "rent_type": "整租",
    "location": "虹口-北外滩-馨虹苑",
    "scraped_at": "2026-04-23 15:12:38",
    "region": "beiwaitan",
    "unit_price": 97.7,
    "lat": 31.253722,
    "lng": 121.496946
  },
  {
    "title": "整租·中虹明珠苑 2室2厅 南",
    "community": "中虹明珠苑",
    "area": "110.00",
    "rooms": "2室2厅",
    "direction": "南",
    "floor": "",
    "price": "12000",
    "tags": "",
    "source": "",
    "url": "https://sh.lianjia.com/zufang/SH2142569259836899328.html",
    "rent_type": "整租",
    "location": "虹口-北外滩-中虹明珠苑",
    "scraped_at": "2026-04-23 15:12:38",
    "region": "beiwaitan",
    "unit_price": 109.1,
    "lat": 31.256551,
    "lng": 121.502473
  },
  {
    "title": "整租·海湾大厦 1室0厅 西",
    "community": "海湾大厦",
    "area": "44.18",
    "rooms": "1室0厅",
    "direction": "西",
    "floor": "",
    "price": "6500",
    "tags": "",
    "source": "",
    "url": "https://sh.lianjia.com/zufang/SH2113236584663875584.html",
    "rent_type": "整租",
    "location": "虹口-北外滩-海湾大厦",
    "scraped_at": "2026-04-23 15:12:42",
    "region": "beiwaitan",
    "unit_price": 147.1,
    "lat": 31.24445,
    "lng": 121.491651
  },
  {
    "title": "整租·白金府邸 3室2厅 南",
    "community": "白金府邸",
    "area": "208.30",
    "rooms": "3室2厅",
    "direction": "南",
    "floor": "",
    "price": "21000",
    "tags": "",
    "source": "",
    "url": "https://sh.lianjia.com/zufang/SH2041401029282496512.html",
    "rent_type": "整租",
    "location": "虹口-北外滩-白金府邸",
    "scraped_at": "2026-04-23 15:12:42",
    "region": "beiwaitan",
    "unit_price": 100.8,
    "lat": 31.250237,
    "lng": 121.494441
  },
  {
    "title": "整租·恒升半岛 1室1厅 南",
    "community": "恒升半岛",
    "area": "40.99",
    "rooms": "1室1厅",
    "direction": "南",
    "floor": "",
    "price": "6800",
    "tags": "",
    "source": "",
    "url": "https://sh.lianjia.com/zufang/SH2145768031245041664.html",
    "rent_type": "整租",
    "location": "虹口-北外滩-恒升半岛",
    "scraped_at": "2026-04-23 15:12:42",
    "region": "beiwaitan",
    "unit_price": 165.9,
    "lat": 31.24725,
    "lng": 121.489331
  },
  {
    "title": "整租·临江大厦 3室2厅 南",
    "community": "临江大厦",
    "area": "144.56",
    "rooms": "3室2厅",
    "direction": "南",
    "floor": "",
    "price": "20000",
    "tags": "",
    "source": "",
    "url": "https://sh.lianjia.com/zufang/SH2146525923782950912.html",
    "rent_type": "整租",
    "location": "虹口-北外滩-临江大厦",
    "scraped_at": "2026-04-23 15:12:42",
    "region": "beiwaitan",
    "unit_price": 138.4,
    "lat": 31.250841,
    "lng": 121.507415
  },
  {
    "title": "整租·耀江国际广场(峨眉路299弄) 3室2厅 南",
    "community": "耀江国际广场(峨眉路299弄)",
    "area": "156.61",
    "rooms": "3室2厅",
    "direction": "南",
    "floor": "",
    "price": "18000",
    "tags": "",
    "source": "",
    "url": "https://sh.lianjia.com/zufang/SH2137749185334607872.html",
    "rent_type": "整租",
    "location": "虹口-北外滩-耀江国际广场(峨眉路",
    "scraped_at": "2026-04-23 15:12:42",
    "region": "beiwaitan",
    "unit_price": 114.9,
    "lat": 31.249638,
    "lng": 121.4903
  },
  {
    "title": "整租·建唐大楼 1室1厅 东/西",
    "community": "建唐大楼",
    "area": "54.58",
    "rooms": "1室1厅",
    "direction": "东/西",
    "floor": "",
    "price": "7000",
    "tags": "",
    "source": "",
    "url": "https://sh.lianjia.com/zufang/SH2155672884649918464.html",
    "rent_type": "整租",
    "location": "虹口-北外滩-建唐大楼",
    "scraped_at": "2026-04-23 15:12:42",
    "region": "beiwaitan",
    "unit_price": 128.3,
    "lat": 31.252304,
    "lng": 121.497778
  },
  {
    "title": "整租·建唐大楼 2室1厅 南",
    "community": "建唐大楼",
    "area": "64.29",
    "rooms": "2室1厅",
    "direction": "南",
    "floor": "",
    "price": "7000",
    "tags": "",
    "source": "",
    "url": "https://sh.lianjia.com/zufang/SH2154149721894027264.html",
    "rent_type": "整租",
    "location": "虹口-北外滩-建唐大楼",
    "scraped_at": "2026-04-23 15:12:42",
    "region": "beiwaitan",
    "unit_price": 108.9,
    "lat": 31.252304,
    "lng": 121.497778
  },
  {
    "title": "整租·白金府邸 3室2厅 南",
    "community": "白金府邸",
    "area": "170.84",
    "rooms": "3室2厅",
    "direction": "南",
    "floor": "",
    "price": "29200",
    "tags": "",
    "source": "",
    "url": "https://sh.lianjia.com/zufang/SH2125140204292407296.html",
    "rent_type": "整租",
    "location": "虹口-北外滩-白金府邸",
    "scraped_at": "2026-04-23 15:12:42",
    "region": "beiwaitan",
    "unit_price": 170.9,
    "lat": 31.250237,
    "lng": 121.494441
  },
  {
    "title": "整租·新外滩花苑 2室2厅 南",
    "community": "新外滩花苑",
    "area": "120.94",
    "rooms": "2室2厅",
    "direction": "南",
    "floor": "",
    "price": "15000",
    "tags": "",
    "source": "",
    "url": "https://sh.lianjia.com/zufang/SH2126618561253212160.html",
    "rent_type": "整租",
    "location": "虹口-北外滩-新外滩花苑",
    "scraped_at": "2026-04-23 15:12:42",
    "region": "beiwaitan",
    "unit_price": 124.0,
    "lat": 31.249975,
    "lng": 121.504167
  },
  {
    "title": "整租·白金府邸 3室2厅 南",
    "community": "白金府邸",
    "area": "126.61",
    "rooms": "3室2厅",
    "direction": "南",
    "floor": "",
    "price": "16000",
    "tags": "",
    "source": "",
    "url": "https://sh.lianjia.com/zufang/SH2157022329157189632.html",
    "rent_type": "整租",
    "location": "虹口-北外滩-白金府邸",
    "scraped_at": "2026-04-23 15:12:42",
    "region": "beiwaitan",
    "unit_price": 126.4,
    "lat": 31.250237,
    "lng": 121.494441
  },
  {
    "title": "整租·九联小区 1室1厅 东/东南",
    "community": "九联小区",
    "area": "38.41",
    "rooms": "1室1厅",
    "direction": "东/东南",
    "floor": "",
    "price": "4300",
    "tags": "",
    "source": "",
    "url": "https://sh.lianjia.com/zufang/SH2147219684028579840.html",
    "rent_type": "整租",
    "location": "虹口-北外滩-九联小区",
    "scraped_at": "2026-04-23 15:12:42",
    "region": "beiwaitan",
    "unit_price": 112.0,
    "lat": 31.257168,
    "lng": 121.507959
  },
  {
    "title": "整租·新外滩花苑 2室2厅 南",
    "community": "新外滩花苑",
    "area": "110.00",
    "rooms": "2室2厅",
    "direction": "南",
    "floor": "",
    "price": "17500",
    "tags": "",
    "source": "",
    "url": "https://sh.lianjia.com/zufang/SH2137813184449347584.html",
    "rent_type": "整租",
    "location": "虹口-北外滩-新外滩花苑",
    "scraped_at": "2026-04-23 15:12:42",
    "region": "beiwaitan",
    "unit_price": 159.1,
    "lat": 31.249975,
    "lng": 121.504167
  },
  {
    "title": "整租·和泰玫瑰园 3室2厅 南",
    "community": "和泰玫瑰园",
    "area": "133.24",
    "rooms": "3室2厅",
    "direction": "南",
    "floor": "",
    "price": "15000",
    "tags": "",
    "source": "",
    "url": "https://sh.lianjia.com/zufang/SH2152271991254548480.html",
    "rent_type": "整租",
    "location": "虹口-北外滩-和泰玫瑰园",
    "scraped_at": "2026-04-23 15:12:42",
    "region": "beiwaitan",
    "unit_price": 112.6,
    "lat": 31.2519,
    "lng": 121.5002
  },
  {
    "title": "整租·中虹明珠苑 3室2厅 南",
    "community": "中虹明珠苑",
    "area": "137.99",
    "rooms": "3室2厅",
    "direction": "南",
    "floor": "",
    "price": "13000",
    "tags": "",
    "source": "",
    "url": "https://sh.lianjia.com/zufang/SH2125128896016809984.html",
    "rent_type": "整租",
    "location": "虹口-北外滩-中虹明珠苑",
    "scraped_at": "2026-04-23 15:12:42",
    "region": "beiwaitan",
    "unit_price": 94.2,
    "lat": 31.256551,
    "lng": 121.502473
  },
  {
    "title": "整租·恒升半岛 1室1厅 东",
    "community": "恒升半岛",
    "area": "43.00",
    "rooms": "1室1厅",
    "direction": "东",
    "floor": "",
    "price": "6000",
    "tags": "",
    "source": "",
    "url": "https://sh.lianjia.com/zufang/SH2087740506074251264.html",
    "rent_type": "整租",
    "location": "虹口-北外滩-恒升半岛",
    "scraped_at": "2026-04-23 15:12:42",
    "region": "beiwaitan",
    "unit_price": 139.5,
    "lat": 31.24725,
    "lng": 121.489331
  },
  {
    "title": "整租·久耕小区 1室0厅 南",
    "community": "久耕小区",
    "area": "35.00",
    "rooms": "1室0厅",
    "direction": "南",
    "floor": "",
    "price": "4500",
    "tags": "",
    "source": "",
    "url": "https://sh.lianjia.com/zufang/SH2138342955621023744.html",
    "rent_type": "整租",
    "location": "虹口-北外滩-久耕小区",
    "scraped_at": "2026-04-23 15:12:42",
    "region": "beiwaitan",
    "unit_price": 128.6,
    "lat": 31.252054,
    "lng": 121.490465
  },
  {
    "title": "整租·恒升半岛 1室1厅 南",
    "community": "恒升半岛",
    "area": "64.35",
    "rooms": "1室1厅",
    "direction": "南",
    "floor": "",
    "price": "8500",
    "tags": "",
    "source": "",
    "url": "https://sh.lianjia.com/zufang/SH2142125689904562176.html",
    "rent_type": "整租",
    "location": "虹口-北外滩-恒升半岛",
    "scraped_at": "2026-04-23 15:12:42",
    "region": "beiwaitan",
    "unit_price": 132.1,
    "lat": 31.24725,
    "lng": 121.489331
  },
  {
    "title": "整租·昆山小区 1室1厅 南",
    "community": "昆山小区",
    "area": "50.86",
    "rooms": "1室1厅",
    "direction": "南",
    "floor": "",
    "price": "7300",
    "tags": "",
    "source": "",
    "url": "https://sh.lianjia.com/zufang/SH2140789391327494144.html",
    "rent_type": "整租",
    "location": "虹口-北外滩-昆山小区",
    "scraped_at": "2026-04-23 15:12:42",
    "region": "beiwaitan",
    "unit_price": 143.5,
    "lat": 31.249394,
    "lng": 121.488681
  },
  {
    "title": "整租·耀江国际广场(峨眉路299弄) 2室2厅 南",
    "community": "耀江国际广场(峨眉路299弄)",
    "area": "193.31",
    "rooms": "2室2厅",
    "direction": "南",
    "floor": "",
    "price": "16892",
    "tags": "",
    "source": "",
    "url": "https://sh.lianjia.com/zufang/SH2150891000145379328.html",
    "rent_type": "整租",
    "location": "虹口-北外滩-耀江国际广场(峨眉路",
    "scraped_at": "2026-04-23 15:12:42",
    "region": "beiwaitan",
    "unit_price": 87.4,
    "lat": 31.249638,
    "lng": 121.4903
  },
  {
    "title": "整租·恒升半岛 1室0厅 南",
    "community": "恒升半岛",
    "area": "36.25",
    "rooms": "1室0厅",
    "direction": "南",
    "floor": "",
    "price": "4800",
    "tags": "",
    "source": "",
    "url": "https://sh.lianjia.com/zufang/SH2082395172552835072.html",
    "rent_type": "整租",
    "location": "虹口-北外滩-恒升半岛",
    "scraped_at": "2026-04-23 15:12:42",
    "region": "beiwaitan",
    "unit_price": 132.4,
    "lat": 31.24725,
    "lng": 121.489331
  },
  {
    "title": "整租·新兴大厦 2室1厅 东",
    "community": "新兴大厦",
    "area": "97.85",
    "rooms": "2室1厅",
    "direction": "东",
    "floor": "",
    "price": "8300",
    "tags": "",
    "source": "",
    "url": "https://sh.lianjia.com/zufang/SH2149757219745300480.html",
    "rent_type": "整租",
    "location": "虹口-北外滩-新兴大厦",
    "scraped_at": "2026-04-23 15:12:42",
    "region": "beiwaitan",
    "unit_price": 84.8,
    "lat": 31.256966,
    "lng": 121.511009
  },
  {
    "title": "整租·新外滩花苑 4室1厅 东南/南",
    "community": "新外滩花苑",
    "area": "181.85",
    "rooms": "4室1厅",
    "direction": "东南/南",
    "floor": "",
    "price": "25000",
    "tags": "",
    "source": "",
    "url": "https://sh.lianjia.com/zufang/SH2097616791982309376.html",
    "rent_type": "整租",
    "location": "虹口-北外滩-新外滩花苑",
    "scraped_at": "2026-04-23 15:12:42",
    "region": "beiwaitan",
    "unit_price": 137.5,
    "lat": 31.249975,
    "lng": 121.504167
  },
  {
    "title": "整租·安国大楼 1室1厅 南",
    "community": "安国大楼",
    "area": "39.93",
    "rooms": "1室1厅",
    "direction": "南",
    "floor": "",
    "price": "5400",
    "tags": "",
    "source": "",
    "url": "https://sh.lianjia.com/zufang/SH2140339546208862208.html",
    "rent_type": "整租",
    "location": "虹口-北外滩-安国大楼",
    "scraped_at": "2026-04-23 15:12:42",
    "region": "beiwaitan",
    "unit_price": 135.2,
    "lat": 31.257722,
    "lng": 121.507993
  },
  {
    "title": "整租·家化公寓 3室1厅 南",
    "community": "家化公寓",
    "area": "129.16",
    "rooms": "3室1厅",
    "direction": "南",
    "floor": "",
    "price": "8500",
    "tags": "",
    "source": "",
    "url": "https://sh.lianjia.com/zufang/SH2153762130631852032.html",
    "rent_type": "整租",
    "location": "虹口-北外滩-家化公寓",
    "scraped_at": "2026-04-23 15:12:42",
    "region": "beiwaitan",
    "unit_price": 65.8,
    "lat": 31.2596,
    "lng": 121.508405
  },
  {
    "title": "整租·九联小区 1室1厅 南",
    "community": "九联小区",
    "area": "45.16",
    "rooms": "1室1厅",
    "direction": "南",
    "floor": "",
    "price": "4500",
    "tags": "",
    "source": "",
    "url": "https://sh.lianjia.com/zufang/SH2141089905067950080.html",
    "rent_type": "整租",
    "location": "虹口-北外滩-九联小区",
    "scraped_at": "2026-04-23 15:12:42",
    "region": "beiwaitan",
    "unit_price": 99.6,
    "lat": 31.257168,
    "lng": 121.507959
  },
  {
    "title": "整租·外滩·豪景苑 1室1厅 南",
    "community": "外滩·豪景苑",
    "area": "80.00",
    "rooms": "1室1厅",
    "direction": "南",
    "floor": "",
    "price": "12200",
    "tags": "",
    "source": "",
    "url": "https://sh.lianjia.com/zufang/SH2091104364365086720.html",
    "rent_type": "整租",
    "location": "虹口-北外滩-外滩",
    "scraped_at": "2026-04-23 15:12:42",
    "region": "beiwaitan",
    "unit_price": 152.5,
    "lat": 31.264917,
    "lng": 121.504994
  },
  {
    "title": "整租·唐山路509弄 2室0厅 东南",
    "community": "唐山路509弄",
    "area": "47.11",
    "rooms": "2室0厅",
    "direction": "东南",
    "floor": "",
    "price": "5800",
    "tags": "",
    "source": "",
    "url": "https://sh.lianjia.com/zufang/SH2154825349882445824.html",
    "rent_type": "整租",
    "location": "虹口-北外滩-唐山路",
    "scraped_at": "2026-04-23 15:12:42",
    "region": "beiwaitan",
    "unit_price": 123.1,
    "lat": 31.257168,
    "lng": 121.507959
  },
  {
    "title": "整租·久耕小区 1室1厅 东南",
    "community": "久耕小区",
    "area": "41.88",
    "rooms": "1室1厅",
    "direction": "东南",
    "floor": "",
    "price": "6200",
    "tags": "",
    "source": "",
    "url": "https://sh.lianjia.com/zufang/SH2156782405535399936.html",
    "rent_type": "整租",
    "location": "虹口-北外滩-久耕小区",
    "scraped_at": "2026-04-23 15:12:42",
    "region": "beiwaitan",
    "unit_price": 148.0,
    "lat": 31.252054,
    "lng": 121.490465
  },
  {
    "title": "整租·九联小区 1室1厅 南",
    "community": "九联小区",
    "area": "49.00",
    "rooms": "1室1厅",
    "direction": "南",
    "floor": "",
    "price": "5200",
    "tags": "",
    "source": "",
    "url": "https://sh.lianjia.com/zufang/SH2142271125302804480.html",
    "rent_type": "整租",
    "location": "虹口-北外滩-九联小区",
    "scraped_at": "2026-04-23 15:12:42",
    "region": "beiwaitan",
    "unit_price": 106.1,
    "lat": 31.257168,
    "lng": 121.507959
  },
  {
    "title": "整租·外滩99 3室2厅 南",
    "community": "外滩99",
    "area": "171.79",
    "rooms": "3室2厅",
    "direction": "南",
    "floor": "",
    "price": "26000",
    "tags": "",
    "source": "",
    "url": "https://sh.lianjia.com/zufang/SH2015636861430530048.html",
    "rent_type": "整租",
    "location": "虹口-北外滩-外滩",
    "scraped_at": "2026-04-23 15:12:42",
    "region": "beiwaitan",
    "unit_price": 151.3,
    "lat": 31.264917,
    "lng": 121.504994
  },
  {
    "title": "整租·新外滩花苑 3室2厅 南",
    "community": "新外滩花苑",
    "area": "180.26",
    "rooms": "3室2厅",
    "direction": "南",
    "floor": "",
    "price": "27000",
    "tags": "",
    "source": "",
    "url": "https://sh.lianjia.com/zufang/SH2078491487653330944.html",
    "rent_type": "整租",
    "location": "虹口-北外滩-新外滩花苑",
    "scraped_at": "2026-04-23 15:12:46",
    "region": "beiwaitan",
    "unit_price": 149.8,
    "lat": 31.249975,
    "lng": 121.504167
  },
  {
    "title": "整租·临江大厦 1室2厅 南",
    "community": "临江大厦",
    "area": "73.08",
    "rooms": "1室2厅",
    "direction": "南",
    "floor": "",
    "price": "9800",
    "tags": "",
    "source": "",
    "url": "https://sh.lianjia.com/zufang/SH2155158715295072256.html",
    "rent_type": "整租",
    "location": "虹口-北外滩-临江大厦",
    "scraped_at": "2026-04-23 15:12:46",
    "region": "beiwaitan",
    "unit_price": 134.1,
    "lat": 31.250841,
    "lng": 121.507415
  },
  {
    "title": "整租·云舫小区 1室1厅 南",
    "community": "云舫小区",
    "area": "47.99",
    "rooms": "1室1厅",
    "direction": "南",
    "floor": "",
    "price": "7300",
    "tags": "",
    "source": "",
    "url": "https://sh.lianjia.com/zufang/SH2153717403396079616.html",
    "rent_type": "整租",
    "location": "虹口-北外滩-云舫小区",
    "scraped_at": "2026-04-23 15:12:46",
    "region": "beiwaitan",
    "unit_price": 152.1,
    "lat": 31.254936,
    "lng": 121.514263
  },
  {
    "title": "整租·长江大楼 1室0厅 北",
    "community": "长江大楼",
    "area": "34.56",
    "rooms": "1室0厅",
    "direction": "北",
    "floor": "",
    "price": "5600",
    "tags": "",
    "source": "",
    "url": "https://sh.lianjia.com/zufang/SH2155686107533017088.html",
    "rent_type": "整租",
    "location": "虹口-北外滩-长江大楼",
    "scraped_at": "2026-04-23 15:12:46",
    "region": "beiwaitan",
    "unit_price": 162.0,
    "lat": 31.251835,
    "lng": 121.508689
  },
  {
    "title": "整租·白金湾府邸 3室2厅 南",
    "community": "白金湾府邸",
    "area": "240.17",
    "rooms": "3室2厅",
    "direction": "南",
    "floor": "",
    "price": "33000",
    "tags": "",
    "source": "",
    "url": "https://sh.lianjia.com/zufang/SH2106681086821007360.html",
    "rent_type": "整租",
    "location": "虹口-北外滩-白金湾府邸",
    "scraped_at": "2026-04-23 15:12:46",
    "region": "beiwaitan",
    "unit_price": 137.4,
    "lat": 31.250308,
    "lng": 121.506433
  },
  {
    "title": "整租·唐山路957弄 1室1厅 南",
    "community": "唐山路957弄",
    "area": "30.00",
    "rooms": "1室1厅",
    "direction": "南",
    "floor": "",
    "price": "5200",
    "tags": "",
    "source": "",
    "url": "https://sh.lianjia.com/zufang/SH2150593494077407232.html",
    "rent_type": "整租",
    "location": "虹口-北外滩-唐山路",
    "scraped_at": "2026-04-23 15:12:46",
    "region": "beiwaitan",
    "unit_price": 173.3,
    "lat": 31.257168,
    "lng": 121.507959
  },
  {
    "title": "整租·久耕小区 1室1厅 南",
    "community": "久耕小区",
    "area": "46.61",
    "rooms": "1室1厅",
    "direction": "南",
    "floor": "",
    "price": "5700",
    "tags": "",
    "source": "",
    "url": "https://sh.lianjia.com/zufang/SH2055576946133172224.html",
    "rent_type": "整租",
    "location": "虹口-北外滩-久耕小区",
    "scraped_at": "2026-04-23 15:12:46",
    "region": "beiwaitan",
    "unit_price": 122.3,
    "lat": 31.252054,
    "lng": 121.490465
  },
  {
    "title": "整租·云舫小区 2室1厅 南/西",
    "community": "云舫小区",
    "area": "56.71",
    "rooms": "2室1厅",
    "direction": "南/西",
    "floor": "",
    "price": "8000",
    "tags": "",
    "source": "",
    "url": "https://sh.lianjia.com/zufang/SH2156962300546777088.html",
    "rent_type": "整租",
    "location": "虹口-北外滩-云舫小区",
    "scraped_at": "2026-04-23 15:12:46",
    "region": "beiwaitan",
    "unit_price": 141.1,
    "lat": 31.254936,
    "lng": 121.514263
  },
  {
    "title": "整租·长江大楼 1室0厅 北",
    "community": "长江大楼",
    "area": "35.32",
    "rooms": "1室0厅",
    "direction": "北",
    "floor": "",
    "price": "4200",
    "tags": "",
    "source": "",
    "url": "https://sh.lianjia.com/zufang/SH2143608310459269120.html",
    "rent_type": "整租",
    "location": "虹口-北外滩-长江大楼",
    "scraped_at": "2026-04-23 15:12:46",
    "region": "beiwaitan",
    "unit_price": 118.9,
    "lat": 31.251835,
    "lng": 121.508689
  },
  {
    "title": "整租·新兴大厦 8室3厅 复式 东/南",
    "community": "新兴大厦",
    "area": "318.55",
    "rooms": "8室3厅",
    "direction": "",
    "floor": "",
    "price": "35000",
    "tags": "",
    "source": "",
    "url": "https://sh.lianjia.com/zufang/SH2102950641050583040.html",
    "rent_type": "整租",
    "location": "虹口-北外滩-新兴大厦",
    "scraped_at": "2026-04-23 15:12:46",
    "region": "beiwaitan",
    "unit_price": 109.9,
    "lat": 31.256966,
    "lng": 121.511009
  },
  {
    "title": "整租·扬子江大厦 2室2厅 南",
    "community": "扬子江大厦",
    "area": "114.45",
    "rooms": "2室2厅",
    "direction": "南",
    "floor": "",
    "price": "12500",
    "tags": "",
    "source": "",
    "url": "https://sh.lianjia.com/zufang/SH2153695540611645440.html",
    "rent_type": "整租",
    "location": "虹口-北外滩-扬子江大厦",
    "scraped_at": "2026-04-23 15:12:46",
    "region": "beiwaitan",
    "unit_price": 109.2,
    "lat": 31.248763,
    "lng": 121.494169
  },
  {
    "title": "整租·大众公寓 2室1厅 南",
    "community": "大众公寓",
    "area": "73.28",
    "rooms": "2室1厅",
    "direction": "南",
    "floor": "",
    "price": "8500",
    "tags": "",
    "source": "",
    "url": "https://sh.lianjia.com/zufang/SH2144416637363683328.html",
    "rent_type": "整租",
    "location": "虹口-北外滩-大众公寓",
    "scraped_at": "2026-04-23 15:12:46",
    "region": "beiwaitan",
    "unit_price": 116.0,
    "lat": 31.259864,
    "lng": 121.507725
  },
  {
    "title": "整租·名江七星城 4室2厅 南",
    "community": "名江七星城",
    "area": "170.00",
    "rooms": "4室2厅",
    "direction": "南",
    "floor": "",
    "price": "20000",
    "tags": "",
    "source": "",
    "url": "https://sh.lianjia.com/zufang/SH2004179158841688064.html",
    "rent_type": "整租",
    "location": "虹口-北外滩-名江七星城",
    "scraped_at": "2026-04-23 15:12:46",
    "region": "beiwaitan",
    "unit_price": 117.6,
    "lat": 31.251855,
    "lng": 121.494835
  },
  {
    "title": "整租·外滩·豪景苑 3室2厅 南",
    "community": "外滩·豪景苑",
    "area": "153.90",
    "rooms": "3室2厅",
    "direction": "南",
    "floor": "",
    "price": "26000",
    "tags": "",
    "source": "",
    "url": "https://sh.lianjia.com/zufang/SH1948292738319384576.html",
    "rent_type": "整租",
    "location": "虹口-北外滩-外滩",
    "scraped_at": "2026-04-23 15:12:46",
    "region": "beiwaitan",
    "unit_price": 168.9,
    "lat": 31.264917,
    "lng": 121.504994
  },
  {
    "title": "整租·恒升半岛 1室1厅 东",
    "community": "恒升半岛",
    "area": "43.90",
    "rooms": "1室1厅",
    "direction": "东",
    "floor": "",
    "price": "8700",
    "tags": "",
    "source": "",
    "url": "https://sh.lianjia.com/zufang/SH2149833282848555008.html",
    "rent_type": "整租",
    "location": "虹口-北外滩-恒升半岛",
    "scraped_at": "2026-04-23 15:12:46",
    "region": "beiwaitan",
    "unit_price": 198.2,
    "lat": 31.24725,
    "lng": 121.489331
  },
  {
    "title": "整租·恒升半岛 1室1厅 东",
    "community": "恒升半岛",
    "area": "43.90",
    "rooms": "1室1厅",
    "direction": "东",
    "floor": "",
    "price": "6500",
    "tags": "",
    "source": "",
    "url": "https://sh.lianjia.com/zufang/SH2062892096368410624.html",
    "rent_type": "整租",
    "location": "虹口-北外滩-恒升半岛",
    "scraped_at": "2026-04-23 15:12:46",
    "region": "beiwaitan",
    "unit_price": 148.1,
    "lat": 31.24725,
    "lng": 121.489331
  },
  {
    "title": "整租·河滨大楼 2室1厅 北",
    "community": "河滨大楼",
    "area": "38.42",
    "rooms": "2室1厅",
    "direction": "北",
    "floor": "",
    "price": "6500",
    "tags": "",
    "source": "",
    "url": "https://sh.lianjia.com/zufang/SH2124152927865012224.html",
    "rent_type": "整租",
    "location": "虹口-北外滩-河滨大楼",
    "scraped_at": "2026-04-23 15:12:46",
    "region": "beiwaitan",
    "unit_price": 169.2,
    "lat": 31.243399,
    "lng": 121.483491
  },
  {
    "title": "整租·弘久·新弘北外滩 3室2厅 南/北",
    "community": "弘久·新弘北外滩",
    "area": "126.48",
    "rooms": "3室2厅",
    "direction": "南/北",
    "floor": "",
    "price": "26000",
    "tags": "",
    "source": "",
    "url": "https://sh.lianjia.com/zufang/SH2150462493737091072.html",
    "rent_type": "整租",
    "location": "虹口-北外滩-弘久",
    "scraped_at": "2026-04-23 15:12:46",
    "region": "beiwaitan",
    "unit_price": 205.6,
    "lat": 31.264917,
    "lng": 121.504994
  },
  {
    "title": "整租·阳光前景 2室2厅 南/北",
    "community": "阳光前景",
    "area": "98.56",
    "rooms": "2室2厅",
    "direction": "南/北",
    "floor": "",
    "price": "12000",
    "tags": "",
    "source": "",
    "url": "https://sh.lianjia.com/zufang/SH2078041394873630720.html",
    "rent_type": "整租",
    "location": "虹口-北外滩-阳光前景",
    "scraped_at": "2026-04-23 15:12:46",
    "region": "beiwaitan",
    "unit_price": 121.8,
    "lat": 31.240631,
    "lng": 121.49098
  },
  {
    "title": "整租·融创外滩188 3室2厅 南",
    "community": "融创外滩188",
    "area": "174.00",
    "rooms": "3室2厅",
    "direction": "南",
    "floor": "",
    "price": "26500",
    "tags": "",
    "source": "",
    "url": "https://sh.lianjia.com/zufang/SH2149731176032501760.html",
    "rent_type": "整租",
    "location": "虹口-北外滩-融创外滩",
    "scraped_at": "2026-04-23 15:12:46",
    "region": "beiwaitan",
    "unit_price": 152.3,
    "lat": 31.234046,
    "lng": 121.490758
  },
  {
    "title": "整租·唐山新苑 2室2厅 南",
    "community": "唐山新苑",
    "area": "88.19",
    "rooms": "2室2厅",
    "direction": "南",
    "floor": "",
    "price": "7600",
    "tags": "",
    "source": "",
    "url": "https://sh.lianjia.com/zufang/SH2081073129337126912.html",
    "rent_type": "整租",
    "location": "虹口-北外滩-唐山新苑",
    "scraped_at": "2026-04-23 15:12:46",
    "region": "beiwaitan",
    "unit_price": 86.2,
    "lat": 31.260839,
    "lng": 121.509083
  },
  {
    "title": "整租·昆明路155弄 1室1厅 南/东北",
    "community": "昆明路155弄",
    "area": "28.56",
    "rooms": "1室1厅",
    "direction": "南/东北",
    "floor": "",
    "price": "4300",
    "tags": "",
    "source": "",
    "url": "https://sh.lianjia.com/zufang/SH2149849191273201664.html",
    "rent_type": "整租",
    "location": "虹口-北外滩-昆明路",
    "scraped_at": "2026-04-23 15:12:46",
    "region": "beiwaitan",
    "unit_price": 150.6,
    "lat": 31.249293,
    "lng": 121.488725
  },
  {
    "title": "整租·惠民路250弄 1室0厅 南",
    "community": "惠民路250弄",
    "area": "26.28",
    "rooms": "1室0厅",
    "direction": "南",
    "floor": "",
    "price": "4700",
    "tags": "",
    "source": "",
    "url": "https://sh.lianjia.com/zufang/SH2142855784407498752.html",
    "rent_type": "整租",
    "location": "虹口-北外滩-惠民路",
    "scraped_at": "2026-04-23 15:12:46",
    "region": "beiwaitan",
    "unit_price": 178.8,
    "lat": 31.254517,
    "lng": 121.514538
  },
  {
    "title": "整租·惠民小区 1室1厅 南",
    "community": "惠民小区",
    "area": "34.38",
    "rooms": "1室1厅",
    "direction": "南",
    "floor": "",
    "price": "4200",
    "tags": "",
    "source": "",
    "url": "https://sh.lianjia.com/zufang/SH2140745704266530816.html",
    "rent_type": "整租",
    "location": "虹口-北外滩-惠民小区",
    "scraped_at": "2026-04-23 15:12:46",
    "region": "beiwaitan",
    "unit_price": 122.2,
    "lat": 31.254249,
    "lng": 121.514264
  },
  {
    "title": "整租·长江大楼 1室1厅 北",
    "community": "长江大楼",
    "area": "34.56",
    "rooms": "1室1厅",
    "direction": "北",
    "floor": "",
    "price": "5600",
    "tags": "",
    "source": "",
    "url": "https://sh.lianjia.com/zufang/SH2125518038051586048.html",
    "rent_type": "整租",
    "location": "虹口-北外滩-长江大楼",
    "scraped_at": "2026-04-23 15:12:46",
    "region": "beiwaitan",
    "unit_price": 162.0,
    "lat": 31.251835,
    "lng": 121.508689
  },
  {
    "title": "整租·久耕小区 2室1厅 南",
    "community": "久耕小区",
    "area": "70.80",
    "rooms": "2室1厅",
    "direction": "南",
    "floor": "",
    "price": "7900",
    "tags": "",
    "source": "",
    "url": "https://sh.lianjia.com/zufang/SH2155960214816292864.html",
    "rent_type": "整租",
    "location": "虹口-北外滩-久耕小区",
    "scraped_at": "2026-04-23 15:12:46",
    "region": "beiwaitan",
    "unit_price": 111.6,
    "lat": 31.252054,
    "lng": 121.490465
  },
  {
    "title": "整租·鸿旭豪苑(酒店式公寓) 1室1厅 南",
    "community": "鸿旭豪苑(酒店式公寓)",
    "area": "39.07",
    "rooms": "1室1厅",
    "direction": "南",
    "floor": "",
    "price": "4800",
    "tags": "",
    "source": "",
    "url": "https://sh.lianjia.com/zufang/SH2154552630225928192.html",
    "rent_type": "整租",
    "location": "虹口-北外滩-鸿旭豪苑(酒店式公寓)",
    "scraped_at": "2026-04-23 15:12:46",
    "region": "beiwaitan",
    "unit_price": 122.9,
    "lat": 31.258382,
    "lng": 121.511762
  },
  {
    "title": "整租·榆林路238号 2室0厅 南",
    "community": "榆林路238号",
    "area": "51.41",
    "rooms": "2室0厅",
    "direction": "南",
    "floor": "",
    "price": "5300",
    "tags": "",
    "source": "",
    "url": "https://sh.lianjia.com/zufang/SH2117139057237557248.html",
    "rent_type": "整租",
    "location": "虹口-北外滩-榆林路",
    "scraped_at": "2026-04-23 15:12:46",
    "region": "beiwaitan",
    "unit_price": 103.1,
    "lat": 31.253866,
    "lng": 121.515596
  },
  {
    "title": "整租·唐山新苑 2室0厅 南",
    "community": "唐山新苑",
    "area": "70.66",
    "rooms": "2室0厅",
    "direction": "南",
    "floor": "",
    "price": "7900",
    "tags": "",
    "source": "",
    "url": "https://sh.lianjia.com/zufang/SH2145928951015407616.html",
    "rent_type": "整租",
    "location": "虹口-北外滩-唐山新苑",
    "scraped_at": "2026-04-23 15:12:46",
    "region": "beiwaitan",
    "unit_price": 111.8,
    "lat": 31.260839,
    "lng": 121.509083
  },
  {
    "title": "整租·久耕小区 2室1厅 南/北",
    "community": "久耕小区",
    "area": "53.45",
    "rooms": "2室1厅",
    "direction": "南/北",
    "floor": "",
    "price": "6500",
    "tags": "",
    "source": "",
    "url": "https://sh.lianjia.com/zufang/SH2156289605324767232.html",
    "rent_type": "整租",
    "location": "虹口-北外滩-久耕小区",
    "scraped_at": "2026-04-23 15:12:46",
    "region": "beiwaitan",
    "unit_price": 121.6,
    "lat": 31.252054,
    "lng": 121.490465
  },
  {
    "title": "整租·九联小区 1室1厅 南",
    "community": "九联小区",
    "area": "45.28",
    "rooms": "1室1厅",
    "direction": "南",
    "floor": "",
    "price": "6800",
    "tags": "",
    "source": "",
    "url": "https://sh.lianjia.com/zufang/SH2104060409878151168.html",
    "rent_type": "整租",
    "location": "虹口-北外滩-九联小区",
    "scraped_at": "2026-04-23 15:12:48",
    "region": "beiwaitan",
    "unit_price": 150.2,
    "lat": 31.257168,
    "lng": 121.507959
  },
  {
    "title": "整租·名江七星城 2室2厅 南",
    "community": "名江七星城",
    "area": "135.14",
    "rooms": "2室2厅",
    "direction": "南",
    "floor": "",
    "price": "12500",
    "tags": "",
    "source": "",
    "url": "https://sh.lianjia.com/zufang/SH2156695366060212224.html",
    "rent_type": "整租",
    "location": "虹口-北外滩-名江七星城",
    "scraped_at": "2026-04-23 15:12:48",
    "region": "beiwaitan",
    "unit_price": 92.5,
    "lat": 31.251855,
    "lng": 121.494835
  },
  {
    "title": "整租·东海小区 2室2厅 南",
    "community": "东海小区",
    "area": "43.82",
    "rooms": "2室2厅",
    "direction": "南",
    "floor": "",
    "price": "6300",
    "tags": "",
    "source": "",
    "url": "https://sh.lianjia.com/zufang/SH2138950678481993728.html",
    "rent_type": "整租",
    "location": "虹口-北外滩-东海小区",
    "scraped_at": "2026-04-23 15:12:48",
    "region": "beiwaitan",
    "unit_price": 143.8,
    "lat": 31.254925,
    "lng": 121.507643
  },
  {
    "title": "整租·三铭小区 1室1厅 南",
    "community": "三铭小区",
    "area": "38.44",
    "rooms": "1室1厅",
    "direction": "南",
    "floor": "",
    "price": "5500",
    "tags": "",
    "source": "",
    "url": "https://sh.lianjia.com/zufang/SH2063169135361130496.html",
    "rent_type": "整租",
    "location": "虹口-北外滩-三铭小区",
    "scraped_at": "2026-04-23 15:12:48",
    "region": "beiwaitan",
    "unit_price": 143.1,
    "lat": 31.25614,
    "lng": 121.505181
  },
  {
    "title": "整租·东余杭路275弄 9室5厅 南/北",
    "community": "东余杭路275弄",
    "area": "1300.00",
    "rooms": "9室5厅",
    "direction": "南/北",
    "floor": "",
    "price": "150000",
    "tags": "",
    "source": "",
    "url": "https://sh.lianjia.com/zufang/SH2154066470026346496.html",
    "rent_type": "整租",
    "location": "虹口-北外滩-东余杭路",
    "scraped_at": "2026-04-23 15:12:48",
    "region": "beiwaitan",
    "unit_price": 115.4,
    "lat": 31.251596,
    "lng": 121.493291
  },
  {
    "title": "整租·新外滩花苑 2室2厅 南",
    "community": "新外滩花苑",
    "area": "120.38",
    "rooms": "2室2厅",
    "direction": "南",
    "floor": "",
    "price": "23000",
    "tags": "",
    "source": "",
    "url": "https://sh.lianjia.com/zufang/SH2111030675632029696.html",
    "rent_type": "整租",
    "location": "虹口-北外滩-新外滩花苑",
    "scraped_at": "2026-04-23 15:12:48",
    "region": "beiwaitan",
    "unit_price": 191.1,
    "lat": 31.249975,
    "lng": 121.504167
  },
  {
    "title": "整租·馨虹苑 2室2厅 南",
    "community": "馨虹苑",
    "area": "112.67",
    "rooms": "2室2厅",
    "direction": "南",
    "floor": "",
    "price": "11500",
    "tags": "",
    "source": "",
    "url": "https://sh.lianjia.com/zufang/SH2157075830340059136.html",
    "rent_type": "整租",
    "location": "虹口-北外滩-馨虹苑",
    "scraped_at": "2026-04-23 15:12:48",
    "region": "beiwaitan",
    "unit_price": 102.1,
    "lat": 31.253722,
    "lng": 121.496946
  },
  {
    "title": "整租·春阳住宅小区 1室0厅 西",
    "community": "春阳住宅小区",
    "area": "21.00",
    "rooms": "1室0厅",
    "direction": "西",
    "floor": "",
    "price": "4000",
    "tags": "",
    "source": "",
    "url": "https://sh.lianjia.com/zufang/SH2147620039312801792.html",
    "rent_type": "整租",
    "location": "虹口-北外滩-春阳住宅小区",
    "scraped_at": "2026-04-23 15:12:48",
    "region": "beiwaitan",
    "unit_price": 190.5,
    "lat": 31.252408,
    "lng": 121.49285
  },
  {
    "title": "整租·马厂路63号 1室1厅 南",
    "community": "马厂路63号",
    "area": "34.86",
    "rooms": "1室1厅",
    "direction": "南",
    "floor": "",
    "price": "3800",
    "tags": "",
    "source": "",
    "url": "https://sh.lianjia.com/zufang/SH2095825740963512320.html",
    "rent_type": "整租",
    "location": "虹口-北外滩-马厂路",
    "scraped_at": "2026-04-23 15:12:48",
    "region": "beiwaitan",
    "unit_price": 109.0,
    "lat": 31.247944,
    "lng": 121.495569
  },
  {
    "title": "整租·建爱大厦 4室2厅 东北",
    "community": "建爱大厦",
    "area": "160.70",
    "rooms": "4室2厅",
    "direction": "东北",
    "floor": "",
    "price": "11500",
    "tags": "",
    "source": "",
    "url": "https://sh.lianjia.com/zufang/SH2064190543734243328.html",
    "rent_type": "整租",
    "location": "虹口-北外滩-建爱大厦",
    "scraped_at": "2026-04-23 15:12:48",
    "region": "beiwaitan",
    "unit_price": 71.6,
    "lat": 31.25375,
    "lng": 121.508607
  },
  {
    "title": "整租·恒升半岛 1室1厅 南",
    "community": "恒升半岛",
    "area": "43.90",
    "rooms": "1室1厅",
    "direction": "南",
    "floor": "",
    "price": "8000",
    "tags": "",
    "source": "",
    "url": "https://sh.lianjia.com/zufang/SH2118940726065627136.html",
    "rent_type": "整租",
    "location": "虹口-北外滩-恒升半岛",
    "scraped_at": "2026-04-23 15:12:48",
    "region": "beiwaitan",
    "unit_price": 182.2,
    "lat": 31.24725,
    "lng": 121.489331
  },
  {
    "title": "整租·三铭小区 1室0厅 东",
    "community": "三铭小区",
    "area": "29.70",
    "rooms": "1室0厅",
    "direction": "东",
    "floor": "",
    "price": "4000",
    "tags": "",
    "source": "",
    "url": "https://sh.lianjia.com/zufang/SH2013913368682823680.html",
    "rent_type": "整租",
    "location": "虹口-北外滩-三铭小区",
    "scraped_at": "2026-04-23 15:12:48",
    "region": "beiwaitan",
    "unit_price": 134.7,
    "lat": 31.25614,
    "lng": 121.505181
  },
  {
    "title": "整租·金山路43号 1室1厅 东/东南",
    "community": "金山路43号",
    "area": "16.00",
    "rooms": "1室1厅",
    "direction": "东/东南",
    "floor": "",
    "price": "3800",
    "tags": "",
    "source": "",
    "url": "https://sh.lianjia.com/zufang/SH2149775098687520768.html",
    "rent_type": "整租",
    "location": "虹口-北外滩-金山路",
    "scraped_at": "2026-04-23 15:12:48",
    "region": "beiwaitan",
    "unit_price": 237.5,
    "lat": 31.244823,
    "lng": 121.49136
  },
  {
    "title": "整租·新外滩花苑 3室2厅 南",
    "community": "新外滩花苑",
    "area": "157.10",
    "rooms": "3室2厅",
    "direction": "南",
    "floor": "",
    "price": "32000",
    "tags": "",
    "source": "",
    "url": "https://sh.lianjia.com/zufang/SH2096553336227495936.html",
    "rent_type": "整租",
    "location": "虹口-北外滩-新外滩花苑",
    "scraped_at": "2026-04-23 15:12:48",
    "region": "beiwaitan",
    "unit_price": 203.7,
    "lat": 31.249975,
    "lng": 121.504167
  },
  {
    "title": "整租·白金府邸 8室4厅 南",
    "community": "白金府邸",
    "area": "833.20",
    "rooms": "8室4厅",
    "direction": "南",
    "floor": "",
    "price": "60000",
    "tags": "",
    "source": "",
    "url": "https://sh.lianjia.com/zufang/SH2107024793629884416.html",
    "rent_type": "整租",
    "location": "虹口-北外滩-白金府邸",
    "scraped_at": "2026-04-23 15:12:48",
    "region": "beiwaitan",
    "unit_price": 72.0,
    "lat": 31.250237,
    "lng": 121.494441
  },
  {
    "title": "整租·浦西小区 1室1厅 南",
    "community": "浦西小区",
    "area": "25.00",
    "rooms": "1室1厅",
    "direction": "南",
    "floor": "",
    "price": "6000",
    "tags": "",
    "source": "",
    "url": "https://sh.lianjia.com/zufang/SH2137495815013269504.html",
    "rent_type": "整租",
    "location": "虹口-北外滩-浦西小区",
    "scraped_at": "2026-04-23 15:12:48",
    "region": "beiwaitan",
    "unit_price": 240.0,
    "lat": 31.247814,
    "lng": 121.486949
  },
  {
    "title": "整租·丹徒路340弄 2室1厅 南",
    "community": "丹徒路340弄",
    "area": "64.25",
    "rooms": "2室1厅",
    "direction": "南",
    "floor": "",
    "price": "6500",
    "tags": "",
    "source": "",
    "url": "https://sh.lianjia.com/zufang/SH2089277683472007168.html",
    "rent_type": "整租",
    "location": "虹口-北外滩-丹徒路",
    "scraped_at": "2026-04-23 15:12:48",
    "region": "beiwaitan",
    "unit_price": 101.2,
    "lat": 31.254117,
    "lng": 121.503053
  },
  {
    "title": "整租·恒升半岛 1室1厅 东南",
    "community": "恒升半岛",
    "area": "41.25",
    "rooms": "1室1厅",
    "direction": "东南",
    "floor": "",
    "price": "9300",
    "tags": "",
    "source": "",
    "url": "https://sh.lianjia.com/zufang/SH1896770031241396224.html",
    "rent_type": "整租",
    "location": "虹口-北外滩-恒升半岛",
    "scraped_at": "2026-04-23 15:12:48",
    "region": "beiwaitan",
    "unit_price": 225.5,
    "lat": 31.24725,
    "lng": 121.489331
  },
  {
    "title": "整租·金山路43号 1室1厅 北",
    "community": "金山路43号",
    "area": "19.40",
    "rooms": "1室1厅",
    "direction": "北",
    "floor": "",
    "price": "3800",
    "tags": "",
    "source": "",
    "url": "https://sh.lianjia.com/zufang/SH2151293020748644352.html",
    "rent_type": "整租",
    "location": "虹口-北外滩-金山路",
    "scraped_at": "2026-04-23 15:12:48",
    "region": "beiwaitan",
    "unit_price": 195.9,
    "lat": 31.244823,
    "lng": 121.49136
  },
  {
    "title": "整租·河滨大楼 1室1厅 南",
    "community": "河滨大楼",
    "area": "42.78",
    "rooms": "1室1厅",
    "direction": "南",
    "floor": "",
    "price": "9000",
    "tags": "",
    "source": "",
    "url": "https://sh.lianjia.com/zufang/SH2157504405794979840.html",
    "rent_type": "整租",
    "location": "虹口-北外滩-河滨大楼",
    "scraped_at": "2026-04-23 15:12:48",
    "region": "beiwaitan",
    "unit_price": 210.4,
    "lat": 31.243399,
    "lng": 121.483491
  },
  {
    "title": "整租·白金府邸 3室2厅 南",
    "community": "白金府邸",
    "area": "168.84",
    "rooms": "3室2厅",
    "direction": "南",
    "floor": "",
    "price": "27000",
    "tags": "",
    "source": "",
    "url": "https://sh.lianjia.com/zufang/SH1919681614065958912.html",
    "rent_type": "整租",
    "location": "虹口-北外滩-白金府邸",
    "scraped_at": "2026-04-23 15:12:48",
    "region": "beiwaitan",
    "unit_price": 159.9,
    "lat": 31.250237,
    "lng": 121.494441
  },
  {
    "title": "整租·河滨大楼 2室1厅 东南",
    "community": "河滨大楼",
    "area": "37.86",
    "rooms": "2室1厅",
    "direction": "东南",
    "floor": "",
    "price": "7000",
    "tags": "",
    "source": "",
    "url": "https://sh.lianjia.com/zufang/SH2157735081106472960.html",
    "rent_type": "整租",
    "location": "虹口-北外滩-河滨大楼",
    "scraped_at": "2026-04-23 15:12:48",
    "region": "beiwaitan",
    "unit_price": 184.9,
    "lat": 31.243399,
    "lng": 121.483491
  },
  {
    "title": "整租·名江七星城 2室2厅 南",
    "community": "名江七星城",
    "area": "130.00",
    "rooms": "2室2厅",
    "direction": "南",
    "floor": "",
    "price": "13000",
    "tags": "",
    "source": "",
    "url": "https://sh.lianjia.com/zufang/SH2130602745797804032.html",
    "rent_type": "整租",
    "location": "虹口-北外滩-名江七星城",
    "scraped_at": "2026-04-23 15:12:48",
    "region": "beiwaitan",
    "unit_price": 100.0,
    "lat": 31.251855,
    "lng": 121.494835
  },
  {
    "title": "整租·春阳住宅小区 1室0厅 南",
    "community": "春阳住宅小区",
    "area": "22.00",
    "rooms": "1室0厅",
    "direction": "南",
    "floor": "",
    "price": "3500",
    "tags": "",
    "source": "",
    "url": "https://sh.lianjia.com/zufang/SH2151227306419421184.html",
    "rent_type": "整租",
    "location": "虹口-北外滩-春阳住宅小区",
    "scraped_at": "2026-04-23 15:12:48",
    "region": "beiwaitan",
    "unit_price": 159.1,
    "lat": 31.252408,
    "lng": 121.49285
  },
  {
    "title": "整租·唐山新苑 3室1厅 南",
    "community": "唐山新苑",
    "area": "119.13",
    "rooms": "3室1厅",
    "direction": "南",
    "floor": "",
    "price": "9200",
    "tags": "",
    "source": "",
    "url": "https://sh.lianjia.com/zufang/SH2152691992096669696.html",
    "rent_type": "整租",
    "location": "虹口-北外滩-唐山新苑",
    "scraped_at": "2026-04-23 15:12:48",
    "region": "beiwaitan",
    "unit_price": 77.2,
    "lat": 31.260839,
    "lng": 121.509083
  },
  {
    "title": "整租·外滩·豪景苑 2室2厅 南/北",
    "community": "外滩·豪景苑",
    "area": "123.72",
    "rooms": "2室2厅",
    "direction": "南/北",
    "floor": "",
    "price": "22500",
    "tags": "",
    "source": "",
    "url": "https://sh.lianjia.com/zufang/SH2153047742509744128.html",
    "rent_type": "整租",
    "location": "虹口-北外滩-外滩",
    "scraped_at": "2026-04-23 15:12:48",
    "region": "beiwaitan",
    "unit_price": 181.9,
    "lat": 31.264917,
    "lng": 121.504994
  },
  {
    "title": "整租·恒升半岛 1室1厅 北",
    "community": "恒升半岛",
    "area": "40.85",
    "rooms": "1室1厅",
    "direction": "北",
    "floor": "",
    "price": "5800",
    "tags": "",
    "source": "",
    "url": "https://sh.lianjia.com/zufang/SH2153766315003740160.html",
    "rent_type": "整租",
    "location": "虹口-北外滩-恒升半岛",
    "scraped_at": "2026-04-23 15:12:48",
    "region": "beiwaitan",
    "unit_price": 142.0,
    "lat": 31.24725,
    "lng": 121.489331
  },
  {
    "title": "整租·大众公寓 2室0厅 南",
    "community": "大众公寓",
    "area": "71.49",
    "rooms": "2室0厅",
    "direction": "南",
    "floor": "",
    "price": "6800",
    "tags": "",
    "source": "",
    "url": "https://sh.lianjia.com/zufang/SH2150187015709130752.html",
    "rent_type": "整租",
    "location": "虹口-北外滩-大众公寓",
    "scraped_at": "2026-04-23 15:12:48",
    "region": "beiwaitan",
    "unit_price": 95.1,
    "lat": 31.259864,
    "lng": 121.507725
  },
  {
    "title": "整租·河滨大楼 1室1厅 北",
    "community": "河滨大楼",
    "area": "36.73",
    "rooms": "1室1厅",
    "direction": "北",
    "floor": "",
    "price": "7000",
    "tags": "",
    "source": "",
    "url": "https://sh.lianjia.com/zufang/SH2138143550003478528.html",
    "rent_type": "整租",
    "location": "虹口-北外滩-河滨大楼",
    "scraped_at": "2026-04-23 15:12:48",
    "region": "beiwaitan",
    "unit_price": 190.6,
    "lat": 31.243399,
    "lng": 121.483491
  },
  {
    "title": "整租·闵行路201号 1室1厅 南",
    "community": "闵行路201号",
    "area": "50.00",
    "rooms": "1室1厅",
    "direction": "南",
    "floor": "",
    "price": "5500",
    "tags": "",
    "source": "",
    "url": "https://sh.lianjia.com/zufang/SH2155208445471490048.html",
    "rent_type": "整租",
    "location": "虹口-北外滩-闵行路",
    "scraped_at": "2026-04-23 15:12:48",
    "region": "beiwaitan",
    "unit_price": 110.0,
    "lat": 31.246955,
    "lng": 121.491155
  },
  {
    "title": "整租·汤臣豪园一期 4室2厅 南",
    "community": "汤臣豪园一期",
    "area": "188.63",
    "rooms": "4室2厅",
    "direction": "南",
    "floor": "",
    "price": "25000",
    "tags": "",
    "source": "",
    "url": "https://sh.lianjia.com/zufang/SH2140457501286465536.html",
    "rent_type": "整租",
    "location": "浦东-张江-汤臣豪园一期",
    "scraped_at": "2026-04-23 15:34:23",
    "region": "zhenru",
    "unit_price": 132.5,
    "lat": 31.209999,
    "lng": 121.585405
  },
  {
    "title": "整租·汤臣豪园一期 4室2厅 复式 南",
    "community": "汤臣豪园一期",
    "area": "257.23",
    "rooms": "4室2厅",
    "direction": "",
    "floor": "",
    "price": "26000",
    "tags": "",
    "source": "",
    "url": "https://sh.lianjia.com/zufang/SH2154797458205442048.html",
    "rent_type": "整租",
    "location": "浦东-张江-汤臣豪园一期",
    "scraped_at": "2026-04-23 15:34:23",
    "region": "zhenru",
    "unit_price": 101.1,
    "lat": 31.209999,
    "lng": 121.585405
  },
  {
    "title": "整租·汤臣豪园(二期) 4室2厅 复式 南",
    "community": "汤臣豪园(二期)",
    "area": "226.99",
    "rooms": "4室2厅",
    "direction": "",
    "floor": "",
    "price": "22000",
    "tags": "",
    "source": "",
    "url": "https://sh.lianjia.com/zufang/SH2096606769806573568.html",
    "rent_type": "整租",
    "location": "浦东-张江-汤臣豪园(二期)",
    "scraped_at": "2026-04-23 15:34:23",
    "region": "zhenru",
    "unit_price": 96.9,
    "lat": 31.208639,
    "lng": 121.582621
  },
  {
    "title": "整租·东郊紫园 5室3厅 复式 南",
    "community": "东郊紫园",
    "area": "456.00",
    "rooms": "5室3厅",
    "direction": "",
    "floor": "",
    "price": "58800",
    "tags": "",
    "source": "",
    "url": "https://sh.lianjia.com/zufang/SH1991443717344460800.html",
    "rent_type": "整租",
    "location": "浦东-张江-东郊紫园",
    "scraped_at": "2026-04-23 15:34:23",
    "region": "zhenru",
    "unit_price": 128.9,
    "lat": 31.178775,
    "lng": 121.624074
  },
  {
    "title": "整租·东郊紫园 4室2厅 复式 南",
    "community": "东郊紫园",
    "area": "377.41",
    "rooms": "4室2厅",
    "direction": "",
    "floor": "",
    "price": "50000",
    "tags": "",
    "source": "",
    "url": "https://sh.lianjia.com/zufang/SH2075535813352882176.html",
    "rent_type": "整租",
    "location": "浦东-张江-东郊紫园",
    "scraped_at": "2026-04-23 15:34:23",
    "region": "zhenru",
    "unit_price": 132.5,
    "lat": 31.178775,
    "lng": 121.624074
  },
  {
    "title": "整租·万科翡翠公园三期 4室2厅 南",
    "community": "万科翡翠公园三期",
    "area": "211.30",
    "rooms": "4室2厅",
    "direction": "南",
    "floor": "",
    "price": "20000",
    "tags": "",
    "source": "",
    "url": "https://sh.lianjia.com/zufang/SH2146820704148914176.html",
    "rent_type": "整租",
    "location": "浦东-张江-万科翡翠公园三期",
    "scraped_at": "2026-04-23 15:34:23",
    "region": "zhenru",
    "unit_price": 94.7,
    "lat": 31.180094,
    "lng": 121.610047
  },
  {
    "title": "整租·东郊紫园 5室2厅 复式 南",
    "community": "东郊紫园",
    "area": "377.00",
    "rooms": "5室2厅",
    "direction": "",
    "floor": "",
    "price": "40000",
    "tags": "",
    "source": "",
    "url": "https://sh.lianjia.com/zufang/SH2153059674553843712.html",
    "rent_type": "整租",
    "location": "浦东-张江-东郊紫园",
    "scraped_at": "2026-04-23 15:34:23",
    "region": "zhenru",
    "unit_price": 106.1,
    "lat": 31.178775,
    "lng": 121.624074
  },
  {
    "title": "整租·万科翡翠公园四期 4室2厅 南/北",
    "community": "万科翡翠公园四期",
    "area": "179.82",
    "rooms": "4室2厅",
    "direction": "南/北",
    "floor": "",
    "price": "25000",
    "tags": "",
    "source": "",
    "url": "https://sh.lianjia.com/zufang/SH2150263552722599936.html",
    "rent_type": "整租",
    "location": "浦东-张江-万科翡翠公园四期",
    "scraped_at": "2026-04-23 15:31:56",
    "region": "wuning",
    "unit_price": 139.0,
    "lat": 31.179139,
    "lng": 121.610609
  },
  {
    "title": "整租·和泰花园 2室2厅 南/北",
    "community": "和泰花园",
    "area": "102.07",
    "rooms": "2室2厅",
    "direction": "南/北",
    "floor": "",
    "price": "8400",
    "tags": "",
    "source": "",
    "url": "https://sh.lianjia.com/zufang/SH2018314199259676672.html",
    "rent_type": "整租",
    "location": "静安-不夜城-和泰花园",
    "scraped_at": "2026-04-23 15:13:18",
    "region": "buyecheng",
    "unit_price": 82.3,
    "lat": 31.257448,
    "lng": 121.451405
  },
  {
    "title": "整租·灵广花园 1室2厅 南/北",
    "community": "灵广花园",
    "area": "66.58",
    "rooms": "1室2厅",
    "direction": "南/北",
    "floor": "",
    "price": "6600",
    "tags": "",
    "source": "",
    "url": "https://sh.lianjia.com/zufang/SH2154060072236351488.html",
    "rent_type": "整租",
    "location": "静安-不夜城-灵广花园",
    "scraped_at": "2026-04-23 15:12:55",
    "region": "buyecheng",
    "unit_price": 99.1,
    "lat": 31.256197,
    "lng": 121.462283
  },
  {
    "title": "整租·汉中小区 2室1厅 南",
    "community": "汉中小区",
    "area": "40.36",
    "rooms": "2室1厅",
    "direction": "南",
    "floor": "",
    "price": "5000",
    "tags": "",
    "source": "",
    "url": "https://sh.lianjia.com/zufang/SH2133052774038896640.html",
    "rent_type": "整租",
    "location": "静安-不夜城-汉中小区",
    "scraped_at": "2026-04-23 15:13:18",
    "region": "buyecheng",
    "unit_price": 123.9,
    "lat": 31.225377,
    "lng": 121.430806
  },
  {
    "title": "独栋·微音公寓 汉中路地铁站店 近嘉里不夜城企业中心马戏城 民用水电 汉中路地铁口好房押一付一 1室1厅",
    "community": "微音公寓 汉中路地铁站店 近嘉里不夜城企业中心马戏城 民用水电 汉中路地铁口好房押一付一",
    "area": "40.00",
    "rooms": "1室1厅",
    "direction": "",
    "floor": "",
    "price": "4541-5450",
    "tags": "",
    "source": "",
    "url": "https://sh.lianjia.com/apartment/104386.html",
    "rent_type": "独栋",
    "location": "",
    "scraped_at": "2026-04-23 15:12:59",
    "region": "buyecheng",
    "unit_price": "",
    "lat": 31.244944,
    "lng": 121.458351
  },
  {
    "title": "整租·一天下大厦 1室1厅 南",
    "community": "一天下大厦",
    "area": "49.14",
    "rooms": "1室1厅",
    "direction": "南",
    "floor": "",
    "price": "5000",
    "tags": "",
    "source": "",
    "url": "https://sh.lianjia.com/zufang/SH2144789454164852736.html",
    "rent_type": "整租",
    "location": "静安-不夜城-一天下大厦",
    "scraped_at": "2026-04-23 15:13:18",
    "region": "buyecheng",
    "unit_price": 101.8,
    "lat": 31.240689,
    "lng": 121.457442
  },
  {
    "title": "整租·汉中小区 2室1厅 南/北",
    "community": "汉中小区",
    "area": "40.36",
    "rooms": "2室1厅",
    "direction": "南/北",
    "floor": "",
    "price": "5000",
    "tags": "",
    "source": "",
    "url": "https://sh.lianjia.com/zufang/SH2146448759024779264.html",
    "rent_type": "整租",
    "location": "静安-不夜城-汉中小区",
    "scraped_at": "2026-04-23 15:13:18",
    "region": "buyecheng",
    "unit_price": 123.9,
    "lat": 31.225377,
    "lng": 121.430806
  },
  {
    "title": "整租·苏河融景 5室3厅 南",
    "community": "苏河融景",
    "area": "230.51",
    "rooms": "5室3厅",
    "direction": "南",
    "floor": "",
    "price": "48000",
    "tags": "",
    "source": "",
    "url": "https://sh.lianjia.com/zufang/SH2103049184515981312.html",
    "rent_type": "整租",
    "location": "静安-不夜城-苏河融景",
    "scraped_at": "2026-04-23 15:12:55",
    "region": "buyecheng",
    "unit_price": 208.2,
    "lat": 31.24209,
    "lng": 121.454389
  },
  {
    "title": "整租·汉中小区 2室1厅 南",
    "community": "汉中小区",
    "area": "70.48",
    "rooms": "2室1厅",
    "direction": "南",
    "floor": "",
    "price": "7100",
    "tags": "",
    "source": "",
    "url": "https://sh.lianjia.com/zufang/SH2049789409443708928.html",
    "rent_type": "整租",
    "location": "静安-不夜城-汉中小区",
    "scraped_at": "2026-04-23 15:13:18",
    "region": "buyecheng",
    "unit_price": 100.7,
    "lat": 31.225377,
    "lng": 121.430806
  },
  {
    "title": "独栋·瑢寓社区 恒丰路店 独栋公寓可短租月付，家电齐全拎包入住 1室1厅",
    "community": "瑢寓社区 恒丰路店 独栋公寓可短租月付，家电齐全拎包入住",
    "area": "20.00",
    "rooms": "1室1厅",
    "direction": "",
    "floor": "",
    "price": "3184",
    "tags": "",
    "source": "",
    "url": "https://sh.lianjia.com/apartment/107469.html",
    "rent_type": "独栋",
    "location": "",
    "scraped_at": "2026-04-23 15:13:05",
    "region": "buyecheng",
    "unit_price": 159.2,
    "lat": 31.241263,
    "lng": 121.456791
  },
  {
    "title": "整租·中海万锦城(四期) 1室2厅 南",
    "community": "中海万锦城(四期)",
    "area": "44.09",
    "rooms": "1室2厅",
    "direction": "南",
    "floor": "",
    "price": "6712",
    "tags": "",
    "source": "",
    "url": "https://sh.lianjia.com/zufang/SH1927615775959416832.html",
    "rent_type": "整租",
    "location": "静安-不夜城-中海万锦城(四期)",
    "scraped_at": "2026-04-23 15:13:18",
    "region": "buyecheng",
    "unit_price": 152.2,
    "lat": 31.250585,
    "lng": 121.459774
  },
  {
    "title": "独栋·友间公寓 大统路社区 上海火车站/汉中路/人民广场/金融街/维修快/带电梯/大明窗/民水电/可做饭B 开间",
    "community": "友间公寓 大统路社区 上海火车站/汉中路/人民广场/金融街/维修快/带电梯/大明窗/民水电/可做饭B 开间",
    "area": "25.00",
    "rooms": "",
    "direction": "",
    "floor": "",
    "price": "4680",
    "tags": "",
    "source": "",
    "url": "https://sh.lianjia.com/apartment/25277.html",
    "rent_type": "独栋",
    "location": "",
    "scraped_at": "2026-04-23 15:12:59",
    "region": "buyecheng",
    "unit_price": 187.2,
    "lat": 31.255521,
    "lng": 121.459087
  },
  {
    "title": "整租·中兴财富国际公寓 2室2厅 南",
    "community": "中兴财富国际公寓",
    "area": "90.15",
    "rooms": "2室2厅",
    "direction": "南",
    "floor": "",
    "price": "8400",
    "tags": "",
    "source": "",
    "url": "https://sh.lianjia.com/zufang/SH1948605398202187776.html",
    "rent_type": "整租",
    "location": "静安-不夜城-中兴财富国际公寓",
    "scraped_at": "2026-04-23 15:13:18",
    "region": "buyecheng",
    "unit_price": 93.2,
    "lat": 31.253219,
    "lng": 121.463238
  },
  {
    "title": "整租·一天下大厦 1室1厅 西南",
    "community": "一天下大厦",
    "area": "43.68",
    "rooms": "1室1厅",
    "direction": "西南",
    "floor": "",
    "price": "4400",
    "tags": "",
    "source": "",
    "url": "https://sh.lianjia.com/zufang/SH2002296372329447424.html",
    "rent_type": "整租",
    "location": "静安-不夜城-一天下大厦",
    "scraped_at": "2026-04-23 15:13:18",
    "region": "buyecheng",
    "unit_price": 100.7,
    "lat": 31.240689,
    "lng": 121.457442
  },
  {
    "title": "整租·长安大厦 1室1厅 北",
    "community": "长安大厦",
    "area": "54.27",
    "rooms": "1室1厅",
    "direction": "北",
    "floor": "",
    "price": "5250",
    "tags": "",
    "source": "",
    "url": "https://sh.lianjia.com/zufang/SH2014647852617170944.html",
    "rent_type": "整租",
    "location": "静安-不夜城-长安大厦",
    "scraped_at": "2026-04-23 15:13:18",
    "region": "buyecheng",
    "unit_price": 96.7,
    "lat": 31.244527,
    "lng": 121.452764
  },
  {
    "title": "整租·中海万锦城(四期) 2室1厅 错层 东",
    "community": "中海万锦城(四期)",
    "area": "58.00",
    "rooms": "2室1厅",
    "direction": "",
    "floor": "",
    "price": "7000",
    "tags": "",
    "source": "",
    "url": "https://sh.lianjia.com/zufang/SH2144995408194043904.html",
    "rent_type": "整租",
    "location": "静安-不夜城-中海万锦城(四期)",
    "scraped_at": "2026-04-23 15:12:55",
    "region": "buyecheng",
    "unit_price": 120.7,
    "lat": 31.250585,
    "lng": 121.459774
  },
  {
    "title": "独栋·城家公寓 城家公寓上海火车站苏河一号店 地铁直达人民广场！超大落地窗！超大公区！可办理居住证!无中介费！ 开间",
    "community": "城家公寓 城家公寓上海火车站苏河一号店 地铁直达人民广场！超大落地窗！超大公区！可办理居住证!无中介费！ 开间",
    "area": "51.00",
    "rooms": "",
    "direction": "",
    "floor": "",
    "price": "6700",
    "tags": "",
    "source": "",
    "url": "https://sh.lianjia.com/apartment/502.html",
    "rent_type": "独栋",
    "location": "",
    "scraped_at": "2026-04-23 15:12:59",
    "region": "buyecheng",
    "unit_price": 131.4,
    "lat": 31.228725,
    "lng": 121.475186
  },
  {
    "title": "整租·一天下大厦 1室1厅 南",
    "community": "一天下大厦",
    "area": "47.66",
    "rooms": "1室1厅",
    "direction": "南",
    "floor": "",
    "price": "5000",
    "tags": "",
    "source": "",
    "url": "https://sh.lianjia.com/zufang/SH2156424821490057216.html",
    "rent_type": "整租",
    "location": "静安-不夜城-一天下大厦",
    "scraped_at": "2026-04-23 15:13:14",
    "region": "buyecheng",
    "unit_price": 104.9,
    "lat": 31.240689,
    "lng": 121.457442
  },
  {
    "title": "整租·富泉公寓 3室2厅 南",
    "community": "富泉公寓",
    "area": "118.32",
    "rooms": "3室2厅",
    "direction": "南",
    "floor": "",
    "price": "10500",
    "tags": "",
    "source": "",
    "url": "https://sh.lianjia.com/zufang/SH2126159554633793536.html",
    "rent_type": "整租",
    "location": "静安-不夜城-富泉公寓",
    "scraped_at": "2026-04-23 15:12:55",
    "region": "buyecheng",
    "unit_price": 88.7,
    "lat": 31.24923,
    "lng": 121.462052
  },
  {
    "title": "整租·沪太家具大厦 2室1厅 南",
    "community": "沪太家具大厦",
    "area": "49.82",
    "rooms": "2室1厅",
    "direction": "南",
    "floor": "",
    "price": "4830",
    "tags": "",
    "source": "",
    "url": "https://sh.lianjia.com/zufang/SH2017848884679671808.html",
    "rent_type": "整租",
    "location": "静安-不夜城-沪太家具大厦",
    "scraped_at": "2026-04-23 15:13:18",
    "region": "buyecheng",
    "unit_price": 96.9,
    "lat": 31.257924,
    "lng": 121.450428
  },
  {
    "title": "整租·一天下大厦 1室1厅 南",
    "community": "一天下大厦",
    "area": "46.45",
    "rooms": "1室1厅",
    "direction": "南",
    "floor": "",
    "price": "4400",
    "tags": "",
    "source": "",
    "url": "https://sh.lianjia.com/zufang/SH1958470046757945344.html",
    "rent_type": "整租",
    "location": "静安-不夜城-一天下大厦",
    "scraped_at": "2026-04-23 15:13:18",
    "region": "buyecheng",
    "unit_price": 94.7,
    "lat": 31.240689,
    "lng": 121.457442
  },
  {
    "title": "整租·联通国际大厦 2室2厅 南",
    "community": "联通国际大厦",
    "area": "91.04",
    "rooms": "2室2厅",
    "direction": "南",
    "floor": "",
    "price": "8200",
    "tags": "",
    "source": "",
    "url": "https://sh.lianjia.com/zufang/SH2154774711911841792.html",
    "rent_type": "整租",
    "location": "静安-不夜城-联通国际大厦",
    "scraped_at": "2026-04-23 15:13:02",
    "region": "buyecheng",
    "unit_price": 90.1,
    "lat": 31.245837,
    "lng": 121.449637
  },
  {
    "title": "整租·中海万锦城(四期) 2室2厅 东",
    "community": "中海万锦城(四期)",
    "area": "61.55",
    "rooms": "2室2厅",
    "direction": "东",
    "floor": "",
    "price": "7800",
    "tags": "",
    "source": "",
    "url": "https://sh.lianjia.com/zufang/SH2154860917379039232.html",
    "rent_type": "整租",
    "location": "静安-不夜城-中海万锦城(四期)",
    "scraped_at": "2026-04-23 15:13:02",
    "region": "buyecheng",
    "unit_price": 126.7,
    "lat": 31.250585,
    "lng": 121.459774
  },
  {
    "title": "整租·紫兰苑 3室1厅 南/北",
    "community": "紫兰苑",
    "area": "98.91",
    "rooms": "3室1厅",
    "direction": "南/北",
    "floor": "",
    "price": "7500",
    "tags": "",
    "source": "",
    "url": "https://sh.lianjia.com/zufang/SH2154804024132501504.html",
    "rent_type": "整租",
    "location": "静安-不夜城-紫兰苑",
    "scraped_at": "2026-04-23 15:13:02",
    "region": "buyecheng",
    "unit_price": 75.8,
    "lat": 31.255002,
    "lng": 121.456074
  },
  {
    "title": "整租·金甸大楼 3室0厅 南",
    "community": "金甸大楼",
    "area": "113.68",
    "rooms": "3室0厅",
    "direction": "南",
    "floor": "",
    "price": "9000",
    "tags": "",
    "source": "",
    "url": "https://sh.lianjia.com/zufang/SH2156234962762727424.html",
    "rent_type": "整租",
    "location": "静安-不夜城-金甸大楼",
    "scraped_at": "2026-04-23 15:12:59",
    "region": "buyecheng",
    "unit_price": 79.2,
    "lat": 31.25912,
    "lng": 121.456149
  },
  {
    "title": "整租·兴新小区 1室1厅 南",
    "community": "兴新小区",
    "area": "38.00",
    "rooms": "1室1厅",
    "direction": "南",
    "floor": "",
    "price": "3570",
    "tags": "",
    "source": "",
    "url": "https://sh.lianjia.com/zufang/SH2104922956437127168.html",
    "rent_type": "整租",
    "location": "静安-不夜城-兴新小区",
    "scraped_at": "2026-04-23 15:12:59",
    "region": "buyecheng",
    "unit_price": 93.9,
    "lat": 31.243898,
    "lng": 121.472158
  },
  {
    "title": "整租·金融街融府 2室1厅 南/北",
    "community": "金融街融府",
    "area": "83.25",
    "rooms": "2室1厅",
    "direction": "南/北",
    "floor": "",
    "price": "15000",
    "tags": "",
    "source": "",
    "url": "https://sh.lianjia.com/zufang/SH2157410032654745600.html",
    "rent_type": "整租",
    "location": "静安-不夜城-金融街融府",
    "scraped_at": "2026-04-23 15:12:59",
    "region": "buyecheng",
    "unit_price": 180.2,
    "lat": 31.253915,
    "lng": 121.450678
  },
  {
    "title": "整租·林顿大厦 2室1厅 西南",
    "community": "林顿大厦",
    "area": "105.33",
    "rooms": "2室1厅",
    "direction": "西南",
    "floor": "",
    "price": "9660",
    "tags": "",
    "source": "",
    "url": "https://sh.lianjia.com/zufang/SH2012082943886884864.html",
    "rent_type": "整租",
    "location": "静安-不夜城-林顿大厦",
    "scraped_at": "2026-04-23 15:13:18",
    "region": "buyecheng",
    "unit_price": 91.7,
    "lat": 31.255294,
    "lng": 121.451414
  },
  {
    "title": "独栋·抱家公寓 静安店 可短租1个月 上海火车站6号出口步行3分钟一居室朝南·独卫·大床房 开间",
    "community": "抱家公寓 静安店 可短租1个月 上海火车站6号出口步行3分钟一居室朝南·独卫·大床房 开间",
    "area": "28.00",
    "rooms": "",
    "direction": "",
    "floor": "",
    "price": "3700",
    "tags": "",
    "source": "",
    "url": "https://sh.lianjia.com/apartment/87744.html",
    "rent_type": "独栋",
    "location": "",
    "scraped_at": "2026-04-23 15:12:59",
    "region": "buyecheng",
    "unit_price": 132.1,
    "lat": 31.249601,
    "lng": 121.455704
  },
  {
    "title": "整租·中兴财富国际公寓 1室1厅 南",
    "community": "中兴财富国际公寓",
    "area": "57.54",
    "rooms": "1室1厅",
    "direction": "南",
    "floor": "",
    "price": "6000",
    "tags": "",
    "source": "",
    "url": "https://sh.lianjia.com/zufang/SH1752680630287597568.html",
    "rent_type": "整租",
    "location": "静安-不夜城-中兴财富国际公寓",
    "scraped_at": "2026-04-23 15:12:59",
    "region": "buyecheng",
    "unit_price": 104.3,
    "lat": 31.253219,
    "lng": 121.463238
  },
  {
    "title": "整租·兴新小区 1室1厅 北",
    "community": "兴新小区",
    "area": "41.38",
    "rooms": "1室1厅",
    "direction": "北",
    "floor": "",
    "price": "4200",
    "tags": "",
    "source": "",
    "url": "https://sh.lianjia.com/zufang/SH1753076185329303552.html",
    "rent_type": "整租",
    "location": "静安-不夜城-兴新小区",
    "scraped_at": "2026-04-23 15:12:59",
    "region": "buyecheng",
    "unit_price": 101.5,
    "lat": 31.243898,
    "lng": 121.472158
  },