[
  {
    "title": "整租·汤臣豪园一期 4室2厅 南",
    "community": "汤臣豪园一期",
    "area": "188.63",
    "rooms": "4室2厅",
    "direction": "南",
    "floor": "",
    "price": "25000",
    "tags": "",
    "source": "",
    "url": "https://sh.lianjia.com/zufang/SH2140457501286465536.html",
    "rent_type": "整租",
    "location": "浦东-张江-汤臣豪园一期",
    "scraped_at": "2026-04-23 17:01:40",
    "region": "yingpu",
    "unit_price": 132.5,
    "lat": 31.209999,
    "lng": 121.585405
  },
  {
    "title": "整租·汤臣豪园一期 4室2厅 复式 南",
    "community": "汤臣豪园一期",
    "area": "257.23",
    "rooms": "4室2厅",
    "direction": "",
    "floor": "",
    "price": "26000",
    "tags": "",
    "source": "",
    "url": "https://sh.lianjia.com/zufang/SH2154797458205442048.html",
    "rent_type": "整租",
    "location": "浦东-张江-汤臣豪园一期",
    "scraped_at": "2026-04-23 17:01:40",
    "region": "yingpu",
    "unit_price": 101.1,
    "lat": 31.209999,
    "lng": 121.585405
  },
  {
    "title": "整租·汤臣豪园(二期) 4室2厅 复式 南",
    "community": "汤臣豪园(二期)",
    "area": "226.99",
    "rooms": "4室2厅",
    "direction": "",
    "floor": "",
    "price": "22000",
    "tags": "",
    "source": "",
    "url": "https://sh.lianjia.com/zufang/SH2096606769806573568.html",
    "rent_type": "整租",
    "location": "浦东-张江-汤臣豪园(二期)",
    "scraped_at": "2026-04-23 17:01:40",
    "region": "yingpu",
    "unit_price": 96.9,
    "lat": 31.208639,
    "lng": 121.582621
  },
  {
    "title": "整租·东郊紫园 5室3厅 复式 南",
    "community": "东郊紫园",
    "area": "456.00",
    "rooms": "5室3厅",
    "direction": "",
    "floor": "",
    "price": "58800",
    "tags": "",
    "source": "",
    "url": "https://sh.lianjia.com/zufang/SH1991443717344460800.html",
    "rent_type": "整租",
    "location": "浦东-张江-东郊紫园",
    "scraped_at": "2026-04-23 17:01:36",
    "region": "yingpu",
    "unit_price": 128.9,
    "lat": 31.178775,
    "lng": 121.624074
  },
  {
    "title": "整租·东郊紫园 4室2厅 复式 南",
    "community": "东郊紫园",
    "area": "377.41",
    "rooms": "4室2厅",
    "direction": "",
    "floor": "",
    "price": "50000",
    "tags": "",
    "source": "",
    "url": "https://sh.lianjia.com/zufang/SH2075535813352882176.html",
    "rent_type": "整租",
    "location": "浦东-张江-东郊紫园",
    "scraped_at": "2026-04-23 17:01:40",
    "region": "yingpu",
    "unit_price": 132.5,
    "lat": 31.178775,
    "lng": 121.624074
  },
  {
    "title": "整租·万科翡翠公园三期 4室2厅 南",
    "community": "万科翡翠公园三期",
    "area": "211.30",
    "rooms": "4室2厅",
    "direction": "南",
    "floor": "",
    "price": "20000",
    "tags": "",
    "source": "",
    "url": "https://sh.lianjia.com/zufang/SH2146820704148914176.html",
    "rent_type": "整租",
    "location": "浦东-张江-万科翡翠公园三期",
    "scraped_at": "2026-04-23 17:01:40",
    "region": "yingpu",
    "unit_price": 94.7,
    "lat": 31.180094,
    "lng": 121.610047
  },
  {
    "title": "整租·东郊紫园 5室2厅 复式 南",
    "community": "东郊紫园",
    "area": "377.00",
    "rooms": "5室2厅",
    "direction": "",
    "floor": "",
    "price": "40000",
    "tags": "",
    "source": "",
    "url": "https://sh.lianjia.com/zufang/SH2153059674553843712.html",
    "rent_type": "整租",
    "location": "浦东-张江-东郊紫园",
    "scraped_at": "2026-04-23 17:01:40",
    "region": "yingpu",
    "unit_price": 106.1,
    "lat": 31.178775,
    "lng": 121.624074
  },
  {
    "title": "整租·万科翡翠公园四期 4室2厅 南/北",
    "community": "万科翡翠公园四期",
    "area": "179.82",
    "rooms": "4室2厅",
    "direction": "南/北",
    "floor": "",
    "price": "25000",
    "tags": "",
    "source": "",
    "url": "https://sh.lianjia.com/zufang/SH2150263552722599936.html",
    "rent_type": "整租",
    "location": "浦东-张江-万科翡翠公园四期",
    "scraped_at": "2026-04-23 17:01:40",
    "region": "yingpu",
    "unit_price": 139.0,
    "lat": 31.179139,
    "lng": 121.610609
  },
  {
    "title": "整租·万科翡翠公园五期 3室3厅 东南",
    "community": "万科翡翠公园五期",
    "area": "148.89",
    "rooms": "3室3厅",
    "direction": "东南",
    "floor": "",
    "price": "21000",
    "tags": "",
    "source": "",
    "url": "https://sh.lianjia.com/zufang/SH2155588429230899200.html",
    "rent_type": "整租",
    "location": "浦东-张江-万科翡翠公园五期",
    "scraped_at": "2026-04-23 17:01:40",
    "region": "yingpu",
    "unit_price": 141.0,
    "lat": 31.180249,
    "lng": 121.61266
  },
  {
    "title": "整租·中南君悦府 3室2厅 南",
    "community": "中南君悦府",
    "area": "112.09",
    "rooms": "3室2厅",
    "direction": "南",
    "floor": "",
    "price": "5300",
    "tags": "",
    "source": "",
    "url": "https://sh.lianjia.com/zufang/SH2152748381313695744.html",
    "rent_type": "整租",
    "location": "青浦-盈浦-中南君悦府",
    "scraped_at": "2026-04-23 17:01:23",
    "region": "yingpu",
    "unit_price": 47.3,
    "lat": 31.134032,
    "lng": 121.076418
  },
  {
    "title": "整租·贺桥公寓 2室2厅 南",
    "community": "贺桥公寓",
    "area": "88.00",
    "rooms": "2室2厅",
    "direction": "南",
    "floor": "",
    "price": "3800",
    "tags": "",
    "source": "",
    "url": "https://sh.lianjia.com/zufang/SH2157774461850353664.html",
    "rent_type": "整租",
    "location": "青浦-盈浦-贺桥公寓",
    "scraped_at": "2026-04-23 17:00:33",
    "region": "yingpu",
    "unit_price": 43.2,
    "lat": 31.161584,
    "lng": 121.114203
  },
  {
    "title": "整租·铂悦公馆 2室1厅 南",
    "community": "铂悦公馆",
    "area": "83.31",
    "rooms": "2室1厅",
    "direction": "南",
    "floor": "",
    "price": "3500",
    "tags": "",
    "source": "",
    "url": "https://sh.lianjia.com/zufang/SH2153496774835175424.html",
    "rent_type": "整租",
    "location": "青浦-盈浦-铂悦公馆",
    "scraped_at": "2026-04-23 17:01:23",
    "region": "yingpu",
    "unit_price": 42.0,
    "lat": 31.16974,
    "lng": 121.100194
  },
  {
    "title": "独栋·云寓 东渡悦来城店 首月最高减免1200，华为练秋湖最近商业综合体，距地铁50米，精致一室户 开间",
    "community": "云寓 东渡悦来城店 首月最高减免1200，华为练秋湖最近商业综合体，距地铁50米，精致一室户 开间",
    "area": "45.00",
    "rooms": "",
    "direction": "",
    "floor": "",
    "price": "2512-2602",
    "tags": "",
    "source": "",
    "url": "https://sh.lianjia.com/apartment/104720.html",
    "rent_type": "独栋",
    "location": "",
    "scraped_at": "2026-04-23 17:00:15",
    "region": "yingpu",
    "unit_price": "",
    "lat": 31.228124,
    "lng": 121.434973
  },
  {
    "title": "整租·景瑞城中公园 3室2厅 南",
    "community": "景瑞城中公园",
    "area": "155.26",
    "rooms": "3室2厅",
    "direction": "南",
    "floor": "",
    "price": "4400",
    "tags": "",
    "source": "",
    "url": "https://sh.lianjia.com/zufang/SH2087906312254914560.html",
    "rent_type": "整租",
    "location": "青浦-盈浦-景瑞城中公园",
    "scraped_at": "2026-04-23 17:01:31",
    "region": "yingpu",
    "unit_price": 28.3,
    "lat": 31.157643,
    "lng": 121.113353
  },
  {
    "title": "独栋·云寓 盈浦店 首月最高减免1200华为练秋湖最近商业综合体，距地铁30米，精致一室户 开间",
    "community": "云寓 盈浦店 首月最高减免1200华为练秋湖最近商业综合体，距地铁30米，精致一室户 开间",
    "area": "44.00",
    "rooms": "",
    "direction": "",
    "floor": "",
    "price": "3061-3077",
    "tags": "",
    "source": "",
    "url": "https://sh.lianjia.com/apartment/95183.html",
    "rent_type": "独栋",
    "location": "",
    "scraped_at": "2026-04-23 17:00:19",
    "region": "yingpu",
    "unit_price": "",
    "lat": 31.017302,
    "lng": 121.699118
  },
  {
    "title": "整租·东渡悦都荟 2室0厅 南",
    "community": "东渡悦都荟",
    "area": "60.00",
    "rooms": "2室0厅",
    "direction": "南",
    "floor": "",
    "price": "2500",
    "tags": "",
    "source": "",
    "url": "https://sh.lianjia.com/zufang/SH2095471321906413568.html",
    "rent_type": "整租",
    "location": "青浦-盈浦-东渡悦都荟",
    "scraped_at": "2026-04-23 17:01:31",
    "region": "yingpu",
    "unit_price": 41.7,
    "lat": 31.136117,
    "lng": 121.083291
  },
  {
    "title": "整租·景港名人苑 2室2厅 南",
    "community": "景港名人苑",
    "area": "90.37",
    "rooms": "2室2厅",
    "direction": "南",
    "floor": "",
    "price": "3350",
    "tags": "",
    "source": "",
    "url": "https://sh.lianjia.com/zufang/SH2154070526358716416.html",
    "rent_type": "整租",
    "location": "青浦-盈浦-景港名人苑",
    "scraped_at": "2026-04-23 17:00:15",
    "region": "yingpu",
    "unit_price": 37.1,
    "lat": 31.149757,
    "lng": 121.100938
  },
  {
    "title": "整租·宝业·活力天地 2室1厅 南",
    "community": "宝业·活力天地",
    "area": "81.68",
    "rooms": "2室1厅",
    "direction": "南",
    "floor": "",
    "price": "4500",
    "tags": "",
    "source": "",
    "url": "https://sh.lianjia.com/zufang/SH1720419388152086528.html",
    "rent_type": "整租",
    "location": "青浦-盈浦-宝业",
    "scraped_at": "2026-04-23 17:01:31",
    "region": "yingpu",
    "unit_price": 55.1,
    "lat": 31.244167,
    "lng": 121.223725
  },
  {
    "title": "独栋·瓴寓 首创禧悦风华店 朝南温馨一室户带阳台烧燃气 1室1厅",
    "community": "瓴寓 首创禧悦风华店 朝南温馨一室户带阳台烧燃气",
    "area": "50.00",
    "rooms": "1室1厅",
    "direction": "",
    "floor": "",
    "price": "3050",
    "tags": "",
    "source": "",
    "url": "https://sh.lianjia.com/apartment/50556.html",
    "rent_type": "独栋",
    "location": "",
    "scraped_at": "2026-04-23 17:00:21",
    "region": "yingpu",
    "unit_price": 61.0,
    "lat": 31.133428,
    "lng": 121.089382
  },
  {
    "title": "整租·青浦万达茂(公寓) 2室2厅 南",
    "community": "青浦万达茂(公寓)",
    "area": "52.67",
    "rooms": "2室2厅",
    "direction": "南",
    "floor": "",
    "price": "3400",
    "tags": "",
    "source": "",
    "url": "https://sh.lianjia.com/zufang/SH2146279632926670848.html",
    "rent_type": "整租",
    "location": "青浦-盈浦-青浦万达茂(公寓)",
    "scraped_at": "2026-04-23 17:01:31",
    "region": "yingpu",
    "unit_price": 64.6,
    "lat": 31.133415,
    "lng": 121.082812
  },
  {
    "title": "整租·东渡悦都荟 1室1厅 南",
    "community": "东渡悦都荟",
    "area": "45.07",
    "rooms": "1室1厅",
    "direction": "南",
    "floor": "",
    "price": "2300",
    "tags": "",
    "source": "",
    "url": "https://sh.lianjia.com/zufang/SH2148444251233452032.html",
    "rent_type": "整租",
    "location": "青浦-盈浦-东渡悦都荟",
    "scraped_at": "2026-04-23 17:01:31",
    "region": "yingpu",
    "unit_price": 51.0,
    "lat": 31.136117,
    "lng": 121.083291
  },
  {
    "title": "整租·铂悦公馆 1室1厅 南",
    "community": "铂悦公馆",
    "area": "65.44",
    "rooms": "1室1厅",
    "direction": "南",
    "floor": "",
    "price": "3050",
    "tags": "",
    "source": "",
    "url": "https://sh.lianjia.com/zufang/SH2150635140487839744.html",
    "rent_type": "整租",
    "location": "青浦-盈浦-铂悦公馆",
    "scraped_at": "2026-04-23 17:01:31",
    "region": "yingpu",
    "unit_price": 46.6,
    "lat": 31.16974,
    "lng": 121.100194
  },
  {
    "title": "独栋·云寓 淀山湖大道店 首月租金最高减免1200，精致一室户，超大落地窗，阳光沐浴居家享受 开间",
    "community": "云寓 淀山湖大道店 首月租金最高减免1200，精致一室户，超大落地窗，阳光沐浴居家享受 开间",
    "area": "31.00",
    "rooms": "",
    "direction": "",
    "floor": "",
    "price": "3000",
    "tags": "",
    "source": "",
    "url": "https://sh.lianjia.com/apartment/95182.html",
    "rent_type": "独栋",
    "location": "",
    "scraped_at": "2026-04-23 17:00:19",
    "region": "yingpu",
    "unit_price": 96.8,
    "lat": 31.261843,
    "lng": 121.470145
  },
  {
    "title": "整租·首创禧悦丽苑 3室2厅 南",
    "community": "首创禧悦丽苑",
    "area": "85.78",
    "rooms": "3室2厅",
    "direction": "南",
    "floor": "",
    "price": "4700",
    "tags": "",
    "source": "",
    "url": "https://sh.lianjia.com/zufang/SH2157131477848948736.html",
    "rent_type": "整租",
    "location": "青浦-盈浦-首创禧悦丽苑",
    "scraped_at": "2026-04-23 17:01:23",
    "region": "yingpu",
    "unit_price": 54.8,
    "lat": 31.04262,
    "lng": 121.534207
  },
  {
    "title": "整租·东渡悦来城 2室2厅 南",
    "community": "东渡悦来城",
    "area": "90.00",
    "rooms": "2室2厅",
    "direction": "南",
    "floor": "",
    "price": "4800",
    "tags": "",
    "source": "",
    "url": "https://sh.lianjia.com/zufang/SH2156276707860938752.html",
    "rent_type": "整租",
    "location": "青浦-盈浦-东渡悦来城",
    "scraped_at": "2026-04-23 17:00:33",
    "region": "yingpu",
    "unit_price": 53.3,
    "lat": 31.135202,
    "lng": 121.081277
  },
  {
    "title": "整租·西虹桥壹号 2室2厅 南",
    "community": "西虹桥壹号",
    "area": "72.60",
    "rooms": "2室2厅",
    "direction": "南",
    "floor": "",
    "price": "4500",
    "tags": "",
    "source": "",
    "url": "https://sh.lianjia.com/zufang/SH2609494499919142912.html",
    "rent_type": "整租",
    "location": "青浦-盈浦-西虹桥壹号",
    "scraped_at": "2026-04-23 17:01:23",
    "region": "yingpu",
    "unit_price": 62.0,
    "lat": 31.136799,
    "lng": 121.077987
  },
  {
    "title": "整租·佳丽花园 2室2厅 南/北",
    "community": "佳丽花园",
    "area": "104.75",
    "rooms": "2室2厅",
    "direction": "南/北",
    "floor": "",
    "price": "3600",
    "tags": "",
    "source": "",
    "url": "https://sh.lianjia.com/zufang/SH2146155129227706368.html",
    "rent_type": "整租",
    "location": "青浦-盈浦-佳丽花园",
    "scraped_at": "2026-04-23 17:00:15",
    "region": "yingpu",
    "unit_price": 34.4,
    "lat": 31.156405,
    "lng": 121.126699
  },
  {
    "title": "整租·铂悦公馆 1室1厅 南/北",
    "community": "铂悦公馆",
    "area": "54.40",
    "rooms": "1室1厅",
    "direction": "南/北",
    "floor": "",
    "price": "2700",
    "tags": "",
    "source": "",
    "url": "https://sh.lianjia.com/zufang/SH2138619083589943296.html",
    "rent_type": "整租",
    "location": "青浦-盈浦-铂悦公馆",
    "scraped_at": "2026-04-23 17:01:23",
    "region": "yingpu",
    "unit_price": 49.6,
    "lat": 31.16974,
    "lng": 121.100194
  },
  {
    "title": "整租·虹桥玫瑰公馆 3室2厅 南",
    "community": "虹桥玫瑰公馆",
    "area": "95.00",
    "rooms": "3室2厅",
    "direction": "南",
    "floor": "",
    "price": "5000",
    "tags": "",
    "source": "",
    "url": "https://sh.lianjia.com/zufang/SH2697003521458577408.html",
    "rent_type": "整租",
    "location": "青浦-盈浦-虹桥玫瑰公馆",
    "scraped_at": "2026-04-23 17:01:36",
    "region": "yingpu",
    "unit_price": 52.6,
    "lat": 31.148506,
    "lng": 121.111596
  },
  {
    "title": "整租·融信铂爵 3室2厅 南",
    "community": "融信铂爵",
    "area": "90.74",
    "rooms": "3室2厅",
    "direction": "南",
    "floor": "",
    "price": "5000",
    "tags": "",
    "source": "",
    "url": "https://sh.lianjia.com/zufang/SH2146475120674209792.html",
    "rent_type": "整租",
    "location": "青浦-盈浦-融信铂爵",
    "scraped_at": "2026-04-23 17:00:15",
    "region": "yingpu",
    "unit_price": 55.1,
    "lat": 31.135655,
    "lng": 121.079199
  },
  {
    "title": "整租·旭辉百合宫馆 2室2厅 南",
    "community": "旭辉百合宫馆",
    "area": "90.00",
    "rooms": "2室2厅",
    "direction": "南",
    "floor": "",
    "price": "3800",
    "tags": "",
    "source": "",
    "url": "https://sh.lianjia.com/zufang/SH2149483412166017024.html",
    "rent_type": "整租",
    "location": "青浦-盈浦-旭辉百合宫馆",
    "scraped_at": "2026-04-23 17:00:15",
    "region": "yingpu",
    "unit_price": 42.2,
    "lat": 31.169087,
    "lng": 121.091948
  },
  {
    "title": "整租·铂悦公馆 1室1厅 南",
    "community": "铂悦公馆",
    "area": "65.44",
    "rooms": "1室1厅",
    "direction": "南",
    "floor": "",
    "price": "3200",
    "tags": "",
    "source": "",
    "url": "https://sh.lianjia.com/zufang/SH2089935237881528320.html",
    "rent_type": "整租",
    "location": "青浦-盈浦-铂悦公馆",
    "scraped_at": "2026-04-23 17:00:33",
    "region": "yingpu",
    "unit_price": 48.9,
    "lat": 31.16974,
    "lng": 121.100194
  },
  {
    "title": "整租·首创禧悦丽苑 3室1厅 南",
    "community": "首创禧悦丽苑",
    "area": "85.78",
    "rooms": "3室1厅",
    "direction": "南",
    "floor": "",
    "price": "4900",
    "tags": "",
    "source": "",
    "url": "https://sh.lianjia.com/zufang/SH2092959871929417728.html",
    "rent_type": "整租",
    "location": "青浦-盈浦-首创禧悦丽苑",
    "scraped_at": "2026-04-23 17:00:33",
    "region": "yingpu",
    "unit_price": 57.1,
    "lat": 31.04262,
    "lng": 121.534207
  },
  {
    "title": "整租·东渡悦都荟 1室1厅 东",
    "community": "东渡悦都荟",
    "area": "45.00",
    "rooms": "1室1厅",
    "direction": "东",
    "floor": "",
    "price": "2300",
    "tags": "",
    "source": "",
    "url": "https://sh.lianjia.com/zufang/SH2139615401145794560.html",
    "rent_type": "整租",
    "location": "青浦-盈浦-东渡悦都荟",
    "scraped_at": "2026-04-23 17:01:31",
    "region": "yingpu",
    "unit_price": 51.1,
    "lat": 31.136117,
    "lng": 121.083291
  },
  {
    "title": "整租·青浦万达茂(公寓) 2室2厅 西",
    "community": "青浦万达茂(公寓)",
    "area": "56.00",
    "rooms": "2室2厅",
    "direction": "西",
    "floor": "",
    "price": "3100",
    "tags": "",
    "source": "",
    "url": "https://sh.lianjia.com/zufang/SH2109160021915860992.html",
    "rent_type": "整租",
    "location": "青浦-盈浦-青浦万达茂(公寓)",
    "scraped_at": "2026-04-23 17:00:33",
    "region": "yingpu",
    "unit_price": 55.4,
    "lat": 31.133415,
    "lng": 121.082812
  },
  {
    "title": "整租·富绅时代公馆 3室2厅 南",
    "community": "富绅时代公馆",
    "area": "89.00",
    "rooms": "3室2厅",
    "direction": "南",
    "floor": "",
    "price": "4400",
    "tags": "",
    "source": "",
    "url": "https://sh.lianjia.com/zufang/SH2144464068830822400.html",
    "rent_type": "整租",
    "location": "青浦-盈浦-富绅时代公馆",
    "scraped_at": "2026-04-23 17:01:31",
    "region": "yingpu",
    "unit_price": 49.4,
    "lat": 31.244167,
    "lng": 121.223725
  },
  {
    "title": "整租·上善水樾 3室2厅 南",
    "community": "上善水樾",
    "area": "88.06",
    "rooms": "3室2厅",
    "direction": "南",
    "floor": "",
    "price": "3900",
    "tags": "",
    "source": "",
    "url": "https://sh.lianjia.com/zufang/SH2074065108559986688.html",
    "rent_type": "整租",
    "location": "青浦-盈浦-上善水樾",
    "scraped_at": "2026-04-23 17:01:31",
    "region": "yingpu",
    "unit_price": 44.3,
    "lat": 31.03619,
    "lng": 121.052254
  },
  {
    "title": "整租·西虹桥壹号 3室2厅 南",
    "community": "西虹桥壹号",
    "area": "93.19",
    "rooms": "3室2厅",
    "direction": "南",
    "floor": "",
    "price": "5200",
    "tags": "",
    "source": "",
    "url": "https://sh.lianjia.com/zufang/SH2107878670881259520.html",
    "rent_type": "整租",
    "location": "青浦-盈浦-西虹桥壹号",
    "scraped_at": "2026-04-23 17:01:31",
    "region": "yingpu",
    "unit_price": 55.8,
    "lat": 31.136799,
    "lng": 121.077987
  },
  {
    "title": "整租·东渡青筑 1室1厅 南",
    "community": "东渡青筑",
    "area": "70.62",
    "rooms": "1室1厅",
    "direction": "南",
    "floor": "",
    "price": "3300",
    "tags": "",
    "source": "",
    "url": "https://sh.lianjia.com/zufang/SH2111796036132405248.html",
    "rent_type": "整租",
    "location": "青浦-盈浦-东渡青筑",
    "scraped_at": "2026-04-23 17:00:33",
    "region": "yingpu",
    "unit_price": 46.7,
    "lat": 31.132424,
    "lng": 121.087817
  },
  {
    "title": "整租·东渡青筑 2室1厅 南/北",
    "community": "东渡青筑",
    "area": "67.66",
    "rooms": "2室1厅",
    "direction": "南/北",
    "floor": "",
    "price": "2799",
    "tags": "",
    "source": "",
    "url": "https://sh.lianjia.com/zufang/SH1763506183722762240.html",
    "rent_type": "整租",
    "location": "青浦-盈浦-东渡青筑",
    "scraped_at": "2026-04-23 17:01:28",
    "region": "yingpu",
    "unit_price": 41.4,
    "lat": 31.132424,
    "lng": 121.087817
  },
  {
    "title": "整租·东渡悦都荟 1室1厅 南",
    "community": "东渡悦都荟",
    "area": "46.56",
    "rooms": "1室1厅",
    "direction": "南",
    "floor": "",
    "price": "2500",
    "tags": "",
    "source": "",
    "url": "https://sh.lianjia.com/zufang/SH1746919393356414976.html",
    "rent_type": "整租",
    "location": "青浦-盈浦-东渡悦都荟",
    "scraped_at": "2026-04-23 17:01:28",
    "region": "yingpu",
    "unit_price": 53.7,
    "lat": 31.136117,
    "lng": 121.083291
  },
  {
    "title": "整租·富力桃园C区 3室1厅 南/北",
    "community": "富力桃园C区",
    "area": "90.17",
    "rooms": "3室1厅",
    "direction": "南/北",
    "floor": "",
    "price": "3900",
    "tags": "",
    "source": "",
    "url": "https://sh.lianjia.com/zufang/SH2131012135096942592.html",
    "rent_type": "整租",
    "location": "青浦-盈浦-富力桃园",
    "scraped_at": "2026-04-23 17:01:31",
    "region": "yingpu",
    "unit_price": 43.3,
    "lat": 31.164569,
    "lng": 121.092081
  },
  {
    "title": "整租·金域水岸苑 3室2厅 南",
    "community": "金域水岸苑",
    "area": "144.56",
    "rooms": "3室2厅",
    "direction": "南",
    "floor": "",
    "price": "4356",
    "tags": "",
    "source": "",
    "url": "https://sh.lianjia.com/zufang/SH1766390898167382016.html",
    "rent_type": "整租",
    "location": "青浦-盈浦-金域水岸苑",
    "scraped_at": "2026-04-23 17:01:28",
    "region": "yingpu",
    "unit_price": 30.1,
    "lat": 31.160432,
    "lng": 121.100488
  },
  {
    "title": "独栋·首创和园. 芳菲店 长租享更大优惠 民用水电可月付 1室1厅",
    "community": "首创和园. 芳菲店 长租享更大优惠 民用水电可月付",
    "area": "42.00",
    "rooms": "1室1厅",
    "direction": "",
    "floor": "",
    "price": "2512",
    "tags": "",
    "source": "",
    "url": "https://sh.lianjia.com/apartment/71116.html",
    "rent_type": "独栋",
    "location": "",
    "scraped_at": "2026-04-23 17:00:19",
    "region": "yingpu",
    "unit_price": 59.8,
    "lat": 31.179086,
    "lng": 121.286736
  },
  {
    "title": "整租·盈港新村 2室1厅 南",
    "community": "盈港新村",
    "area": "53.14",
    "rooms": "2室1厅",
    "direction": "南",
    "floor": "",
    "price": "2550",
    "tags": "",
    "source": "",
    "url": "https://sh.lianjia.com/zufang/SH2412298767878864896.html",
    "rent_type": "整租",
    "location": "青浦-盈浦-盈港新村",
    "scraped_at": "2026-04-23 17:01:31",
    "region": "yingpu",
    "unit_price": 48.0,
    "lat": 31.153835,
    "lng": 121.104806
  },
  {
    "title": "整租·万寿新村五区 2室2厅 南",
    "community": "万寿新村五区",
    "area": "130.00",
    "rooms": "2室2厅",
    "direction": "南",
    "floor": "",
    "price": "4000",
    "tags": "",
    "source": "",
    "url": "https://sh.lianjia.com/zufang/SH2120000503113842688.html",
    "rent_type": "整租",
    "location": "青浦-盈浦-万寿新村五区",
    "scraped_at": "2026-04-23 17:00:21",
    "region": "yingpu",
    "unit_price": 30.8,
    "lat": 31.157852,
    "lng": 121.108687
  },
  {
    "title": "独栋·首创和园. 禧悦风华店 朝南带阳台一居室地铁直达华为练秋湖研发中心 1室1厅",
    "community": "首创和园. 禧悦风华店 朝南带阳台一居室地铁直达华为练秋湖研发中心",
    "area": "45.00",
    "rooms": "1室1厅",
    "direction": "",
    "floor": "",
    "price": "2934",
    "tags": "",
    "source": "",
    "url": "https://sh.lianjia.com/apartment/88962.html",
    "rent_type": "独栋",
    "location": "",
    "scraped_at": "2026-04-23 17:00:19",
    "region": "yingpu",
    "unit_price": 65.2,
    "lat": 31.294142,
    "lng": 121.460577
  },
  {
    "title": "整租·东渡悦都荟 1室0厅 南",
    "community": "东渡悦都荟",
    "area": "42.00",
    "rooms": "1室0厅",
    "direction": "南",
    "floor": "",
    "price": "2800",
    "tags": "",
    "source": "",
    "url": "https://sh.lianjia.com/zufang/SH1731988220511518720.html",
    "rent_type": "整租",
    "location": "青浦-盈浦-东渡悦都荟",
    "scraped_at": "2026-04-23 17:01:31",
    "region": "yingpu",
    "unit_price": 66.7,
    "lat": 31.136117,
    "lng": 121.083291
  },
  {
    "title": "整租·金域水岸苑 4室2厅 南",
    "community": "金域水岸苑",
    "area": "200.07",
    "rooms": "4室2厅",
    "direction": "南",
    "floor": "",
    "price": "6800",
    "tags": "",
    "source": "",
    "url": "https://sh.lianjia.com/zufang/SH2140796426370678784.html",
    "rent_type": "整租",
    "location": "青浦-盈浦-金域水岸苑",
    "scraped_at": "2026-04-23 17:00:19",
    "region": "yingpu",
    "unit_price": 34.0,
    "lat": 31.160432,
    "lng": 121.100488
  },
  {
    "title": "独栋·芃家社区 青赵公路店 精致一室户 月付 独立卫浴 免费健身房 开间",
    "community": "芃家社区 青赵公路店 精致一室户 月付 独立卫浴 免费健身房 开间",
    "area": "25.00",
    "rooms": "",
    "direction": "",
    "floor": "",
    "price": "2399",
    "tags": "",
    "source": "",
    "url": "https://sh.lianjia.com/apartment/100349.html",
    "rent_type": "独栋",
    "location": "",
    "scraped_at": "2026-04-23 17:00:19",
    "region": "yingpu",
    "unit_price": 96.0,
    "lat": 31.151121,
    "lng": 121.103136
  },
  {
    "title": "整租·东渡悦都荟 2室0厅 南",
    "community": "东渡悦都荟",
    "area": "60.32",
    "rooms": "2室0厅",
    "direction": "南",
    "floor": "",
    "price": "2800",
    "tags": "",
    "source": "",
    "url": "https://sh.lianjia.com/zufang/SH1684918485223735296.html",
    "rent_type": "整租",
    "location": "青浦-盈浦-东渡悦都荟",
    "scraped_at": "2026-04-23 17:01:31",
    "region": "yingpu",
    "unit_price": 46.4,
    "lat": 31.136117,
    "lng": 121.083291
  },
  {
    "title": "整租·东渡悦都荟 2室1厅 南",
    "community": "东渡悦都荟",
    "area": "46.56",
    "rooms": "2室1厅",
    "direction": "南",
    "floor": "",
    "price": "2940",
    "tags": "",
    "source": "",
    "url": "https://sh.lianjia.com/zufang/SH1757971759950200832.html",
    "rent_type": "整租",
    "location": "青浦-盈浦-东渡悦都荟",
    "scraped_at": "2026-04-23 17:01:23",
    "region": "yingpu",
    "unit_price": 63.1,
    "lat": 31.136117,
    "lng": 121.083291
  },
  {
    "title": "整租·北极星广场 2室1厅 东南",
    "community": "北极星广场",
    "area": "48.50",
    "rooms": "2室1厅",
    "direction": "东南",
    "floor": "",
    "price": "2600",
    "tags": "",
    "source": "",
    "url": "https://sh.lianjia.com/zufang/SH2141086206681677824.html",
    "rent_type": "整租",
    "location": "青浦-盈浦-北极星广场",
    "scraped_at": "2026-04-23 17:00:19",
    "region": "yingpu",
    "unit_price": 53.6,
    "lat": 31.140216,
    "lng": 121.093021
  },
  {
    "title": "整租·东渡悦都荟 2室0厅 南",
    "community": "东渡悦都荟",
    "area": "60.32",
    "rooms": "2室0厅",
    "direction": "南",
    "floor": "",
    "price": "3500",
    "tags": "",
    "source": "",
    "url": "https://sh.lianjia.com/zufang/SH2141410995715702784.html",
    "rent_type": "整租",
    "location": "青浦-盈浦-东渡悦都荟",
    "scraped_at": "2026-04-23 17:00:19",
    "region": "yingpu",
    "unit_price": 58.0,
    "lat": 31.136117,
    "lng": 121.083291
  },
  {
    "title": "整租·首创禧悦(一期) 3室2厅 南",
    "community": "首创禧悦(一期)",
    "area": "105.00",
    "rooms": "3室2厅",
    "direction": "南",
    "floor": "",
    "price": "5700",
    "tags": "",
    "source": "",
    "url": "https://sh.lianjia.com/zufang/SH2141895241270034432.html",
    "rent_type": "整租",
    "location": "青浦-盈浦-首创禧悦(一期)",
    "scraped_at": "2026-04-23 17:00:19",
    "region": "yingpu",
    "unit_price": 54.3,
    "lat": 31.132564,
    "lng": 121.085487
  },
  {
    "title": "整租·首创禧悦(一期) 2室1厅 南",
    "community": "首创禧悦(一期)",
    "area": "75.84",
    "rooms": "2室1厅",
    "direction": "南",
    "floor": "",
    "price": "3800",
    "tags": "",
    "source": "",
    "url": "https://sh.lianjia.com/zufang/SH2144656104771026944.html",
    "rent_type": "整租",
    "location": "青浦-盈浦-首创禧悦(一期)",
    "scraped_at": "2026-04-23 17:00:19",
    "region": "yingpu",
    "unit_price": 50.1,
    "lat": 31.132564,
    "lng": 121.085487
  },
  {
    "title": "整租·五浦汇B区崧子苑 2室2厅 南",
    "community": "五浦汇B区崧子苑",
    "area": "86.70",
    "rooms": "2室2厅",
    "direction": "南",
    "floor": "",
    "price": "2650",
    "tags": "",
    "source": "",
    "url": "https://sh.lianjia.com/zufang/SH1882362215302955008.html",
    "rent_type": "整租",
    "location": "青浦-盈浦-五浦汇",
    "scraped_at": "2026-04-23 17:00:21",
    "region": "yingpu",
    "unit_price": 30.6,
    "lat": 31.145642,
    "lng": 121.084846
  },
  {
    "title": "整租·浩泽家园 2室1厅 南/北",
    "community": "浩泽家园",
    "area": "94.28",
    "rooms": "2室1厅",
    "direction": "南/北",
    "floor": "",
    "price": "3690",
    "tags": "",
    "source": "",
    "url": "https://sh.lianjia.com/zufang/SH2119677242874265600.html",
    "rent_type": "整租",
    "location": "青浦-盈浦-浩泽家园",
    "scraped_at": "2026-04-23 17:00:21",
    "region": "yingpu",
    "unit_price": 39.1,
    "lat": 31.151126,
    "lng": 121.092438
  },
  {
    "title": "整租·铂悦公馆 1室1厅 南",
    "community": "铂悦公馆",
    "area": "50.92",
    "rooms": "1室1厅",
    "direction": "南",
    "floor": "",
    "price": "2835",
    "tags": "",
    "source": "",
    "url": "https://sh.lianjia.com/zufang/SH1852624324775641088.html",
    "rent_type": "整租",
    "location": "青浦-盈浦-铂悦公馆",
    "scraped_at": "2026-04-23 17:00:21",
    "region": "yingpu",
    "unit_price": 55.7,
    "lat": 31.16974,
    "lng": 121.100194
  },
  {
    "title": "独栋·首创和园. 繁花里一期 民用水电 可月付 近地铁交通便利 1室1厅",
    "community": "首创和园. 繁花里一期 民用水电 可月付 近地铁交通便利",
    "area": "43.00",
    "rooms": "1室1厅",
    "direction": "",
    "floor": "",
    "price": "2668",
    "tags": "",
    "source": "",
    "url": "https://sh.lianjia.com/apartment/76784.html",
    "rent_type": "独栋",
    "location": "",
    "scraped_at": "2026-04-23 17:00:21",
    "region": "yingpu",
    "unit_price": 62.0,
    "lat": 31.14061,
    "lng": 121.309863
  },
  {
    "title": "整租·旭辉玫瑰湾 3室1厅 南",
    "community": "旭辉玫瑰湾",
    "area": "84.05",
    "rooms": "3室1厅",
    "direction": "南",
    "floor": "",
    "price": "4300",
    "tags": "",
    "source": "",
    "url": "https://sh.lianjia.com/zufang/SH2145435196202156032.html",
    "rent_type": "整租",
    "location": "青浦-盈浦-旭辉玫瑰湾",
    "scraped_at": "2026-04-23 17:00:21",
    "region": "yingpu",
    "unit_price": 51.2,
    "lat": 31.166739,
    "lng": 121.097407
  },
  {
    "title": "整租·首创禧悦丽苑 2室1厅 南",
    "community": "首创禧悦丽苑",
    "area": "85.78",
    "rooms": "2室1厅",
    "direction": "南",
    "floor": "",
    "price": "5260",
    "tags": "",
    "source": "",
    "url": "https://sh.lianjia.com/zufang/SH1777379765129314304.html",
    "rent_type": "整租",
    "location": "青浦-盈浦-首创禧悦丽苑",
    "scraped_at": "2026-04-23 17:00:21",
    "region": "yingpu",
    "unit_price": 61.3,
    "lat": 31.04262,
    "lng": 121.534207
  },
  {
    "title": "整租·民乐佳苑一区 4室2厅 南",
    "community": "民乐佳苑一区",
    "area": "116.00",
    "rooms": "4室2厅",
    "direction": "南",
    "floor": "",
    "price": "4200",
    "tags": "",
    "source": "",
    "url": "https://sh.lianjia.com/zufang/SH1964219693367558144.html",
    "rent_type": "整租",
    "location": "青浦-盈浦-民乐佳苑一区",
    "scraped_at": "2026-04-23 17:01:28",
    "region": "yingpu",
    "unit_price": 36.2,
    "lat": 31.261354,
    "lng": 121.094432
  },
  {
    "title": "整租·五浦汇c区顾会庭 2室1厅 南",
    "community": "五浦汇c区顾会庭",
    "area": "78.00",
    "rooms": "2室1厅",
    "direction": "南",
    "floor": "",
    "price": "3308",
    "tags": "",
    "source": "",
    "url": "https://sh.lianjia.com/zufang/SH2007430594094432256.html",
    "rent_type": "整租",
    "location": "青浦-盈浦-五浦汇",
    "scraped_at": "2026-04-23 17:01:28",
    "region": "yingpu",
    "unit_price": 42.4,
    "lat": 31.244167,
    "lng": 121.223725
  },
  {
    "title": "整租·万寿新村六区 2室2厅 南",
    "community": "万寿新村六区",
    "area": "92.00",
    "rooms": "2室2厅",
    "direction": "南",
    "floor": "",
    "price": "3500",
    "tags": "",
    "source": "",
    "url": "https://sh.lianjia.com/zufang/SH2153011057256300544.html",
    "rent_type": "整租",
    "location": "青浦-盈浦-万寿新村六区",
    "scraped_at": "2026-04-23 17:01:31",
    "region": "yingpu",
    "unit_price": 38.0,
    "lat": 31.147809,
    "lng": 121.096199
  },
  {
    "title": "整租·西部花苑（一期、三期） 3室1厅 南",
    "community": "西部花苑（一期、三期）",
    "area": "93.86",
    "rooms": "3室1厅",
    "direction": "南",
    "floor": "",
    "price": "3360",
    "tags": "",
    "source": "",
    "url": "https://sh.lianjia.com/zufang/SH2002694865556602880.html",
    "rent_type": "整租",
    "location": "青浦-盈浦-西部花苑",
    "scraped_at": "2026-04-23 17:01:28",
    "region": "yingpu",
    "unit_price": 35.8,
    "lat": 31.152683,
    "lng": 121.125469
  },
  {
    "title": "整租·五浦汇A区新塘苑 3室2厅 南",
    "community": "五浦汇A区新塘苑",
    "area": "128.00",
    "rooms": "3室2厅",
    "direction": "南",
    "floor": "",
    "price": "3900",
    "tags": "",
    "source": "",
    "url": "https://sh.lianjia.com/zufang/SH1974077574367674368.html",
    "rent_type": "整租",
    "location": "青浦-盈浦-五浦汇",
    "scraped_at": "2026-04-23 17:01:28",
    "region": "yingpu",
    "unit_price": 30.5,
    "lat": 31.244167,
    "lng": 121.223725
  },
  {
    "title": "整租·卓越世纪中心(青浦) 2室1厅 北",
    "community": "卓越世纪中心(青浦)",
    "area": "44.07",
    "rooms": "2室1厅",
    "direction": "北",
    "floor": "",
    "price": "3045",
    "tags": "",
    "source": "",
    "url": "https://sh.lianjia.com/zufang/SH2053439224996167680.html",
    "rent_type": "整租",
    "location": "青浦-盈浦-卓越世纪中心(青浦)",
    "scraped_at": "2026-04-23 17:01:31",
    "region": "yingpu",
    "unit_price": 69.1,
    "lat": 31.168025,
    "lng": 121.101467
  },
  {
    "title": "整租·铂悦公馆 1室2厅 南",
    "community": "铂悦公馆",
    "area": "54.40",
    "rooms": "1室2厅",
    "direction": "南",
    "floor": "",
    "price": "3150",
    "tags": "",
    "source": "",
    "url": "https://sh.lianjia.com/zufang/SH2043915381352955904.html",
    "rent_type": "整租",
    "location": "青浦-盈浦-铂悦公馆",
    "scraped_at": "2026-04-23 17:01:31",
    "region": "yingpu",
    "unit_price": 57.9,
    "lat": 31.16974,
    "lng": 121.100194
  },
  {
    "title": "整租·宝业·活力天地 2室2厅 南",
    "community": "宝业·活力天地",
    "area": "81.78",
    "rooms": "2室2厅",
    "direction": "南",
    "floor": "",
    "price": "5000",
    "tags": "",
    "source": "",
    "url": "https://sh.lianjia.com/zufang/SH2157142659402039296.html",
    "rent_type": "整租",
    "location": "青浦-盈浦-宝业",
    "scraped_at": "2026-04-23 17:00:33",
    "region": "yingpu",
    "unit_price": 61.1,
    "lat": 31.244167,
    "lng": 121.223725
  },
  {
    "title": "整租·民乐佳苑二区 3室2厅 南",
    "community": "民乐佳苑二区",
    "area": "147.46",
    "rooms": "3室2厅",
    "direction": "南",
    "floor": "",
    "price": "4830",
    "tags": "",
    "source": "",
    "url": "https://sh.lianjia.com/zufang/SH2079154022874349568.html",
    "rent_type": "整租",
    "location": "青浦-盈浦-民乐佳苑二区",
    "scraped_at": "2026-04-23 17:01:31",
    "region": "yingpu",
    "unit_price": 32.8,
    "lat": 31.157157,
    "lng": 121.091817
  },
  {
    "title": "整租·民乐佳苑二区 1室1厅 南",
    "community": "民乐佳苑二区",
    "area": "42.33",
    "rooms": "1室1厅",
    "direction": "南",
    "floor": "",
    "price": "2500",
    "tags": "",
    "source": "",
    "url": "https://sh.lianjia.com/zufang/SH2092987892434468864.html",
    "rent_type": "整租",
    "location": "青浦-盈浦-民乐佳苑二区",
    "scraped_at": "2026-04-23 17:01:31",
    "region": "yingpu",
    "unit_price": 59.1,
    "lat": 31.157157,
    "lng": 121.091817
  },
  {
    "title": "整租·西虹桥壹号 3室2厅 南",
    "community": "西虹桥壹号",
    "area": "84.00",
    "rooms": "3室2厅",
    "direction": "南",
    "floor": "",
    "price": "4500",
    "tags": "",
    "source": "",
    "url": "https://sh.lianjia.com/zufang/SH2156290102832136192.html",
    "rent_type": "整租",
    "location": "青浦-盈浦-西虹桥壹号",
    "scraped_at": "2026-04-23 17:00:33",
    "region": "yingpu",
    "unit_price": 53.6,
    "lat": 31.136799,
    "lng": 121.077987
  },
  {
    "title": "整租·留水园 2室1厅 南",
    "community": "留水园",
    "area": "60.00",
    "rooms": "2室1厅",
    "direction": "南",
    "floor": "",
    "price": "2415",
    "tags": "",
    "source": "",
    "url": "https://sh.lianjia.com/zufang/SH1862134639737438208.html",
    "rent_type": "整租",
    "location": "青浦-盈浦-留水园",
    "scraped_at": "2026-04-23 17:00:21",
    "region": "yingpu",
    "unit_price": 40.2,
    "lat": 31.163927,
    "lng": 121.10841
  },
  {
    "title": "整租·卓越世纪中心(青浦) 1室1厅 南",
    "community": "卓越世纪中心(青浦)",
    "area": "60.00",
    "rooms": "1室1厅",
    "direction": "南",
    "floor": "",
    "price": "2500",
    "tags": "",
    "source": "",
    "url": "https://sh.lianjia.com/zufang/SH1953422048432750592.html",
    "rent_type": "整租",
    "location": "青浦-盈浦-卓越世纪中心(青浦)",
    "scraped_at": "2026-04-23 17:01:28",
    "region": "yingpu",
    "unit_price": 41.7,
    "lat": 31.168025,
    "lng": 121.101467
  },
  {
    "title": "整租·青浦万达茂(公寓) 2室1厅 南",
    "community": "青浦万达茂(公寓)",
    "area": "52.00",
    "rooms": "2室1厅",
    "direction": "南",
    "floor": "",
    "price": "3885",
    "tags": "",
    "source": "",
    "url": "https://sh.lianjia.com/zufang/SH2037887692355665920.html",
    "rent_type": "整租",
    "location": "青浦-盈浦-青浦万达茂(公寓)",
    "scraped_at": "2026-04-23 17:01:31",
    "region": "yingpu",
    "unit_price": 74.7,
    "lat": 31.133415,
    "lng": 121.082812
  },
  {
    "title": "整租·青浦万达茂(公寓) 2室2厅 东/北",
    "community": "青浦万达茂(公寓)",
    "area": "53.20",
    "rooms": "2室2厅",
    "direction": "东/北",
    "floor": "",
    "price": "3300",
    "tags": "",
    "source": "",
    "url": "https://sh.lianjia.com/zufang/SH2156251535258943488.html",
    "rent_type": "整租",
    "location": "青浦-盈浦-青浦万达茂(公寓)",
    "scraped_at": "2026-04-23 17:00:33",
    "region": "yingpu",
    "unit_price": 62.0,
    "lat": 31.133415,
    "lng": 121.082812
  },
  {
    "title": "整租·首创禧悦晴朗 4室2厅 南",
    "community": "首创禧悦晴朗",
    "area": "108.66",
    "rooms": "4室2厅",
    "direction": "南",
    "floor": "",
    "price": "6800",
    "tags": "",
    "source": "",
    "url": "https://sh.lianjia.com/zufang/SH2127632427038801920.html",
    "rent_type": "整租",
    "location": "青浦-盈浦-首创禧悦晴朗",
    "scraped_at": "2026-04-23 17:00:21",
    "region": "yingpu",
    "unit_price": 62.6,
    "lat": 31.133047,
    "lng": 121.078216
  },
  {
    "title": "整租·庆丰新村 3室1厅 南",
    "community": "庆丰新村",
    "area": "95.32",
    "rooms": "3室1厅",
    "direction": "南",
    "floor": "",
    "price": "3600",
    "tags": "",
    "source": "",
    "url": "https://sh.lianjia.com/zufang/SH2128029762147319808.html",
    "rent_type": "整租",
    "location": "青浦-盈浦-庆丰新村",
    "scraped_at": "2026-04-23 17:00:21",
    "region": "yingpu",
    "unit_price": 37.8,
    "lat": 31.14218,
    "lng": 121.109462
  },
  {
    "title": "整租·怀盛怡庭 2室2厅 南/北",
    "community": "怀盛怡庭",
    "area": "88.86",
    "rooms": "2室2厅",
    "direction": "南/北",
    "floor": "",
    "price": "4800",
    "tags": "",
    "source": "",
    "url": "https://sh.lianjia.com/zufang/SH2145356390003113984.html",
    "rent_type": "整租",
    "location": "青浦-盈浦-怀盛怡庭",
    "scraped_at": "2026-04-23 17:00:24",
    "region": "yingpu",
    "unit_price": 54.0,
    "lat": 31.140139,
    "lng": 121.095447
  },
  {
    "title": "整租·东渡悦都荟 2室0厅 南",
    "community": "东渡悦都荟",
    "area": "60.00",
    "rooms": "2室0厅",
    "direction": "南",
    "floor": "",
    "price": "3200",
    "tags": "",
    "source": "",
    "url": "https://sh.lianjia.com/zufang/SH2145159555179347968.html",
    "rent_type": "整租",
    "location": "青浦-盈浦-东渡悦都荟",
    "scraped_at": "2026-04-23 17:00:24",
    "region": "yingpu",
    "unit_price": 53.3,
    "lat": 31.136117,
    "lng": 121.083291
  },
  {
    "title": "整租·中南君悦府 2室2厅 南",
    "community": "中南君悦府",
    "area": "74.89",
    "rooms": "2室2厅",
    "direction": "南",
    "floor": "",
    "price": "4800",
    "tags": "",
    "source": "",
    "url": "https://sh.lianjia.com/zufang/SH2150960570726088704.html",
    "rent_type": "整租",
    "location": "青浦-盈浦-中南君悦府",
    "scraped_at": "2026-04-23 17:00:21",
    "region": "yingpu",
    "unit_price": 64.1,
    "lat": 31.134032,
    "lng": 121.076418
  },
  {
    "title": "整租·五浦汇A区新塘苑 3室2厅 南",
    "community": "五浦汇A区新塘苑",
    "area": "105.98",
    "rooms": "3室2厅",
    "direction": "南",
    "floor": "",
    "price": "4000",
    "tags": "",
    "source": "",
    "url": "https://sh.lianjia.com/zufang/SH2113666877619175424.html",
    "rent_type": "整租",
    "location": "青浦-盈浦-五浦汇",
    "scraped_at": "2026-04-23 17:00:37",
    "region": "yingpu",
    "unit_price": 37.7,
    "lat": 31.244167,
    "lng": 121.223725
  },
  {
    "title": "整租·首创禧悦风华 4室2厅 南",
    "community": "首创禧悦风华",
    "area": "108.00",
    "rooms": "4室2厅",
    "direction": "南",
    "floor": "",
    "price": "7500",
    "tags": "",
    "source": "",
    "url": "https://sh.lianjia.com/zufang/SH2143989191489355776.html",
    "rent_type": "整租",
    "location": "青浦-盈浦-首创禧悦风华",
    "scraped_at": "2026-04-23 17:00:24",
    "region": "yingpu",
    "unit_price": 69.4,
    "lat": 31.132835,
    "lng": 121.088597
  },
  {
    "title": "整租·旭辉玫瑰湾 3室2厅 南",
    "community": "旭辉玫瑰湾",
    "area": "89.95",
    "rooms": "3室2厅",
    "direction": "南",
    "floor": "",
    "price": "4000",
    "tags": "",
    "source": "",
    "url": "https://sh.lianjia.com/zufang/SH2143937094257475584.html",
    "rent_type": "整租",
    "location": "青浦-盈浦-旭辉玫瑰湾",
    "scraped_at": "2026-04-23 17:00:24",
    "region": "yingpu",
    "unit_price": 44.5,
    "lat": 31.166739,
    "lng": 121.097407
  },
  {
    "title": "整租·双桥公寓（一区） 3室2厅 南",
    "community": "双桥公寓（一区）",
    "area": "110.00",
    "rooms": "3室2厅",
    "direction": "南",
    "floor": "",
    "price": "4000",
    "tags": "",
    "source": "",
    "url": "https://sh.lianjia.com/zufang/SH2144738845747314688.html",
    "rent_type": "整租",
    "location": "青浦-盈浦-双桥公寓",
    "scraped_at": "2026-04-23 17:00:24",
    "region": "yingpu",
    "unit_price": 36.4,
    "lat": 31.148368,
    "lng": 121.096998
  },
  {
    "title": "整租·首创禧悦芳菲 3室2厅 南",
    "community": "首创禧悦芳菲",
    "area": "89.00",
    "rooms": "3室2厅",
    "direction": "南",
    "floor": "",
    "price": "5300",
    "tags": "",
    "source": "",
    "url": "https://sh.lianjia.com/zufang/SH2144799660101861376.html",
    "rent_type": "整租",
    "location": "青浦-盈浦-首创禧悦芳菲",
    "scraped_at": "2026-04-23 17:00:24",
    "region": "yingpu",
    "unit_price": 59.6,
    "lat": 31.138283,
    "lng": 121.080423
  },
  {
    "title": "整租·青浦万达茂(住宅) 3室2厅 南",
    "community": "青浦万达茂(住宅)",
    "area": "95.21",
    "rooms": "3室2厅",
    "direction": "南",
    "floor": "",
    "price": "4700",
    "tags": "",
    "source": "",
    "url": "https://sh.lianjia.com/zufang/SH2123397905065705472.html",
    "rent_type": "整租",
    "location": "青浦-盈浦-青浦万达茂(住宅)",
    "scraped_at": "2026-04-23 17:00:24",
    "region": "yingpu",
    "unit_price": 49.4,
    "lat": 31.133415,
    "lng": 121.082812
  },
  {
    "title": "整租·铂悦公馆 1室1厅 西北",
    "community": "铂悦公馆",
    "area": "54.00",
    "rooms": "1室1厅",
    "direction": "西北",
    "floor": "",
    "price": "3200",
    "tags": "",
    "source": "",
    "url": "https://sh.lianjia.com/zufang/SH2130597943110008832.html",
    "rent_type": "整租",
    "location": "青浦-盈浦-铂悦公馆",
    "scraped_at": "2026-04-23 17:00:24",
    "region": "yingpu",
    "unit_price": 59.3,
    "lat": 31.16974,
    "lng": 121.100194
  },
  {
    "title": "整租·中南君悦府 3室2厅 南",
    "community": "中南君悦府",
    "area": "112.00",
    "rooms": "3室2厅",
    "direction": "南",
    "floor": "",
    "price": "6000",
    "tags": "",
    "source": "",
    "url": "https://sh.lianjia.com/zufang/SH2103323539632291840.html",
    "rent_type": "整租",
    "location": "青浦-盈浦-中南君悦府",
    "scraped_at": "2026-04-23 17:00:33",
    "region": "yingpu",
    "unit_price": 53.6,
    "lat": 31.134032,
    "lng": 121.076418
  },
  {
    "title": "整租·青浦万达茂(公寓) 2室2厅 东北",
    "community": "青浦万达茂(公寓)",
    "area": "55.00",
    "rooms": "2室2厅",
    "direction": "东北",
    "floor": "",
    "price": "3500",
    "tags": "",
    "source": "",
    "url": "https://sh.lianjia.com/zufang/SH2126188403287392256.html",
    "rent_type": "整租",
    "location": "青浦-盈浦-青浦万达茂(公寓)",
    "scraped_at": "2026-04-23 17:00:24",
    "region": "yingpu",
    "unit_price": 63.6,
    "lat": 31.133415,
    "lng": 121.082812
  },
  {
    "title": "整租·中南君悦府 3室1厅 南/北",
    "community": "中南君悦府",
    "area": "90.00",
    "rooms": "3室1厅",
    "direction": "南/北",
    "floor": "",
    "price": "5300",
    "tags": "",
    "source": "",
    "url": "https://sh.lianjia.com/zufang/SH2054120665325240320.html",
    "rent_type": "整租",
    "location": "青浦-盈浦-中南君悦府",
    "scraped_at": "2026-04-23 17:00:24",
    "region": "yingpu",
    "unit_price": 58.9,
    "lat": 31.134032,
    "lng": 121.076418
  },
  {
    "title": "整租·青浦万达茂(住宅) 3室2厅 南/北",
    "community": "青浦万达茂(住宅)",
    "area": "120.17",
    "rooms": "3室2厅",
    "direction": "南/北",
    "floor": "",
    "price": "6680",
    "tags": "",
    "source": "",
    "url": "https://sh.lianjia.com/zufang/SH2129110887024295936.html",
    "rent_type": "整租",
    "location": "青浦-盈浦-青浦万达茂(住宅)",
    "scraped_at": "2026-04-23 17:00:24",
    "region": "yingpu",
    "unit_price": 55.6,
    "lat": 31.133415,
    "lng": 121.082812
  },
  {
    "title": "整租·怀盛怡庭 2室1厅 南",
    "community": "怀盛怡庭",
    "area": "85.60",
    "rooms": "2室1厅",
    "direction": "南",
    "floor": "",
    "price": "4000",
    "tags": "",
    "source": "",
    "url": "https://sh.lianjia.com/zufang/SH2112471545581404160.html",
    "rent_type": "整租",
    "location": "青浦-盈浦-怀盛怡庭",
    "scraped_at": "2026-04-23 17:00:24",
    "region": "yingpu",
    "unit_price": 46.7,
    "lat": 31.140139,
    "lng": 121.095447
  },
  {
    "title": "整租·首创禧悦芳菲 3室2厅 南/北",
    "community": "首创禧悦芳菲",
    "area": "89.03",
    "rooms": "3室2厅",
    "direction": "南/北",
    "floor": "",
    "price": "5100",
    "tags": "",
    "source": "",
    "url": "https://sh.lianjia.com/zufang/SH2121132207023063040.html",
    "rent_type": "整租",
    "location": "青浦-盈浦-首创禧悦芳菲",
    "scraped_at": "2026-04-23 17:00:24",
    "region": "yingpu",
    "unit_price": 57.3,
    "lat": 31.138283,
    "lng": 121.080423
  },
  {
    "title": "整租·五浦汇B区崧子苑 2室1厅 南",
    "community": "五浦汇B区崧子苑",
    "area": "76.00",
    "rooms": "2室1厅",
    "direction": "南",
    "floor": "",
    "price": "3500",
    "tags": "",
    "source": "",
    "url": "https://sh.lianjia.com/zufang/SH2130613686358769664.html",
    "rent_type": "整租",
    "location": "青浦-盈浦-五浦汇",
    "scraped_at": "2026-04-23 17:00:24",
    "region": "yingpu",
    "unit_price": 46.1,
    "lat": 31.145642,
    "lng": 121.084846
  },
  {
    "title": "整租·新城盛世 2室1厅 南",
    "community": "新城盛世",
    "area": "80.00",
    "rooms": "2室1厅",
    "direction": "南",
    "floor": "",
    "price": "4800",
    "tags": "",
    "source": "",
    "url": "https://sh.lianjia.com/zufang/SH2119704005113282560.html",
    "rent_type": "整租",
    "location": "青浦-盈浦-新城盛世",
    "scraped_at": "2026-04-23 17:00:24",
    "region": "yingpu",
    "unit_price": 60.0,
    "lat": 31.162043,
    "lng": 121.100603
  },
  {
    "title": "整租·卓越世纪中心(青浦) 2室1厅 南",
    "community": "卓越世纪中心(青浦)",
    "area": "71.82",
    "rooms": "2室1厅",
    "direction": "南",
    "floor": "",
    "price": "3200",
    "tags": "",
    "source": "",
    "url": "https://sh.lianjia.com/zufang/SH2118958975478136832.html",
    "rent_type": "整租",
    "location": "青浦-盈浦-卓越世纪中心(青浦)",
    "scraped_at": "2026-04-23 17:00:24",
    "region": "yingpu",
    "unit_price": 44.6,
    "lat": 31.168025,
    "lng": 121.101467
  },
  {
    "title": "整租·青浦万达茂(公寓) 2室1厅 东",
    "community": "青浦万达茂(公寓)",
    "area": "61.69",
    "rooms": "2室1厅",
    "direction": "东",
    "floor": "",
    "price": "4200",
    "tags": "",
    "source": "",
    "url": "https://sh.lianjia.com/zufang/SH2128759827243991040.html",
    "rent_type": "整租",
    "location": "青浦-盈浦-青浦万达茂(公寓)",
    "scraped_at": "2026-04-23 17:00:24",
    "region": "yingpu",
    "unit_price": 68.1,
    "lat": 31.133415,
    "lng": 121.082812
  },
  {
    "title": "整租·首创禧悦风华 3室2厅 南/北",
    "community": "首创禧悦风华",
    "area": "89.68",
    "rooms": "3室2厅",
    "direction": "南/北",
    "floor": "",
    "price": "5800",
    "tags": "",
    "source": "",
    "url": "https://sh.lianjia.com/zufang/SH2115404730594230272.html",
    "rent_type": "整租",
    "location": "青浦-盈浦-首创禧悦风华",
    "scraped_at": "2026-04-23 17:00:37",
    "region": "yingpu",
    "unit_price": 64.7,
    "lat": 31.132835,
    "lng": 121.088597
  },
  {
    "title": "整租·五浦汇A区新塘苑 3室2厅 南",
    "community": "五浦汇A区新塘苑",
    "area": "106.00",
    "rooms": "3室2厅",
    "direction": "南",
    "floor": "",
    "price": "5000",
    "tags": "",
    "source": "",
    "url": "https://sh.lianjia.com/zufang/SH2148432268798984192.html",
    "rent_type": "整租",
    "location": "青浦-盈浦-五浦汇",
    "scraped_at": "2026-04-23 17:00:24",
    "region": "yingpu",
    "unit_price": 47.2,
    "lat": 31.244167,
    "lng": 121.223725
  },
  {
    "title": "整租·首创禧悦(一期) 3室1厅 南",
    "community": "首创禧悦(一期)",
    "area": "87.54",
    "rooms": "3室1厅",
    "direction": "南",
    "floor": "",
    "price": "5200",
    "tags": "",
    "source": "",
    "url": "https://sh.lianjia.com/zufang/SH2096480175880404992.html",
    "rent_type": "整租",
    "location": "青浦-盈浦-首创禧悦(一期)",
    "scraped_at": "2026-04-23 17:00:33",
    "region": "yingpu",
    "unit_price": 59.4,
    "lat": 31.132564,
    "lng": 121.085487
  },
  {
    "title": "整租·留水园 2室1厅 南",
    "community": "留水园",
    "area": "60.36",
    "rooms": "2室1厅",
    "direction": "南",
    "floor": "",
    "price": "3200",
    "tags": "",
    "source": "",
    "url": "https://sh.lianjia.com/zufang/SH2154472534316154880.html",
    "rent_type": "整租",
    "location": "青浦-盈浦-留水园",
    "scraped_at": "2026-04-23 17:00:24",
    "region": "yingpu",
    "unit_price": 53.0,
    "lat": 31.163927,
    "lng": 121.10841
  },
  {
    "title": "整租·远洋金融街·西郊宸章 3室2厅 南",
    "community": "远洋金融街·西郊宸章",
    "area": "95.00",
    "rooms": "3室2厅",
    "direction": "南",
    "floor": "",
    "price": "5366",
    "tags": "",
    "source": "",
    "url": "https://sh.lianjia.com/zufang/SH2094020880744054784.html",
    "rent_type": "整租",
    "location": "青浦-盈浦-远洋金融街",
    "scraped_at": "2026-04-23 17:00:33",
    "region": "yingpu",
    "unit_price": 56.5,
    "lat": 31.146694,
    "lng": 121.11454
  },
  {
    "title": "整租·三元新村 2室1厅 南",
    "community": "三元新村",
    "area": "56.00",
    "rooms": "2室1厅",
    "direction": "南",
    "floor": "",
    "price": "2600",
    "tags": "",
    "source": "",
    "url": "https://sh.lianjia.com/zufang/SH2128101742246625280.html",
    "rent_type": "整租",
    "location": "青浦-盈浦-三元新村",
    "scraped_at": "2026-04-23 17:00:24",
    "region": "yingpu",
    "unit_price": 46.4,
    "lat": 31.14301,
    "lng": 121.117882
  },
  {
    "title": "整租·东渡悦来城 3室2厅 南",
    "community": "东渡悦来城",
    "area": "89.00",
    "rooms": "3室2厅",
    "direction": "南",
    "floor": "",
    "price": "5000",
    "tags": "",
    "source": "",
    "url": "https://sh.lianjia.com/zufang/SH2150477547417108480.html",
    "rent_type": "整租",
    "location": "青浦-盈浦-东渡悦来城",
    "scraped_at": "2026-04-23 17:00:24",
    "region": "yingpu",
    "unit_price": 56.2,
    "lat": 31.135202,
    "lng": 121.081277
  },
  {
    "title": "整租·景瑞城中公园 3室2厅 南",
    "community": "景瑞城中公园",
    "area": "92.78",
    "rooms": "3室2厅",
    "direction": "南",
    "floor": "",
    "price": "4800",
    "tags": "",
    "source": "",
    "url": "https://sh.lianjia.com/zufang/SH2077725254964215808.html",
    "rent_type": "整租",
    "location": "青浦-盈浦-景瑞城中公园",
    "scraped_at": "2026-04-23 17:00:27",
    "region": "yingpu",
    "unit_price": 51.7,
    "lat": 31.157643,
    "lng": 121.113353
  },
  {
    "title": "整租·城中南路342号 3室1厅 南",
    "community": "城中南路342号",
    "area": "80.98",
    "rooms": "3室1厅",
    "direction": "南",
    "floor": "",
    "price": "4000",
    "tags": "",
    "source": "",
    "url": "https://sh.lianjia.com/zufang/SH2153005873272717312.html",
    "rent_type": "整租",
    "location": "青浦-盈浦-城中南路",
    "scraped_at": "2026-04-23 17:00:27",
    "region": "yingpu",
    "unit_price": 49.4,
    "lat": 31.132049,
    "lng": 121.076567
  },
  {
    "title": "整租·宝业·活力天地 3室2厅 南",
    "community": "宝业·活力天地",
    "area": "97.61",
    "rooms": "3室2厅",
    "direction": "南",
    "floor": "",
    "price": "5800",
    "tags": "",
    "source": "",
    "url": "https://sh.lianjia.com/zufang/SH2154868356652466176.html",
    "rent_type": "整租",
    "location": "青浦-盈浦-宝业",
    "scraped_at": "2026-04-23 17:00:27",
    "region": "yingpu",
    "unit_price": 59.4,
    "lat": 31.244167,
    "lng": 121.223725
  },
  {
    "title": "整租·西部花苑（一期、三期） 2室2厅 南",
    "community": "西部花苑（一期、三期）",
    "area": "90.00",
    "rooms": "2室2厅",
    "direction": "南",
    "floor": "",
    "price": "4700",
    "tags": "",
    "source": "",
    "url": "https://sh.lianjia.com/zufang/SH2112420245439250432.html",
    "rent_type": "整租",
    "location": "青浦-盈浦-西部花苑",
    "scraped_at": "2026-04-23 17:00:27",
    "region": "yingpu",
    "unit_price": 52.2,
    "lat": 31.152683,
    "lng": 121.125469
  },
  {
    "title": "整租·首创禧悦(一期) 3室2厅 南",
    "community": "首创禧悦(一期)",
    "area": "88.00",
    "rooms": "3室2厅",
    "direction": "南",
    "floor": "",
    "price": "4900",
    "tags": "",
    "source": "",
    "url": "https://sh.lianjia.com/zufang/SH2102978394122616832.html",
    "rent_type": "整租",
    "location": "青浦-盈浦-首创禧悦(一期)",
    "scraped_at": "2026-04-23 17:00:33",
    "region": "yingpu",
    "unit_price": 55.7,
    "lat": 31.132564,
    "lng": 121.085487
  },
  {
    "title": "整租·景港名人苑 2室2厅 南",
    "community": "景港名人苑",
    "area": "89.89",
    "rooms": "2室2厅",
    "direction": "南",
    "floor": "",
    "price": "3500",
    "tags": "",
    "source": "",
    "url": "https://sh.lianjia.com/zufang/SH2107010979496722432.html",
    "rent_type": "整租",
    "location": "青浦-盈浦-景港名人苑",
    "scraped_at": "2026-04-23 17:00:33",
    "region": "yingpu",
    "unit_price": 38.9,
    "lat": 31.149757,
    "lng": 121.100938
  },
  {
    "title": "整租·青溪新村南区 3室2厅 南",
    "community": "青溪新村南区",
    "area": "116.63",
    "rooms": "3室2厅",
    "direction": "南",
    "floor": "",
    "price": "4600",
    "tags": "",
    "source": "",
    "url": "https://sh.lianjia.com/zufang/SH2115722335993462784.html",
    "rent_type": "整租",
    "location": "青浦-盈浦-青溪新村南区",
    "scraped_at": "2026-04-23 17:00:37",
    "region": "yingpu",
    "unit_price": 39.4,
    "lat": 31.152298,
    "lng": 121.113271
  },
  {
    "title": "整租·龙威新村 3室2厅 南",
    "community": "龙威新村",
    "area": "84.76",
    "rooms": "3室2厅",
    "direction": "南",
    "floor": "",
    "price": "4600",
    "tags": "",
    "source": "",
    "url": "https://sh.lianjia.com/zufang/SH2154086240603865088.html",
    "rent_type": "整租",
    "location": "青浦-盈浦-龙威新村",
    "scraped_at": "2026-04-23 17:00:27",
    "region": "yingpu",
    "unit_price": 54.3,
    "lat": null,
    "lng": null
  },
  {
    "title": "整租·远洋金融街·西郊宸章 3室2厅 南",
    "community": "远洋金融街·西郊宸章",
    "area": "107.00",
    "rooms": "3室2厅",
    "direction": "南",
    "floor": "",
    "price": "5500",
    "tags": "",
    "source": "",
    "url": "https://sh.lianjia.com/zufang/SH2125486972829958144.html",
    "rent_type": "整租",
    "location": "青浦-盈浦-远洋金融街",
    "scraped_at": "2026-04-23 17:00:27",
    "region": "yingpu",
    "unit_price": 51.4,
    "lat": 31.146694,
    "lng": 121.11454
  },
  {
    "title": "整租·御澜湾 3室2厅 南",
    "community": "御澜湾",
    "area": "114.00",
    "rooms": "3室2厅",
    "direction": "南",
    "floor": "",
    "price": "7200",
    "tags": "",
    "source": "",
    "url": "https://sh.lianjia.com/zufang/SH2081305753041240064.html",
    "rent_type": "整租",
    "location": "青浦-盈浦-御澜湾",
    "scraped_at": "2026-04-23 17:00:27",
    "region": "yingpu",
    "unit_price": 63.2,
    "lat": 31.142612,
    "lng": 121.097412
  },
  {
    "title": "整租·翡翠国际花苑 2室2厅 南",
    "community": "翡翠国际花苑",
    "area": "118.00",
    "rooms": "2室2厅",
    "direction": "南",
    "floor": "",
    "price": "4000",
    "tags": "",
    "source": "",
    "url": "https://sh.lianjia.com/zufang/SH2102961031641825280.html",
    "rent_type": "整租",
    "location": "青浦-盈浦-翡翠国际花苑",
    "scraped_at": "2026-04-23 17:00:33",
    "region": "yingpu",
    "unit_price": 33.9,
    "lat": 31.15848,
    "lng": 121.123032
  },
  {
    "title": "整租·景瑞城中公园 3室1厅 南",
    "community": "景瑞城中公园",
    "area": "90.00",
    "rooms": "3室1厅",
    "direction": "南",
    "floor": "",
    "price": "5000",
    "tags": "",
    "source": "",
    "url": "https://sh.lianjia.com/zufang/SH2151231880739946496.html",
    "rent_type": "整租",
    "location": "青浦-盈浦-景瑞城中公园",
    "scraped_at": "2026-04-23 17:00:27",
    "region": "yingpu",
    "unit_price": 55.6,
    "lat": 31.157643,
    "lng": 121.113353
  },
  {
    "title": "整租·东渡悦来城 2室2厅 南",
    "community": "东渡悦来城",
    "area": "89.55",
    "rooms": "2室2厅",
    "direction": "南",
    "floor": "",
    "price": "4600",
    "tags": "",
    "source": "",
    "url": "https://sh.lianjia.com/zufang/SH2131285479968997376.html",
    "rent_type": "整租",
    "location": "青浦-盈浦-东渡悦来城",
    "scraped_at": "2026-04-23 17:00:27",
    "region": "yingpu",
    "unit_price": 51.4,
    "lat": 31.135202,
    "lng": 121.081277
  },
  {
    "title": "整租·景港名人苑 2室1厅 南",
    "community": "景港名人苑",
    "area": "58.12",
    "rooms": "2室1厅",
    "direction": "南",
    "floor": "",
    "price": "2400",
    "tags": "",
    "source": "",
    "url": "https://sh.lianjia.com/zufang/SH2072327152111452160.html",
    "rent_type": "整租",
    "location": "青浦-盈浦-景港名人苑",
    "scraped_at": "2026-04-23 17:00:27",
    "region": "yingpu",
    "unit_price": 41.3,
    "lat": 31.149757,
    "lng": 121.100938
  },
  {
    "title": "整租·首创禧悦(一期) 3室2厅 南",
    "community": "首创禧悦(一期)",
    "area": "89.86",
    "rooms": "3室2厅",
    "direction": "南",
    "floor": "",
    "price": "5200",
    "tags": "",
    "source": "",
    "url": "https://sh.lianjia.com/zufang/SH2076241938855493632.html",
    "rent_type": "整租",
    "location": "青浦-盈浦-首创禧悦(一期)",
    "scraped_at": "2026-04-23 17:00:27",
    "region": "yingpu",
    "unit_price": 57.9,
    "lat": 31.132564,
    "lng": 121.085487
  },
  {
    "title": "整租·青浦万达茂(公寓) 1室1厅 南/北",
    "community": "青浦万达茂(公寓)",
    "area": "56.29",
    "rooms": "1室1厅",
    "direction": "南/北",
    "floor": "",
    "price": "3500",
    "tags": "",
    "source": "",
    "url": "https://sh.lianjia.com/zufang/SH2124696045244907520.html",
    "rent_type": "整租",
    "location": "青浦-盈浦-青浦万达茂(公寓)",
    "scraped_at": "2026-04-23 17:00:27",
    "region": "yingpu",
    "unit_price": 62.2,
    "lat": 31.133415,
    "lng": 121.082812
  },
  {
    "title": "整租·万寿新村七区 2室1厅 南",
    "community": "万寿新村七区",
    "area": "80.72",
    "rooms": "2室1厅",
    "direction": "南",
    "floor": "",
    "price": "3300",
    "tags": "",
    "source": "",
    "url": "https://sh.lianjia.com/zufang/SH2153809014884925440.html",
    "rent_type": "整租",
    "location": "青浦-盈浦-万寿新村七区",
    "scraped_at": "2026-04-23 17:00:27",
    "region": "yingpu",
    "unit_price": 40.9,
    "lat": 31.159271,
    "lng": 121.110492
  },
  {
    "title": "整租·旭辉玫瑰湾 3室1厅 南",
    "community": "旭辉玫瑰湾",
    "area": "89.96",
    "rooms": "3室1厅",
    "direction": "南",
    "floor": "",
    "price": "4000",
    "tags": "",
    "source": "",
    "url": "https://sh.lianjia.com/zufang/SH2154849639189184512.html",
    "rent_type": "整租",
    "location": "青浦-盈浦-旭辉玫瑰湾",
    "scraped_at": "2026-04-23 17:00:27",
    "region": "yingpu",
    "unit_price": 44.5,
    "lat": 31.166739,
    "lng": 121.097407
  },
  {
    "title": "整租·浩泽家园 2室2厅 南",
    "community": "浩泽家园",
    "area": "83.67",
    "rooms": "2室2厅",
    "direction": "南",
    "floor": "",
    "price": "3800",
    "tags": "",
    "source": "",
    "url": "https://sh.lianjia.com/zufang/SH2123755301822791680.html",
    "rent_type": "整租",
    "location": "青浦-盈浦-浩泽家园",
    "scraped_at": "2026-04-23 17:00:27",
    "region": "yingpu",
    "unit_price": 45.4,
    "lat": 31.151126,
    "lng": 121.092438
  },
  {
    "title": "整租·旭辉玫瑰湾 3室2厅 南",
    "community": "旭辉玫瑰湾",
    "area": "90.00",
    "rooms": "3室2厅",
    "direction": "南",
    "floor": "",
    "price": "4000",
    "tags": "",
    "source": "",
    "url": "https://sh.lianjia.com/zufang/SH2112476959920357376.html",
    "rent_type": "整租",
    "location": "青浦-盈浦-旭辉玫瑰湾",
    "scraped_at": "2026-04-23 17:00:27",
    "region": "yingpu",
    "unit_price": 44.4,
    "lat": 31.166739,
    "lng": 121.097407
  },
  {
    "title": "整租·佳丽花园 3室2厅 南",
    "community": "佳丽花园",
    "area": "103.00",
    "rooms": "3室2厅",
    "direction": "南",
    "floor": "",
    "price": "3500",
    "tags": "",
    "source": "",
    "url": "https://sh.lianjia.com/zufang/SH2109506704331767808.html",
    "rent_type": "整租",
    "location": "青浦-盈浦-佳丽花园",
    "scraped_at": "2026-04-23 17:00:27",
    "region": "yingpu",
    "unit_price": 34.0,
    "lat": 31.156405,
    "lng": 121.126699
  },
  {
    "title": "整租·东渡青筑 1室1厅 南",
    "community": "东渡青筑",
    "area": "67.95",
    "rooms": "1室1厅",
    "direction": "南",
    "floor": "",
    "price": "3500",
    "tags": "",
    "source": "",
    "url": "https://sh.lianjia.com/zufang/SH2143668381629284352.html",
    "rent_type": "整租",
    "location": "青浦-盈浦-东渡青筑",
    "scraped_at": "2026-04-23 17:00:27",
    "region": "yingpu",
    "unit_price": 51.5,
    "lat": 31.132424,
    "lng": 121.087817
  },
  {
    "title": "整租·东渡悦都荟 1室1厅 东",
    "community": "东渡悦都荟",
    "area": "46.00",
    "rooms": "1室1厅",
    "direction": "东",
    "floor": "",
    "price": "3200",
    "tags": "",
    "source": "",
    "url": "https://sh.lianjia.com/zufang/SH2116443814641008640.html",
    "rent_type": "整租",
    "location": "青浦-盈浦-东渡悦都荟",
    "scraped_at": "2026-04-23 17:00:37",
    "region": "yingpu",
    "unit_price": 69.6,
    "lat": 31.136117,
    "lng": 121.083291
  },
  {
    "title": "整租·虹桥玫瑰公馆 3室1厅 南",
    "community": "虹桥玫瑰公馆",
    "area": "86.74",
    "rooms": "3室1厅",
    "direction": "南",
    "floor": "",
    "price": "4700",
    "tags": "",
    "source": "",
    "url": "https://sh.lianjia.com/zufang/SH2089216554301390848.html",
    "rent_type": "整租",
    "location": "青浦-盈浦-虹桥玫瑰公馆",
    "scraped_at": "2026-04-23 17:00:33",
    "region": "yingpu",
    "unit_price": 54.2,
    "lat": 31.148506,
    "lng": 121.111596
  },
  {
    "title": "整租·卓越世纪中心(青浦) 6室3厅 南",
    "community": "卓越世纪中心(青浦)",
    "area": "151.45",
    "rooms": "6室3厅",
    "direction": "南",
    "floor": "",
    "price": "12000",
    "tags": "",
    "source": "",
    "url": "https://sh.lianjia.com/zufang/SH2129806730660413440.html",
    "rent_type": "整租",
    "location": "青浦-盈浦-卓越世纪中心(青浦)",
    "scraped_at": "2026-04-23 17:00:27",
    "region": "yingpu",
    "unit_price": 79.2,
    "lat": 31.168025,
    "lng": 121.101467
  },
  {
    "title": "整租·首创禧悦晴朗 2室2厅 南",
    "community": "首创禧悦晴朗",
    "area": "60.00",
    "rooms": "2室2厅",
    "direction": "南",
    "floor": "",
    "price": "4500",
    "tags": "",
    "source": "",
    "url": "https://sh.lianjia.com/zufang/SH2152770041123176448.html",
    "rent_type": "整租",
    "location": "青浦-盈浦-首创禧悦晴朗",
    "scraped_at": "2026-04-23 17:00:27",
    "region": "yingpu",
    "unit_price": 75.0,
    "lat": 31.133047,
    "lng": 121.078216
  },
  {
    "title": "整租·铂悦公馆 1室0厅 北",
    "community": "铂悦公馆",
    "area": "55.00",
    "rooms": "1室0厅",
    "direction": "北",
    "floor": "",
    "price": "3400",
    "tags": "",
    "source": "",
    "url": "https://sh.lianjia.com/zufang/SH2065795000184078336.html",
    "rent_type": "整租",
    "location": "青浦-盈浦-铂悦公馆",
    "scraped_at": "2026-04-23 17:00:27",
    "region": "yingpu",
    "unit_price": 61.8,
    "lat": 31.16974,
    "lng": 121.100194
  },
  {
    "title": "整租·万寿新村四区 2室1厅 南",
    "community": "万寿新村四区",
    "area": "60.00",
    "rooms": "2室1厅",
    "direction": "南",
    "floor": "",
    "price": "2500",
    "tags": "",
    "source": "",
    "url": "https://sh.lianjia.com/zufang/SH2125915028732248064.html",
    "rent_type": "整租",
    "location": "青浦-盈浦-万寿新村四区",
    "scraped_at": "2026-04-23 17:00:27",
    "region": "yingpu",
    "unit_price": 41.7,
    "lat": 31.147809,
    "lng": 121.096199
  },
  {
    "title": "整租·民乐佳苑一区 3室2厅 南",
    "community": "民乐佳苑一区",
    "area": "116.40",
    "rooms": "3室2厅",
    "direction": "南",
    "floor": "",
    "price": "4800",
    "tags": "",
    "source": "",
    "url": "https://sh.lianjia.com/zufang/SH2122926010683883520.html",
    "rent_type": "整租",
    "location": "青浦-盈浦-民乐佳苑一区",
    "scraped_at": "2026-04-23 17:00:27",
    "region": "yingpu",
    "unit_price": 41.2,
    "lat": 31.261354,
    "lng": 121.094432
  },
  {
    "title": "整租·首创禧悦(一期) 2室2厅 南",
    "community": "首创禧悦(一期)",
    "area": "75.00",
    "rooms": "2室2厅",
    "direction": "南",
    "floor": "",
    "price": "5000",
    "tags": "",
    "source": "",
    "url": "https://sh.lianjia.com/zufang/SH2154937788854697984.html",
    "rent_type": "整租",
    "location": "青浦-盈浦-首创禧悦(一期)",
    "scraped_at": "2026-04-23 17:00:27",
    "region": "yingpu",
    "unit_price": 66.7,
    "lat": 31.132564,
    "lng": 121.085487
  },
  {
    "title": "整租·北极星广场 2室1厅 南",
    "community": "北极星广场",
    "area": "35.00",
    "rooms": "2室1厅",
    "direction": "南",
    "floor": "",
    "price": "3200",
    "tags": "",
    "source": "",
    "url": "https://sh.lianjia.com/zufang/SH2153846799415115776.html",
    "rent_type": "整租",
    "location": "青浦-盈浦-北极星广场",
    "scraped_at": "2026-04-23 17:00:29",
    "region": "yingpu",
    "unit_price": 91.4,
    "lat": 31.140216,
    "lng": 121.093021
  },
  {
    "title": "整租·青浦万达茂(公寓) 2室2厅 南",
    "community": "青浦万达茂(公寓)",
    "area": "42.56",
    "rooms": "2室2厅",
    "direction": "南",
    "floor": "",
    "price": "3200",
    "tags": "",
    "source": "",
    "url": "https://sh.lianjia.com/zufang/SH2064323570896470016.html",
    "rent_type": "整租",
    "location": "青浦-盈浦-青浦万达茂(公寓)",
    "scraped_at": "2026-04-23 17:00:29",
    "region": "yingpu",
    "unit_price": 75.2,
    "lat": 31.133415,
    "lng": 121.082812
  },
  {
    "title": "整租·金域水岸苑 2室2厅 南",
    "community": "金域水岸苑",
    "area": "109.27",
    "rooms": "2室2厅",
    "direction": "南",
    "floor": "",
    "price": "4000",
    "tags": "",
    "source": "",
    "url": "https://sh.lianjia.com/zufang/SH2101982755796549632.html",
    "rent_type": "整租",
    "location": "青浦-盈浦-金域水岸苑",
    "scraped_at": "2026-04-23 17:00:33",
    "region": "yingpu",
    "unit_price": 36.6,
    "lat": 31.160432,
    "lng": 121.100488
  },
  {
    "title": "整租·首创禧悦晴朗 3室2厅 南",
    "community": "首创禧悦晴朗",
    "area": "122.22",
    "rooms": "3室2厅",
    "direction": "南",
    "floor": "",
    "price": "9500",
    "tags": "",
    "source": "",
    "url": "https://sh.lianjia.com/zufang/SH2153831007579537408.html",
    "rent_type": "整租",
    "location": "青浦-盈浦-首创禧悦晴朗",
    "scraped_at": "2026-04-23 17:00:29",
    "region": "yingpu",
    "unit_price": 77.7,
    "lat": 31.133047,
    "lng": 121.078216
  },
  {
    "title": "整租·盈港商住新村 3室1厅 南",
    "community": "盈港商住新村",
    "area": "88.26",
    "rooms": "3室1厅",
    "direction": "南",
    "floor": "",
    "price": "3000",
    "tags": "",
    "source": "",
    "url": "https://sh.lianjia.com/zufang/SH2152303412127989760.html",
    "rent_type": "整租",
    "location": "青浦-盈浦-盈港商住新村",
    "scraped_at": "2026-04-23 17:00:29",
    "region": "yingpu",
    "unit_price": 34.0,
    "lat": 31.154412,
    "lng": 121.102781
  },
  {
    "title": "整租·五浦汇B区崧子苑 1室1厅 南",
    "community": "五浦汇B区崧子苑",
    "area": "64.08",
    "rooms": "1室1厅",
    "direction": "南",
    "floor": "",
    "price": "2300",
    "tags": "",
    "source": "",
    "url": "https://sh.lianjia.com/zufang/SH2086795516057747456.html",
    "rent_type": "整租",
    "location": "青浦-盈浦-五浦汇",
    "scraped_at": "2026-04-23 17:00:33",
    "region": "yingpu",
    "unit_price": 35.9,
    "lat": 31.145642,
    "lng": 121.084846
  },
  {
    "title": "整租·北极星广场 1室1厅 西南",
    "community": "北极星广场",
    "area": "47.86",
    "rooms": "1室1厅",
    "direction": "西南",
    "floor": "",
    "price": "2300",
    "tags": "",
    "source": "",
    "url": "https://sh.lianjia.com/zufang/SH2155233711656796160.html",
    "rent_type": "整租",
    "location": "青浦-盈浦-北极星广场",
    "scraped_at": "2026-04-23 17:00:29",
    "region": "yingpu",
    "unit_price": 48.1,
    "lat": 31.140216,
    "lng": 121.093021
  },
  {
    "title": "整租·东渡悦来城 2室1厅 南",
    "community": "东渡悦来城",
    "area": "90.61",
    "rooms": "2室1厅",
    "direction": "南",
    "floor": "",
    "price": "6400",
    "tags": "",
    "source": "",
    "url": "https://sh.lianjia.com/zufang/SH1982360503678140416.html",
    "rent_type": "整租",
    "location": "青浦-盈浦-东渡悦来城",
    "scraped_at": "2026-04-23 17:00:29",
    "region": "yingpu",
    "unit_price": 70.6,
    "lat": 31.135202,
    "lng": 121.081277
  },
  {
    "title": "整租·清河湾佳苑(二期) 2室1厅 南",
    "community": "清河湾佳苑(二期)",
    "area": "76.00",
    "rooms": "2室1厅",
    "direction": "南",
    "floor": "",
    "price": "3600",
    "tags": "",
    "source": "",
    "url": "https://sh.lianjia.com/zufang/SH2157318738196561920.html",
    "rent_type": "整租",
    "location": "青浦-盈浦-清河湾佳苑(二期)",
    "scraped_at": "2026-04-23 17:00:33",
    "region": "yingpu",
    "unit_price": 47.4,
    "lat": 31.165364,
    "lng": 121.101152
  },
  {
    "title": "整租·首创禧悦晴朗 2室1厅 南",
    "community": "首创禧悦晴朗",
    "area": "59.30",
    "rooms": "2室1厅",
    "direction": "南",
    "floor": "",
    "price": "4266",
    "tags": "",
    "source": "",
    "url": "https://sh.lianjia.com/zufang/SH2148983606146498560.html",
    "rent_type": "整租",
    "location": "青浦-盈浦-首创禧悦晴朗",
    "scraped_at": "2026-04-23 17:00:29",
    "region": "yingpu",
    "unit_price": 71.9,
    "lat": 31.133047,
    "lng": 121.078216
  },
  {
    "title": "整租·景瑞城中公园 3室1厅 南",
    "community": "景瑞城中公园",
    "area": "90.00",
    "rooms": "3室1厅",
    "direction": "南",
    "floor": "",
    "price": "4500",
    "tags": "",
    "source": "",
    "url": "https://sh.lianjia.com/zufang/SH2147326503895957504.html",
    "rent_type": "整租",
    "location": "青浦-盈浦-景瑞城中公园",
    "scraped_at": "2026-04-23 17:00:29",
    "region": "yingpu",
    "unit_price": 50.0,
    "lat": 31.157643,
    "lng": 121.113353
  },
  {
    "title": "整租·卓越世纪中心(青浦) 2室2厅 南",
    "community": "卓越世纪中心(青浦)",
    "area": "52.16",
    "rooms": "2室2厅",
    "direction": "南",
    "floor": "",
    "price": "3500",
    "tags": "",
    "source": "",
    "url": "https://sh.lianjia.com/zufang/SH2074688967776665600.html",
    "rent_type": "整租",
    "location": "青浦-盈浦-卓越世纪中心(青浦)",
    "scraped_at": "2026-04-23 17:00:29",
    "region": "yingpu",
    "unit_price": 67.1,
    "lat": 31.168025,
    "lng": 121.101467
  },
  {
    "title": "整租·北极星广场 2室2厅 西南",
    "community": "北极星广场",
    "area": "117.70",
    "rooms": "2室2厅",
    "direction": "西南",
    "floor": "",
    "price": "6300",
    "tags": "",
    "source": "",
    "url": "https://sh.lianjia.com/zufang/SH2088598155355488256.html",
    "rent_type": "整租",
    "location": "青浦-盈浦-北极星广场",
    "scraped_at": "2026-04-23 17:00:33",
    "region": "yingpu",
    "unit_price": 53.5,
    "lat": 31.140216,
    "lng": 121.093021
  },
  {
    "title": "整租·盈浦新村 2室2厅 南",
    "community": "盈浦新村",
    "area": "83.00",
    "rooms": "2室2厅",
    "direction": "南",
    "floor": "",
    "price": "3800",
    "tags": "",
    "source": "",
    "url": "https://sh.lianjia.com/zufang/SH2154819017762668544.html",
    "rent_type": "整租",
    "location": "青浦-盈浦-盈浦新村",
    "scraped_at": "2026-04-23 17:00:29",
    "region": "yingpu",
    "unit_price": 45.8,
    "lat": 31.147809,
    "lng": 121.096199
  },
  {
    "title": "整租·西部花苑（一期、三期） 3室2厅 南",
    "community": "西部花苑（一期、三期）",
    "area": "125.07",
    "rooms": "3室2厅",
    "direction": "南",
    "floor": "",
    "price": "4600",
    "tags": "",
    "source": "",
    "url": "https://sh.lianjia.com/zufang/SH1962820077602471936.html",
    "rent_type": "整租",
    "location": "青浦-盈浦-西部花苑",
    "scraped_at": "2026-04-23 17:00:29",
    "region": "yingpu",
    "unit_price": 36.8,
    "lat": 31.152683,
    "lng": 121.125469
  },
  {
    "title": "整租·东渡悦来城 2室2厅 南",
    "community": "东渡悦来城",
    "area": "87.00",
    "rooms": "2室2厅",
    "direction": "南",
    "floor": "",
    "price": "5300",
    "tags": "",
    "source": "",
    "url": "https://sh.lianjia.com/zufang/SH2149048630026174464.html",
    "rent_type": "整租",
    "location": "青浦-盈浦-东渡悦来城",
    "scraped_at": "2026-04-23 17:00:29",
    "region": "yingpu",
    "unit_price": 60.9,
    "lat": 31.135202,
    "lng": 121.081277
  },
  {
    "title": "整租·景港名人苑 3室1厅 南",
    "community": "景港名人苑",
    "area": "88.00",
    "rooms": "3室1厅",
    "direction": "南",
    "floor": "",
    "price": "4500",
    "tags": "",
    "source": "",
    "url": "https://sh.lianjia.com/zufang/SH2139983068537028608.html",
    "rent_type": "整租",
    "location": "青浦-盈浦-景港名人苑",
    "scraped_at": "2026-04-23 17:00:29",
    "region": "yingpu",
    "unit_price": 51.1,
    "lat": 31.149757,
    "lng": 121.100938
  },
  {
    "title": "整租·旭辉百合宫馆 2室2厅 南",
    "community": "旭辉百合宫馆",
    "area": "1.00",
    "rooms": "2室2厅",
    "direction": "南",
    "floor": "",
    "price": "4300",
    "tags": "",
    "source": "",
    "url": "https://sh.lianjia.com/zufang/SH2143188231577927680.html",
    "rent_type": "整租",
    "location": "青浦-盈浦-旭辉百合宫馆",
    "scraped_at": "2026-04-23 17:00:29",
    "region": "yingpu",
    "unit_price": 4300.0,
    "lat": 31.169087,
    "lng": 121.091948
  },
  {
    "title": "整租·旭辉百合宫馆 2室2厅 南",
    "community": "旭辉百合宫馆",
    "area": "90.89",
    "rooms": "2室2厅",
    "direction": "南",
    "floor": "",
    "price": "4500",
    "tags": "",
    "source": "",
    "url": "https://sh.lianjia.com/zufang/SH2146242365256368128.html",
    "rent_type": "整租",
    "location": "青浦-盈浦-旭辉百合宫馆",
    "scraped_at": "2026-04-23 17:00:29",
    "region": "yingpu",
    "unit_price": 49.5,
    "lat": 31.169087,
    "lng": 121.091948
  },
  {
    "title": "整租·中南君悦府 3室2厅 南",
    "community": "中南君悦府",
    "area": "90.83",
    "rooms": "3室2厅",
    "direction": "南",
    "floor": "",
    "price": "5600",
    "tags": "",
    "source": "",
    "url": "https://sh.lianjia.com/zufang/SH2096450066138005504.html",
    "rent_type": "整租",
    "location": "青浦-盈浦-中南君悦府",
    "scraped_at": "2026-04-23 17:00:33",
    "region": "yingpu",
    "unit_price": 61.7,
    "lat": 31.134032,
    "lng": 121.076418
  },
  {
    "title": "整租·东渡青筑 2室2厅 南",
    "community": "东渡青筑",
    "area": "97.00",
    "rooms": "2室2厅",
    "direction": "南",
    "floor": "",
    "price": "4200",
    "tags": "",
    "source": "",
    "url": "https://sh.lianjia.com/zufang/SH2155989704355348480.html",
    "rent_type": "整租",
    "location": "青浦-盈浦-东渡青筑",
    "scraped_at": "2026-04-23 17:00:29",
    "region": "yingpu",
    "unit_price": 43.3,
    "lat": 31.132424,
    "lng": 121.087817
  },
  {
    "title": "整租·青浦万达茂(住宅) 2室1厅 南",
    "community": "青浦万达茂(住宅)",
    "area": "87.46",
    "rooms": "2室1厅",
    "direction": "南",
    "floor": "",
    "price": "4800",
    "tags": "",
    "source": "",
    "url": "https://sh.lianjia.com/zufang/SH2156064330334863360.html",
    "rent_type": "整租",
    "location": "青浦-盈浦-青浦万达茂(住宅)",
    "scraped_at": "2026-04-23 17:00:29",
    "region": "yingpu",
    "unit_price": 54.9,
    "lat": 31.133415,
    "lng": 121.082812
  },
  {
    "title": "整租·双桥公寓（三区） 3室2厅 南",
    "community": "双桥公寓（三区）",
    "area": "101.00",
    "rooms": "3室2厅",
    "direction": "南",
    "floor": "",
    "price": "4000",
    "tags": "",
    "source": "",
    "url": "https://sh.lianjia.com/zufang/SH2156278998710091776.html",
    "rent_type": "整租",
    "location": "青浦-盈浦-双桥公寓",
    "scraped_at": "2026-04-23 17:00:33",
    "region": "yingpu",
    "unit_price": 39.6,
    "lat": 31.148368,
    "lng": 121.096998
  },
  {
    "title": "整租·五浦汇盛青雅苑 3室2厅 南",
    "community": "五浦汇盛青雅苑",
    "area": "99.00",
    "rooms": "3室2厅",
    "direction": "南",
    "floor": "",
    "price": "4300",
    "tags": "",
    "source": "",
    "url": "https://sh.lianjia.com/zufang/SH2156413576967880704.html",
    "rent_type": "整租",
    "location": "青浦-盈浦-五浦汇盛青雅苑",
    "scraped_at": "2026-04-23 17:00:33",
    "region": "yingpu",
    "unit_price": 43.4,
    "lat": 31.142978,
    "lng": 121.089185
  },
  {
    "title": "整租·五浦汇盛青雅苑 2室2厅 南",
    "community": "五浦汇盛青雅苑",
    "area": "77.00",
    "rooms": "2室2厅",
    "direction": "南",
    "floor": "",
    "price": "2300",
    "tags": "",
    "source": "",
    "url": "https://sh.lianjia.com/zufang/SH2150936918739648512.html",
    "rent_type": "整租",
    "location": "青浦-盈浦-五浦汇盛青雅苑",
    "scraped_at": "2026-04-23 17:00:29",
    "region": "yingpu",
    "unit_price": 29.9,
    "lat": 31.142978,
    "lng": 121.089185
  },
  {
    "title": "整租·卓越世纪中心(青浦) 6室2厅 南",
    "community": "卓越世纪中心(青浦)",
    "area": "224.21",
    "rooms": "6室2厅",
    "direction": "南",
    "floor": "",
    "price": "20000",
    "tags": "",
    "source": "",
    "url": "https://sh.lianjia.com/zufang/SH2150936849487495168.html",
    "rent_type": "整租",
    "location": "青浦-盈浦-卓越世纪中心(青浦)",
    "scraped_at": "2026-04-23 17:00:29",
    "region": "yingpu",
    "unit_price": 89.2,
    "lat": 31.168025,
    "lng": 121.101467
  },
  {
    "title": "整租·宝业·活力天地 3室2厅 南",
    "community": "宝业·活力天地",
    "area": "89.00",
    "rooms": "3室2厅",
    "direction": "南",
    "floor": "",
    "price": "6000",
    "tags": "",
    "source": "",
    "url": "https://sh.lianjia.com/zufang/SH2138274474171039744.html",
    "rent_type": "整租",
    "location": "青浦-盈浦-宝业",
    "scraped_at": "2026-04-23 17:00:29",
    "region": "yingpu",
    "unit_price": 67.4,
    "lat": 31.244167,
    "lng": 121.223725
  },
  {
    "title": "整租·五浦汇B区崧子苑 2室2厅 南",
    "community": "五浦汇B区崧子苑",
    "area": "86.00",
    "rooms": "2室2厅",
    "direction": "南",
    "floor": "",
    "price": "3600",
    "tags": "",
    "source": "",
    "url": "https://sh.lianjia.com/zufang/SH2138980675569582080.html",
    "rent_type": "整租",
    "location": "青浦-盈浦-五浦汇",
    "scraped_at": "2026-04-23 17:00:29",
    "region": "yingpu",
    "unit_price": 41.9,
    "lat": 31.145642,
    "lng": 121.084846
  },
  {
    "title": "整租·铂悦公馆 2室1厅 北",
    "community": "铂悦公馆",
    "area": "50.92",
    "rooms": "2室1厅",
    "direction": "北",
    "floor": "",
    "price": "3000",
    "tags": "",
    "source": "",
    "url": "https://sh.lianjia.com/zufang/SH2150232340977156096.html",
    "rent_type": "整租",
    "location": "青浦-盈浦-铂悦公馆",
    "scraped_at": "2026-04-23 17:00:29",
    "region": "yingpu",
    "unit_price": 58.9,
    "lat": 31.16974,
    "lng": 121.100194
  },
  {
    "title": "整租·虹桥玫瑰公馆 3室2厅 南",
    "community": "虹桥玫瑰公馆",
    "area": "97.00",
    "rooms": "3室2厅",
    "direction": "南",
    "floor": "",
    "price": "6000",
    "tags": "",
    "source": "",
    "url": "https://sh.lianjia.com/zufang/SH2150845381661949952.html",
    "rent_type": "整租",
    "location": "青浦-盈浦-虹桥玫瑰公馆",
    "scraped_at": "2026-04-23 17:00:29",
    "region": "yingpu",
    "unit_price": 61.9,
    "lat": 31.148506,
    "lng": 121.111596
  },
  {
    "title": "整租·西虹桥壹号 3室2厅 南",
    "community": "西虹桥壹号",
    "area": "91.82",
    "rooms": "3室2厅",
    "direction": "南",
    "floor": "",
    "price": "5300",
    "tags": "",
    "source": "",
    "url": "https://sh.lianjia.com/zufang/SH2156601324773310464.html",
    "rent_type": "整租",
    "location": "青浦-盈浦-西虹桥壹号",
    "scraped_at": "2026-04-23 17:00:33",
    "region": "yingpu",
    "unit_price": 57.7,
    "lat": 31.136799,
    "lng": 121.077987
  },
  {
    "title": "整租·东渡悦都荟 1室1厅 北",
    "community": "东渡悦都荟",
    "area": "46.56",
    "rooms": "1室1厅",
    "direction": "北",
    "floor": "",
    "price": "3500",
    "tags": "",
    "source": "",
    "url": "https://sh.lianjia.com/zufang/SH2156990589546004480.html",
    "rent_type": "整租",
    "location": "青浦-盈浦-东渡悦都荟",
    "scraped_at": "2026-04-23 17:00:33",
    "region": "yingpu",
    "unit_price": 75.2,
    "lat": 31.136117,
    "lng": 121.083291
  },
  {
    "title": "整租·首创禧悦(一期) 3室2厅 南",
    "community": "首创禧悦(一期)",
    "area": "86.78",
    "rooms": "3室2厅",
    "direction": "南",
    "floor": "",
    "price": "5000",
    "tags": "",
    "source": "",
    "url": "https://sh.lianjia.com/zufang/SH2101285811256295424.html",
    "rent_type": "整租",
    "location": "青浦-盈浦-首创禧悦(一期)",
    "scraped_at": "2026-04-23 17:00:33",
    "region": "yingpu",
    "unit_price": 57.6,
    "lat": 31.132564,
    "lng": 121.085487
  },
  {
    "title": "整租·东渡悦来城 3室2厅 南",
    "community": "东渡悦来城",
    "area": "97.00",
    "rooms": "3室2厅",
    "direction": "南",
    "floor": "",
    "price": "5500",
    "tags": "",
    "source": "",
    "url": "https://sh.lianjia.com/zufang/SH2102097073770856448.html",
    "rent_type": "整租",
    "location": "青浦-盈浦-东渡悦来城",
    "scraped_at": "2026-04-23 17:00:33",
    "region": "yingpu",
    "unit_price": 56.7,
    "lat": 31.135202,
    "lng": 121.081277
  },
  {
    "title": "整租·西虹桥壹号 3室2厅 南",
    "community": "西虹桥壹号",
    "area": "95.00",
    "rooms": "3室2厅",
    "direction": "南",
    "floor": "",
    "price": "6300",
    "tags": "",
    "source": "",
    "url": "https://sh.lianjia.com/zufang/SH2104052755982188544.html",
    "rent_type": "整租",
    "location": "青浦-盈浦-西虹桥壹号",
    "scraped_at": "2026-04-23 17:00:33",
    "region": "yingpu",
    "unit_price": 66.3,
    "lat": 31.136799,
    "lng": 121.077987
  },
  {
    "title": "整租·大发融悦 3室2厅 南",
    "community": "大发融悦",
    "area": "86.88",
    "rooms": "3室2厅",
    "direction": "南",
    "floor": "",
    "price": "4500",
    "tags": "",
    "source": "",
    "url": "https://sh.lianjia.com/zufang/SH2106599663200108544.html",
    "rent_type": "整租",
    "location": "青浦-盈浦-大发融悦",
    "scraped_at": "2026-04-23 17:00:33",
    "region": "yingpu",
    "unit_price": 51.8,
    "lat": 31.135785,
    "lng": 121.087538
  },
  {
    "title": "整租·诚中城公寓 3室2厅 南/北",
    "community": "诚中城公寓",
    "area": "152.19",
    "rooms": "3室2厅",
    "direction": "南/北",
    "floor": "",
    "price": "4000",
    "tags": "",
    "source": "",
    "url": "https://sh.lianjia.com/zufang/SH2111672448398131200.html",
    "rent_type": "整租",
    "location": "青浦-盈浦-诚中城公寓",
    "scraped_at": "2026-04-23 17:00:33",
    "region": "yingpu",
    "unit_price": 26.3,
    "lat": 31.1617,
    "lng": 121.110484
  },
  {
    "title": "整租·五浦汇A区新塘苑 3室2厅 南",
    "community": "五浦汇A区新塘苑",
    "area": "106.15",
    "rooms": "3室2厅",
    "direction": "南",
    "floor": "",
    "price": "3200",
    "tags": "",
    "source": "",
    "url": "https://sh.lianjia.com/zufang/SH2114268800005177344.html",
    "rent_type": "整租",
    "location": "青浦-盈浦-五浦汇",
    "scraped_at": "2026-04-23 17:00:37",
    "region": "yingpu",
    "unit_price": 30.1,
    "lat": 31.244167,
    "lng": 121.223725
  },
  {
    "title": "整租·青浦万达茂(公寓) 2室1厅 南",
    "community": "青浦万达茂(公寓)",
    "area": "52.00",
    "rooms": "2室1厅",
    "direction": "南",
    "floor": "",
    "price": "3200",
    "tags": "",
    "source": "",
    "url": "https://sh.lianjia.com/zufang/SH2115066767163260928.html",
    "rent_type": "整租",
    "location": "青浦-盈浦-青浦万达茂(公寓)",
    "scraped_at": "2026-04-23 17:00:37",
    "region": "yingpu",
    "unit_price": 61.5,
    "lat": 31.133415,
    "lng": 121.082812
  },
  {
    "title": "整租·五浦汇B区崧子苑 2室2厅 南",
    "community": "五浦汇B区崧子苑",
    "area": "76.00",
    "rooms": "2室2厅",
    "direction": "南",
    "floor": "",
    "price": "3300",
    "tags": "",
    "source": "",
    "url": "https://sh.lianjia.com/zufang/SH2116416343271014400.html",
    "rent_type": "整租",
    "location": "青浦-盈浦-五浦汇",
    "scraped_at": "2026-04-23 17:00:37",
    "region": "yingpu",
    "unit_price": 43.4,
    "lat": 31.145642,
    "lng": 121.084846
  },
  {
    "title": "整租·卓越世纪中心(青浦) 2室1厅 南",
    "community": "卓越世纪中心(青浦)",
    "area": "73.00",
    "rooms": "2室1厅",
    "direction": "南",
    "floor": "",
    "price": "3000",
    "tags": "",
    "source": "",
    "url": "https://sh.lianjia.com/zufang/SH2118898632584331264.html",
    "rent_type": "整租",
    "location": "青浦-盈浦-卓越世纪中心(青浦)",
    "scraped_at": "2026-04-23 17:00:37",
    "region": "yingpu",
    "unit_price": 41.1,
    "lat": 31.168025,
    "lng": 121.101467
  },
  {
    "title": "整租·东渡和院 5室3厅 南",
    "community": "东渡和院",
    "area": "262.36",
    "rooms": "5室3厅",
    "direction": "南",
    "floor": "",
    "price": "12000",
    "tags": "",
    "source": "",
    "url": "https://sh.lianjia.com/zufang/SH2145549031063945216.html",
    "rent_type": "整租",
    "location": "青浦-盈浦-东渡和院",
    "scraped_at": "2026-04-23 17:00:37",
    "region": "yingpu",
    "unit_price": 45.7,
    "lat": 31.148822,
    "lng": 121.107986
  },
  {
    "title": "整租·铂悦公馆 1室1厅 北",
    "community": "铂悦公馆",
    "area": "52.00",
    "rooms": "1室1厅",
    "direction": "北",
    "floor": "",
    "price": "2800",
    "tags": "",
    "source": "",
    "url": "https://sh.lianjia.com/zufang/SH2141891483651801088.html",
    "rent_type": "整租",
    "location": "青浦-盈浦-铂悦公馆",
    "scraped_at": "2026-04-23 17:00:37",
    "region": "yingpu",
    "unit_price": 53.8,
    "lat": 31.16974,
    "lng": 121.100194
  },
  {
    "title": "整租·首创禧悦(一期) 3室2厅 南",
    "community": "首创禧悦(一期)",
    "area": "89.00",
    "rooms": "3室2厅",
    "direction": "南",
    "floor": "",
    "price": "5600",
    "tags": "",
    "source": "",
    "url": "https://sh.lianjia.com/zufang/SH2152680622781366272.html",
    "rent_type": "整租",
    "location": "青浦-盈浦-首创禧悦(一期)",
    "scraped_at": "2026-04-23 17:00:37",
    "region": "yingpu",
    "unit_price": 62.9,
    "lat": 31.132564,
    "lng": 121.085487
  },
  {
    "title": "整租·首创禧悦雅苑 3室2厅 南",
    "community": "首创禧悦雅苑",
    "area": "90.00",
    "rooms": "3室2厅",
    "direction": "南",
    "floor": "",
    "price": "6500",
    "tags": "",
    "source": "",
    "url": "https://sh.lianjia.com/zufang/SH2145056474127138816.html",
    "rent_type": "整租",
    "location": "青浦-盈浦-首创禧悦雅苑",
    "scraped_at": "2026-04-23 17:00:37",
    "region": "yingpu",
    "unit_price": 72.2,
    "lat": 31.131002,
    "lng": 121.07972
  },
  {
    "title": "整租·北极星广场 1室1厅 北",
    "community": "北极星广场",
    "area": "46.00",
    "rooms": "1室1厅",
    "direction": "北",
    "floor": "",
    "price": "2600",
    "tags": "",
    "source": "",
    "url": "https://sh.lianjia.com/zufang/SH2145105422783086592.html",
    "rent_type": "整租",
    "location": "青浦-盈浦-北极星广场",
    "scraped_at": "2026-04-23 17:00:37",
    "region": "yingpu",
    "unit_price": 56.5,
    "lat": 31.140216,
    "lng": 121.093021
  },
  {
    "title": "整租·富力桃园C区 3室2厅 南",
    "community": "富力桃园C区",
    "area": "96.36",
    "rooms": "3室2厅",
    "direction": "南",
    "floor": "",
    "price": "4300",
    "tags": "",
    "source": "",
    "url": "https://sh.lianjia.com/zufang/SH2154063331185393664.html",
    "rent_type": "整租",
    "location": "青浦-盈浦-富力桃园",
    "scraped_at": "2026-04-23 17:00:37",
    "region": "yingpu",
    "unit_price": 44.6,
    "lat": 31.164569,
    "lng": 121.092081
  },
  {
    "title": "整租·富力桃园B区 3室1厅 南/北",
    "community": "富力桃园B区",
    "area": "91.43",
    "rooms": "3室1厅",
    "direction": "南/北",
    "floor": "",
    "price": "4100",
    "tags": "",
    "source": "",
    "url": "https://sh.lianjia.com/zufang/SH2127277821066739712.html",
    "rent_type": "整租",
    "location": "青浦-盈浦-富力桃园",
    "scraped_at": "2026-04-23 17:00:37",
    "region": "yingpu",
    "unit_price": 44.8,
    "lat": 31.164569,
    "lng": 121.092081
  },
  {
    "title": "整租·富力桃园B区 3室2厅 南",
    "community": "富力桃园B区",
    "area": "90.00",
    "rooms": "3室2厅",
    "direction": "南",
    "floor": "",
    "price": "3700",
    "tags": "",
    "source": "",
    "url": "https://sh.lianjia.com/zufang/SH2154420110087946240.html",
    "rent_type": "整租",
    "location": "青浦-盈浦-富力桃园",
    "scraped_at": "2026-04-23 17:00:37",
    "region": "yingpu",
    "unit_price": 41.1,
    "lat": 31.164569,
    "lng": 121.092081
  },
  {
    "title": "整租·首创禧悦风华 3室2厅 南/北",
    "community": "首创禧悦风华",
    "area": "89.00",
    "rooms": "3室2厅",
    "direction": "南/北",
    "floor": "",
    "price": "5500",
    "tags": "",
    "source": "",
    "url": "https://sh.lianjia.com/zufang/SH2118616850844614656.html",
    "rent_type": "整租",
    "location": "青浦-盈浦-首创禧悦风华",
    "scraped_at": "2026-04-23 17:00:37",
    "region": "yingpu",
    "unit_price": 61.8,
    "lat": 31.132835,
    "lng": 121.088597
  },
  {
    "title": "整租·民乐佳苑一区 2室2厅 南/北",
    "community": "民乐佳苑一区",
    "area": "84.95",
    "rooms": "2室2厅",
    "direction": "南/北",
    "floor": "",
    "price": "3100",
    "tags": "",
    "source": "",
    "url": "https://sh.lianjia.com/zufang/SH2125811160593727488.html",
    "rent_type": "整租",
    "location": "青浦-盈浦-民乐佳苑一区",
    "scraped_at": "2026-04-23 17:00:37",
    "region": "yingpu",
    "unit_price": 36.5,
    "lat": 31.261354,
    "lng": 121.094432
  },
  {
    "title": "整租·青浦万达茂(住宅) 2室1厅 东南",
    "community": "青浦万达茂(住宅)",
    "area": "71.64",
    "rooms": "2室1厅",
    "direction": "东南",
    "floor": "",
    "price": "4000",
    "tags": "",
    "source": "",
    "url": "https://sh.lianjia.com/zufang/SH2156382982263275520.html",
    "rent_type": "整租",
    "location": "青浦-盈浦-青浦万达茂(住宅)",
    "scraped_at": "2026-04-23 17:00:37",
    "region": "yingpu",
    "unit_price": 55.8,
    "lat": 31.133415,
    "lng": 121.082812
  },
  {
    "title": "整租·首创禧悦丽苑 3室2厅 南",
    "community": "首创禧悦丽苑",
    "area": "81.16",
    "rooms": "3室2厅",
    "direction": "南",
    "floor": "",
    "price": "5500",
    "tags": "",
    "source": "",
    "url": "https://sh.lianjia.com/zufang/SH2151274094480326656.html",
    "rent_type": "整租",
    "location": "青浦-盈浦-首创禧悦丽苑",
    "scraped_at": "2026-04-23 17:00:37",
    "region": "yingpu",
    "unit_price": 67.8,
    "lat": 31.04262,
    "lng": 121.534207
  },
  {
    "title": "整租·西部花苑（一期、三期） 2室1厅 南",
    "community": "西部花苑（一期、三期）",
    "area": "87.33",
    "rooms": "2室1厅",
    "direction": "南",
    "floor": "",
    "price": "3000",
    "tags": "",
    "source": "",
    "url": "https://sh.lianjia.com/zufang/SH2138334053579882496.html",
    "rent_type": "整租",
    "location": "青浦-盈浦-西部花苑",
    "scraped_at": "2026-04-23 17:00:37",
    "region": "yingpu",
    "unit_price": 34.4,
    "lat": 31.152683,
    "lng": 121.125469
  },
  {
    "title": "整租·融信铂爵 3室2厅 南",
    "community": "融信铂爵",
    "area": "108.00",
    "rooms": "3室2厅",
    "direction": "南",
    "floor": "",
    "price": "8300",
    "tags": "",
    "source": "",
    "url": "https://sh.lianjia.com/zufang/SH2118643544607424512.html",
    "rent_type": "整租",
    "location": "青浦-盈浦-融信铂爵",
    "scraped_at": "2026-04-23 17:01:06",
    "region": "yingpu",
    "unit_price": 76.9,
    "lat": 31.135655,
    "lng": 121.079199
  },
  {
    "title": "整租·东渡悦来城 3室2厅 南/北",
    "community": "东渡悦来城",
    "area": "98.49",
    "rooms": "3室2厅",
    "direction": "南/北",
    "floor": "",
    "price": "5300",
    "tags": "",
    "source": "",
    "url": "https://sh.lianjia.com/zufang/SH2157319878518767616.html",
    "rent_type": "整租",
    "location": "青浦-盈浦-东渡悦来城",
    "scraped_at": "2026-04-23 17:00:41",
    "region": "yingpu",
    "unit_price": 53.8,
    "lat": 31.135202,
    "lng": 121.081277
  },
  {
    "title": "整租·首创禧悦风华 3室2厅 南",
    "community": "首创禧悦风华",
    "area": "89.00",
    "rooms": "3室2厅",
    "direction": "南",
    "floor": "",
    "price": "6500",
    "tags": "",
    "source": "",
    "url": "https://sh.lianjia.com/zufang/SH2148795091324502016.html",
    "rent_type": "整租",
    "location": "青浦-盈浦-首创禧悦风华",
    "scraped_at": "2026-04-23 17:00:37",
    "region": "yingpu",
    "unit_price": 73.0,
    "lat": 31.132835,
    "lng": 121.088597
  },
  {
    "title": "整租·青浦万达茂(公寓) 2室1厅 东/西",
    "community": "青浦万达茂(公寓)",
    "area": "42.00",
    "rooms": "2室1厅",
    "direction": "东/西",
    "floor": "",
    "price": "3600",
    "tags": "",
    "source": "",
    "url": "https://sh.lianjia.com/zufang/SH2114329953171406848.html",
    "rent_type": "整租",
    "location": "青浦-盈浦-青浦万达茂(公寓)",
    "scraped_at": "2026-04-23 17:00:37",
    "region": "yingpu",
    "unit_price": 85.7,
    "lat": 31.133415,
    "lng": 121.082812
  },
  {
    "title": "整租·民乐佳苑三区 2室1厅 南",
    "community": "民乐佳苑三区",
    "area": "68.00",
    "rooms": "2室1厅",
    "direction": "南",
    "floor": "",
    "price": "3500",
    "tags": "",
    "source": "",
    "url": "https://sh.lianjia.com/zufang/SH2130638460069871616.html",
    "rent_type": "整租",
    "location": "青浦-盈浦-民乐佳苑三区",
    "scraped_at": "2026-04-23 17:00:37",
    "region": "yingpu",
    "unit_price": 51.5,
    "lat": 31.161034,
    "lng": 121.087138
  },
  {
    "title": "整租·青浦万达茂(公寓) 2室2厅 南",
    "community": "青浦万达茂(公寓)",
    "area": "42.56",
    "rooms": "2室2厅",
    "direction": "南",
    "floor": "",
    "price": "3100",
    "tags": "",
    "source": "",
    "url": "https://sh.lianjia.com/zufang/SH2147607761108598784.html",
    "rent_type": "整租",
    "location": "青浦-盈浦-青浦万达茂(公寓)",
    "scraped_at": "2026-04-23 17:00:37",
    "region": "yingpu",
    "unit_price": 72.8,
    "lat": 31.133415,
    "lng": 121.082812
  },
  {
    "title": "整租·旭辉玫瑰湾 2室2厅 南",
    "community": "旭辉玫瑰湾",
    "area": "90.18",
    "rooms": "2室2厅",
    "direction": "南",
    "floor": "",
    "price": "3800",
    "tags": "",
    "source": "",
    "url": "https://sh.lianjia.com/zufang/SH2150534143107137536.html",
    "rent_type": "整租",
    "location": "青浦-盈浦-旭辉玫瑰湾",
    "scraped_at": "2026-04-23 17:00:37",
    "region": "yingpu",
    "unit_price": 42.1,
    "lat": 31.166739,
    "lng": 121.097407
  },
  {
    "title": "整租·东渡青筑 3室2厅 南",
    "community": "东渡青筑",
    "area": "139.70",
    "rooms": "3室2厅",
    "direction": "南",
    "floor": "",
    "price": "7400",
    "tags": "",
    "source": "",
    "url": "https://sh.lianjia.com/zufang/SH2110376035529785344.html",
    "rent_type": "整租",
    "location": "青浦-盈浦-东渡青筑",
    "scraped_at": "2026-04-23 17:00:37",
    "region": "yingpu",
    "unit_price": 53.0,
    "lat": 31.132424,
    "lng": 121.087817
  },
  {
    "title": "整租·景港名人苑 2室2厅 南/北",
    "community": "景港名人苑",
    "area": "90.96",
    "rooms": "2室2厅",
    "direction": "南/北",
    "floor": "",
    "price": "3500",
    "tags": "",
    "source": "",
    "url": "https://sh.lianjia.com/zufang/SH2129943426840395776.html",
    "rent_type": "整租",
    "location": "青浦-盈浦-景港名人苑",
    "scraped_at": "2026-04-23 17:00:37",
    "region": "yingpu",
    "unit_price": 38.5,
    "lat": 31.149757,
    "lng": 121.100938
  },
  {
    "title": "整租·清河湾佳苑(一期) 2室2厅 南",
    "community": "清河湾佳苑(一期)",
    "area": "96.00",
    "rooms": "2室2厅",
    "direction": "南",
    "floor": "",
    "price": "4000",
    "tags": "",
    "source": "",
    "url": "https://sh.lianjia.com/zufang/SH2151603636218626048.html",
    "rent_type": "整租",
    "location": "青浦-盈浦-清河湾佳苑(一期)",
    "scraped_at": "2026-04-23 17:00:41",
    "region": "yingpu",
    "unit_price": 41.7,
    "lat": 31.166563,
    "lng": 121.102624
  },
  {
    "title": "整租·印象青城 3室2厅 南",
    "community": "印象青城",
    "area": "99.00",
    "rooms": "3室2厅",
    "direction": "南",
    "floor": "",
    "price": "7000",
    "tags": "",
    "source": "",
    "url": "https://sh.lianjia.com/zufang/SH2151969189160550400.html",
    "rent_type": "整租",
    "location": "青浦-盈浦-印象青城",
    "scraped_at": "2026-04-23 17:00:41",
    "region": "yingpu",
    "unit_price": 70.7,
    "lat": 31.143974,
    "lng": 121.115729
  },
  {
    "title": "整租·盛誉世家 3室2厅 南",
    "community": "盛誉世家",
    "area": "105.00",
    "rooms": "3室2厅",
    "direction": "南",
    "floor": "",
    "price": "6500",
    "tags": "",
    "source": "",
    "url": "https://sh.lianjia.com/zufang/SH2153803953836392448.html",
    "rent_type": "整租",
    "location": "青浦-盈浦-盛誉世家",
    "scraped_at": "2026-04-23 17:00:41",
    "region": "yingpu",
    "unit_price": 61.9,
    "lat": 31.163165,
    "lng": 121.102729
  },
  {
    "title": "整租·东渡青筑 3室2厅 南",
    "community": "东渡青筑",
    "area": "139.00",
    "rooms": "3室2厅",
    "direction": "南",
    "floor": "",
    "price": "5600",
    "tags": "",
    "source": "",
    "url": "https://sh.lianjia.com/zufang/SH2101650935586488320.html",
    "rent_type": "整租",
    "location": "青浦-盈浦-东渡青筑",
    "scraped_at": "2026-04-23 17:01:06",
    "region": "yingpu",
    "unit_price": 40.3,
    "lat": 31.132424,
    "lng": 121.087817
  },
  {
    "title": "整租·御澜湾 4室1厅 南",
    "community": "御澜湾",
    "area": "151.39",
    "rooms": "4室1厅",
    "direction": "南",
    "floor": "",
    "price": "12500",
    "tags": "",
    "source": "",
    "url": "https://sh.lianjia.com/zufang/SH1946514845687873536.html",
    "rent_type": "整租",
    "location": "青浦-盈浦-御澜湾",
    "scraped_at": "2026-04-23 17:01:06",
    "region": "yingpu",
    "unit_price": 82.6,
    "lat": 31.142612,
    "lng": 121.097412
  },
  {
    "title": "整租·首创禧悦雅苑 3室2厅 南",
    "community": "首创禧悦雅苑",
    "area": "89.00",
    "rooms": "3室2厅",
    "direction": "南",
    "floor": "",
    "price": "8000",
    "tags": "",
    "source": "",
    "url": "https://sh.lianjia.com/zufang/SH2146138649454968832.html",
    "rent_type": "整租",
    "location": "青浦-盈浦-首创禧悦雅苑",
    "scraped_at": "2026-04-23 17:01:06",
    "region": "yingpu",
    "unit_price": 89.9,
    "lat": 31.131002,
    "lng": 121.07972
  },
  {
    "title": "整租·西虹桥壹号 3室2厅 南",
    "community": "西虹桥壹号",
    "area": "84.03",
    "rooms": "3室2厅",
    "direction": "南",
    "floor": "",
    "price": "5800",
    "tags": "",
    "source": "",
    "url": "https://sh.lianjia.com/zufang/SH2140414836733902848.html",
    "rent_type": "整租",
    "location": "青浦-盈浦-西虹桥壹号",
    "scraped_at": "2026-04-23 17:01:06",
    "region": "yingpu",
    "unit_price": 69.0,
    "lat": 31.136799,
    "lng": 121.077987
  },
  {
    "title": "整租·东渡悦来城 3室2厅 南",
    "community": "东渡悦来城",
    "area": "96.94",
    "rooms": "3室2厅",
    "direction": "南",
    "floor": "",
    "price": "7500",
    "tags": "",
    "source": "",
    "url": "https://sh.lianjia.com/zufang/SH1998289481769156608.html",
    "rent_type": "整租",
    "location": "青浦-盈浦-东渡悦来城",
    "scraped_at": "2026-04-23 17:01:06",
    "region": "yingpu",
    "unit_price": 77.4,
    "lat": 31.135202,
    "lng": 121.081277
  },
  {
    "title": "整租·清河湾公寓 4室1厅 南",
    "community": "清河湾公寓",
    "area": "127.26",
    "rooms": "4室1厅",
    "direction": "南",
    "floor": "",
    "price": "5000",
    "tags": "",
    "source": "",
    "url": "https://sh.lianjia.com/zufang/SH2154873750598713344.html",
    "rent_type": "整租",
    "location": "青浦-盈浦-清河湾公寓",
    "scraped_at": "2026-04-23 17:01:06",
    "region": "yingpu",
    "unit_price": 39.3,
    "lat": 31.148368,
    "lng": 121.096998
  },
  {
    "title": "整租·卓越世纪中心(青浦) 2室1厅 南",
    "community": "卓越世纪中心(青浦)",
    "area": "61.00",
    "rooms": "2室1厅",
    "direction": "南",
    "floor": "",
    "price": "3700",
    "tags": "",
    "source": "",
    "url": "https://sh.lianjia.com/zufang/SH2155667027992248320.html",
    "rent_type": "整租",
    "location": "青浦-盈浦-卓越世纪中心(青浦)",
    "scraped_at": "2026-04-23 17:01:06",
    "region": "yingpu",
    "unit_price": 60.7,
    "lat": 31.168025,
    "lng": 121.101467
  },
  {
    "title": "整租·盈港花园(公寓) 3室2厅 南",
    "community": "盈港花园(公寓)",
    "area": "125.07",
    "rooms": "3室2厅",
    "direction": "南",
    "floor": "",
    "price": "4500",
    "tags": "",
    "source": "",
    "url": "https://sh.lianjia.com/zufang/SH2156408879993323520.html",
    "rent_type": "整租",
    "location": "青浦-盈浦-盈港花园(公寓)",
    "scraped_at": "2026-04-23 17:01:06",
    "region": "yingpu",
    "unit_price": 36.0,
    "lat": 31.178762,
    "lng": 121.286559
  },
  {
    "title": "整租·青浦万达茂(公寓) 2室1厅 南",
    "community": "青浦万达茂(公寓)",
    "area": "42.56",
    "rooms": "2室1厅",
    "direction": "南",
    "floor": "",
    "price": "3600",
    "tags": "",
    "source": "",
    "url": "https://sh.lianjia.com/zufang/SH2117524200141881344.html",
    "rent_type": "整租",
    "location": "青浦-盈浦-青浦万达茂(公寓)",
    "scraped_at": "2026-04-23 17:01:06",
    "region": "yingpu",
    "unit_price": 84.6,
    "lat": 31.133415,
    "lng": 121.082812
  },
  {
    "title": "整租·东渡青筑 2室2厅 南",
    "community": "东渡青筑",
    "area": "70.52",
    "rooms": "2室2厅",
    "direction": "南",
    "floor": "",
    "price": "3000",
    "tags": "",
    "source": "",
    "url": "https://sh.lianjia.com/zufang/SH2108175232056426496.html",
    "rent_type": "整租",
    "location": "青浦-盈浦-东渡青筑",
    "scraped_at": "2026-04-23 17:01:06",
    "region": "yingpu",
    "unit_price": 42.5,
    "lat": 31.132424,
    "lng": 121.087817
  },
  {
    "title": "整租·民乐佳苑二区 4室1厅 南",
    "community": "民乐佳苑二区",
    "area": "120.33",
    "rooms": "4室1厅",
    "direction": "南",
    "floor": "",
    "price": "5000",
    "tags": "",
    "source": "",
    "url": "https://sh.lianjia.com/zufang/SH2151638708275642368.html",
    "rent_type": "整租",
    "location": "青浦-盈浦-民乐佳苑二区",
    "scraped_at": "2026-04-23 17:01:06",
    "region": "yingpu",
    "unit_price": 41.6,
    "lat": 31.157157,
    "lng": 121.091817
  },
  {
    "title": "整租·青浦万达茂(公寓) 2室1厅 南",
    "community": "青浦万达茂(公寓)",
    "area": "65.48",
    "rooms": "2室1厅",
    "direction": "南",
    "floor": "",
    "price": "3200",
    "tags": "",
    "source": "",
    "url": "https://sh.lianjia.com/zufang/SH2156210421747417088.html",
    "rent_type": "整租",
    "location": "青浦-盈浦-青浦万达茂(公寓)",
    "scraped_at": "2026-04-23 17:01:06",
    "region": "yingpu",
    "unit_price": 48.9,
    "lat": 31.133415,
    "lng": 121.082812
  },