[
  {
    "title": "整租·城市经典四期高迪 1室1厅 南",
    "community": "城市经典四期高迪",
    "area": "60.92",
    "rooms": "1室1厅",
    "direction": "南",
    "floor": "",
    "price": "5980",
    "tags": "",
    "source": "",
    "url": "https://sh.lianjia.com/zufang/SH2137883207020838912.html",
    "rent_type": "整租",
    "location": "浦东-张江-城市经典四期高迪",
    "scraped_at": "2026-04-23 10:34:28",
    "region": "zhangjiang",
    "unit_price": 98.2,
    "lat": 31.212907,
    "lng": 121.618681
  },
  {
    "title": "整租·华发四季 4室2厅 南",
    "community": "华发四季",
    "area": "161.96",
    "rooms": "4室2厅",
    "direction": "南",
    "floor": "",
    "price": "14000",
    "tags": "",
    "source": "",
    "url": "https://sh.lianjia.com/zufang/SH2130982069818359808.html",
    "rent_type": "整租",
    "location": "浦东-张江-华发四季",
    "scraped_at": "2026-04-23 10:34:28",
    "region": "zhangjiang",
    "unit_price": 86.4,
    "lat": 31.172771,
    "lng": 121.623048
  },
  {
    "title": "整租·申城佳苑三期B块 2室1厅 南",
    "community": "申城佳苑三期B块",
    "area": "60.00",
    "rooms": "2室1厅",
    "direction": "南",
    "floor": "",
    "price": "4500",
    "tags": "",
    "source": "",
    "url": "https://sh.lianjia.com/zufang/SH2017843793331486720.html",
    "rent_type": "整租",
    "location": "浦东-张江-申城佳苑三期",
    "scraped_at": "2026-04-23 10:35:41",
    "region": "zhangjiang",
    "unit_price": 75.0,
    "lat": 31.180953,
    "lng": 121.638523
  },
  {
    "title": "独栋·纳仕 雅集服务公寓 国企直营可短租张江纳仕雅集100平俩室两厅保障性租赁住房 2室2厅",
    "community": "纳仕 雅集服务公寓 国企直营可短租张江纳仕雅集100平俩室两厅保障性租赁住房",
    "area": "100.00",
    "rooms": "2室2厅",
    "direction": "",
    "floor": "",
    "price": "8350",
    "tags": "",
    "source": "",
    "url": "https://sh.lianjia.com/apartment/80843.html",
    "rent_type": "独栋",
    "location": "",
    "scraped_at": "2026-04-23 10:34:28",
    "region": "zhangjiang",
    "unit_price": 83.5,
    "lat": 31.025489,
    "lng": 121.261813
  },
  {
    "title": "整租·孙桥花苑 2室2厅 南",
    "community": "孙桥花苑",
    "area": "72.60",
    "rooms": "2室2厅",
    "direction": "南",
    "floor": "",
    "price": "5600",
    "tags": "",
    "source": "",
    "url": "https://sh.lianjia.com/zufang/SH2095095420492447744.html",
    "rent_type": "整租",
    "location": "浦东-张江-孙桥花苑",
    "scraped_at": "2026-04-23 10:34:28",
    "region": "zhangjiang",
    "unit_price": 77.1,
    "lat": 31.179884,
    "lng": 121.629495
  },
  {
    "title": "独栋·城方公寓 孙桥璟佩社区 独立阳台，民用水电气，国企直租，拎包入住 1室1厅",
    "community": "城方公寓 孙桥璟佩社区 独立阳台，民用水电气，国企直租，拎包入住",
    "area": "34.00",
    "rooms": "1室1厅",
    "direction": "",
    "floor": "",
    "price": "3861-3880",
    "tags": "",
    "source": "",
    "url": "https://sh.lianjia.com/apartment/85555.html",
    "rent_type": "独栋",
    "location": "",
    "scraped_at": "2026-04-23 10:36:23",
    "region": "zhangjiang",
    "unit_price": "",
    "lat": 31.213456,
    "lng": 121.435516
  },
  {
    "title": "整租·展想悦廷 1室1厅 东",
    "community": "展想悦廷",
    "area": "57.00",
    "rooms": "1室1厅",
    "direction": "东",
    "floor": "",
    "price": "4200",
    "tags": "",
    "source": "",
    "url": "https://sh.lianjia.com/zufang/SH2054435418551615488.html",
    "rent_type": "整租",
    "location": "浦东-张江-展想悦廷",
    "scraped_at": "2026-04-23 10:35:44",
    "region": "zhangjiang",
    "unit_price": 73.7,
    "lat": 31.210723,
    "lng": 121.626563
  },
  {
    "title": "整租·华发四季 3室2厅 南/北",
    "community": "华发四季",
    "area": "89.84",
    "rooms": "3室2厅",
    "direction": "南/北",
    "floor": "",
    "price": "8500",
    "tags": "",
    "source": "",
    "url": "https://sh.lianjia.com/zufang/SH2151283645007003648.html",
    "rent_type": "整租",
    "location": "浦东-张江-华发四季",
    "scraped_at": "2026-04-23 10:34:28",
    "region": "zhangjiang",
    "unit_price": 94.6,
    "lat": 31.172771,
    "lng": 121.623048
  },
  {
    "title": "整租·申城佳苑一期B块 3室1厅 南",
    "community": "申城佳苑一期B块",
    "area": "86.00",
    "rooms": "3室1厅",
    "direction": "南",
    "floor": "",
    "price": "5500",
    "tags": "",
    "source": "",
    "url": "https://sh.lianjia.com/zufang/SH2007824649039118336.html",
    "rent_type": "整租",
    "location": "浦东-张江-申城佳苑一期",
    "scraped_at": "2026-04-23 10:35:41",
    "region": "zhangjiang",
    "unit_price": 64.0,
    "lat": 31.185542,
    "lng": 121.636445
  },
  {
    "title": "独栋·泊寓 张江国创店 【温馨一居】实体墙隔音好 押一付一无中介费 免费班车直达地铁 可养猫可短租 开间",
    "community": "泊寓 张江国创店 【温馨一居】实体墙隔音好 押一付一无中介费 免费班车直达地铁 可养猫可短租 开间",
    "area": "20.00",
    "rooms": "",
    "direction": "",
    "floor": "",
    "price": "3700",
    "tags": "",
    "source": "",
    "url": "https://sh.lianjia.com/apartment/26211.html",
    "rent_type": "独栋",
    "location": "",
    "scraped_at": "2026-04-23 10:34:32",
    "region": "zhangjiang",
    "unit_price": 185.0,
    "lat": null,
    "lng": null
  },
  {
    "title": "整租·汤臣高尔夫(公寓) 4室2厅 南",
    "community": "汤臣高尔夫(公寓)",
    "area": "188.49",
    "rooms": "4室2厅",
    "direction": "南",
    "floor": "",
    "price": "18600",
    "tags": "",
    "source": "",
    "url": "https://sh.lianjia.com/zufang/SH1878063925962997760.html",
    "rent_type": "整租",
    "location": "浦东-张江-汤臣高尔夫(公寓)",
    "scraped_at": "2026-04-23 10:34:28",
    "region": "zhangjiang",
    "unit_price": 98.7,
    "lat": 31.218904,
    "lng": 121.582034
  },
  {
    "title": "整租·古桐公寓 1室1厅 南",
    "community": "古桐公寓",
    "area": "63.39",
    "rooms": "1室1厅",
    "direction": "南",
    "floor": "",
    "price": "5355",
    "tags": "",
    "source": "",
    "url": "https://sh.lianjia.com/zufang/SH1822646509691207680.html",
    "rent_type": "整租",
    "location": "浦东-张江-古桐公寓",
    "scraped_at": "2026-04-23 10:34:28",
    "region": "zhangjiang",
    "unit_price": 84.5,
    "lat": 31.200974,
    "lng": 121.616393
  },
  {
    "title": "独栋·柚米 张江纳仕国际租赁社区 张江集团租赁社区 三房两厅高端精装全配 配套小学幼儿园 3室2厅",
    "community": "柚米 张江纳仕国际租赁社区 张江集团租赁社区 三房两厅高端精装全配 配套小学幼儿园",
    "area": "145.00",
    "rooms": "3室2厅",
    "direction": "",
    "floor": "",
    "price": "10268",
    "tags": "",
    "source": "",
    "url": "https://sh.lianjia.com/apartment/43060.html",
    "rent_type": "独栋",
    "location": "",
    "scraped_at": "2026-04-23 10:36:32",
    "region": "zhangjiang",
    "unit_price": 70.8,
    "lat": 31.168658,
    "lng": 121.623132
  },
  {
    "title": "整租·香楠小区 3室1厅 南",
    "community": "香楠小区",
    "area": "92.00",
    "rooms": "3室1厅",
    "direction": "南",
    "floor": "",
    "price": "6000",
    "tags": "",
    "source": "",
    "url": "https://sh.lianjia.com/zufang/SH2072968642244378624.html",
    "rent_type": "整租",
    "location": "浦东-张江-香楠小区",
    "scraped_at": "2026-04-23 10:34:32",
    "region": "zhangjiang",
    "unit_price": 65.2,
    "lat": 31.21652,
    "lng": 121.614476
  },
  {
    "title": "独栋·唐巢公寓 软件园店 一室户+阳台 开间",
    "community": "唐巢公寓 软件园店 一室户+阳台 开间",
    "area": "25.00",
    "rooms": "",
    "direction": "",
    "floor": "",
    "price": "3000-3200",
    "tags": "",
    "source": "",
    "url": "https://sh.lianjia.com/apartment/65421.html",
    "rent_type": "独栋",
    "location": "",
    "scraped_at": "2026-04-23 10:34:28",
    "region": "zhangjiang",
    "unit_price": "",
    "lat": null,
    "lng": null
  },
  {
    "title": "整租·日月光水岸花园(一期) 2室2厅 南",
    "community": "日月光水岸花园(一期)",
    "area": "88.00",
    "rooms": "2室2厅",
    "direction": "南",
    "floor": "",
    "price": "7035",
    "tags": "",
    "source": "",
    "url": "https://sh.lianjia.com/zufang/SH2110957731539058688.html",
    "rent_type": "整租",
    "location": "浦东-张江-日月光水岸花园(一期)",
    "scraped_at": "2026-04-23 10:34:28",
    "region": "zhangjiang",
    "unit_price": 79.9,
    "lat": 31.214414,
    "lng": 121.623717
  },
  {
    "title": "独栋·纳仕 张江在线右里1 张江园区保租房，独立厨房，明火做饭，宠物友好南北通透 1室1厅",
    "community": "纳仕 张江在线右里1 张江园区保租房，独立厨房，明火做饭，宠物友好南北通透",
    "area": "55.00",
    "rooms": "1室1厅",
    "direction": "",
    "floor": "",
    "price": "5081",
    "tags": "",
    "source": "",
    "url": "https://sh.lianjia.com/apartment/101047.html",
    "rent_type": "独栋",
    "location": "",
    "scraped_at": "2026-04-23 10:34:28",
    "region": "zhangjiang",
    "unit_price": 92.4,
    "lat": null,
    "lng": null
  },
  {
    "title": "整租·申城佳苑三期B块 3室1厅 南",
    "community": "申城佳苑三期B块",
    "area": "78.61",
    "rooms": "3室1厅",
    "direction": "南",
    "floor": "",
    "price": "5300",
    "tags": "",
    "source": "",
    "url": "https://sh.lianjia.com/zufang/SH1846089519607054336.html",
    "rent_type": "整租",
    "location": "浦东-张江-申城佳苑三期",
    "scraped_at": "2026-04-23 10:34:28",
    "region": "zhangjiang",
    "unit_price": 67.4,
    "lat": 31.180953,
    "lng": 121.638523
  },
  {
    "title": "整租·丹芳苑 3室2厅 南",
    "community": "丹芳苑",
    "area": "174.67",
    "rooms": "3室2厅",
    "direction": "南",
    "floor": "",
    "price": "12600",
    "tags": "",
    "source": "",
    "url": "https://sh.lianjia.com/zufang/SH1872909295796879360.html",
    "rent_type": "整租",
    "location": "浦东-张江-丹芳苑",
    "scraped_at": "2026-04-23 10:34:28",
    "region": "zhangjiang",
    "unit_price": 72.1,
    "lat": 31.202251,
    "lng": 121.611451
  },
  {
    "title": "独栋·达社国际公寓 张江店 中科路好房 一居室采光超级好 年轻人的选择 紧邻地铁13号线 1室1厅",
    "community": "达社国际公寓 张江店 中科路好房 一居室采光超级好 年轻人的选择 紧邻地铁13号线",
    "area": "45.00",
    "rooms": "1室1厅",
    "direction": "",
    "floor": "",
    "price": "5800",
    "tags": "",
    "source": "",
    "url": "https://sh.lianjia.com/apartment/103840.html",
    "rent_type": "独栋",
    "location": "",
    "scraped_at": "2026-04-23 10:36:08",
    "region": "zhangjiang",
    "unit_price": 128.9,
    "lat": 31.188742,
    "lng": 121.628338
  },
  {
    "title": "整租·展想悦廷 1室1厅 西",
    "community": "展想悦廷",
    "area": "108.00",
    "rooms": "1室1厅",
    "direction": "西",
    "floor": "",
    "price": "5700",
    "tags": "",
    "source": "",
    "url": "https://sh.lianjia.com/zufang/SH2153093115450228736.html",
    "rent_type": "整租",
    "location": "浦东-张江-展想悦廷",
    "scraped_at": "2026-04-23 10:36:08",
    "region": "zhangjiang",
    "unit_price": 52.8,
    "lat": 31.210723,
    "lng": 121.626563
  },
  {
    "title": "整租·交江大楼 3室2厅 南",
    "community": "交江大楼",
    "area": "168.00",
    "rooms": "3室2厅",
    "direction": "南",
    "floor": "",
    "price": "11000",
    "tags": "",
    "source": "",
    "url": "https://sh.lianjia.com/zufang/SH2100122614474211328.html",
    "rent_type": "整租",
    "location": "浦东-张江-交江大楼",
    "scraped_at": "2026-04-23 10:34:28",
    "region": "zhangjiang",
    "unit_price": 65.5,
    "lat": 31.205617,
    "lng": 121.613283
  },
  {
    "title": "整租·华发四季 3室1厅 南",
    "community": "华发四季",
    "area": "89.84",
    "rooms": "3室1厅",
    "direction": "南",
    "floor": "",
    "price": "8200",
    "tags": "",
    "source": "",
    "url": "https://sh.lianjia.com/zufang/SH2104418974396579840.html",
    "rent_type": "整租",
    "location": "浦东-张江-华发四季",
    "scraped_at": "2026-04-23 10:34:28",
    "region": "zhangjiang",
    "unit_price": 91.3,
    "lat": 31.172771,
    "lng": 121.623048
  },
  {
    "title": "整租·张江汤臣豪园(三期) 4室2厅 南/北",
    "community": "张江汤臣豪园(三期)",
    "area": "212.58",
    "rooms": "4室2厅",
    "direction": "南/北",
    "floor": "",
    "price": "23000",
    "tags": "",
    "source": "",
    "url": "https://sh.lianjia.com/zufang/SH2107000079234629632.html",
    "rent_type": "整租",
    "location": "浦东-张江-张江汤臣豪园(三期)",
    "scraped_at": "2026-04-23 10:35:41",
    "region": "zhangjiang",
    "unit_price": 108.2,
    "lat": 31.199283,
    "lng": 121.597612
  },
  {
    "title": "整租·张江汤臣豪园(二期) 4室1厅 复式 南/北",
    "community": "张江汤臣豪园(二期)",
    "area": "91.88",
    "rooms": "4室1厅",
    "direction": "",
    "floor": "",
    "price": "12000",
    "tags": "",
    "source": "",
    "url": "https://sh.lianjia.com/zufang/SH2123406033773658112.html",
    "rent_type": "整租",
    "location": "浦东-张江-张江汤臣豪园(二期)",
    "scraped_at": "2026-04-23 10:34:28",
    "region": "zhangjiang",
    "unit_price": 130.6,
    "lat": 31.202498,
    "lng": 121.597512
  },
  {
    "title": "独栋·南城公寓 张江店 阳光一居室，年租半价 1室1厅",
    "community": "南城公寓 张江店 阳光一居室，年租半价",
    "area": "32.00",
    "rooms": "1室1厅",
    "direction": "",
    "floor": "",
    "price": "3400",
    "tags": "",
    "source": "",
    "url": "https://sh.lianjia.com/apartment/107113.html",
    "rent_type": "独栋",
    "location": "",
    "scraped_at": "2026-04-23 10:36:23",
    "region": "zhangjiang",
    "unit_price": 106.2,
    "lat": 31.21332,
    "lng": 121.435384
  },
  {
    "title": "整租·益丰新村 2室2厅 南",
    "community": "益丰新村",
    "area": "88.90",
    "rooms": "2室2厅",
    "direction": "南",
    "floor": "",
    "price": "7000",
    "tags": "",
    "source": "",
    "url": "https://sh.lianjia.com/zufang/SH2147410576089808896.html",
    "rent_type": "整租",
    "location": "浦东-张江-益丰新村",
    "scraped_at": "2026-04-23 10:34:32",
    "region": "zhangjiang",
    "unit_price": 78.7,
    "lat": 31.197321,
    "lng": 121.631454
  },
  {
    "title": "整租·紫晶苑 1室1厅 南",
    "community": "紫晶苑",
    "area": "60.00",
    "rooms": "1室1厅",
    "direction": "南",
    "floor": "",
    "price": "4700",
    "tags": "",
    "source": "",
    "url": "https://sh.lianjia.com/zufang/SH2154532532169736192.html",
    "rent_type": "整租",
    "location": "浦东-张江-紫晶苑",
    "scraped_at": "2026-04-23 10:34:32",
    "region": "zhangjiang",
    "unit_price": 78.3,
    "lat": 31.175766,
    "lng": 121.623784
  },
  {
    "title": "整租·盛大天地青春里2.0 2室2厅 北",
    "community": "盛大天地青春里2.0",
    "area": "46.00",
    "rooms": "2室2厅",
    "direction": "北",
    "floor": "",
    "price": "4515",
    "tags": "",
    "source": "",
    "url": "https://sh.lianjia.com/zufang/SH2025147038575886336.html",
    "rent_type": "整租",
    "location": "浦东-张江-盛大天地青春里",
    "scraped_at": "2026-04-23 10:34:32",
    "region": "zhangjiang",
    "unit_price": 98.2,
    "lat": 31.169751,
    "lng": 121.605652
  },
  {
    "title": "整租·川杨新苑(六期) 2室1厅 南",
    "community": "川杨新苑(六期)",
    "area": "60.28",
    "rooms": "2室1厅",
    "direction": "南",
    "floor": "",
    "price": "5775",
    "tags": "",
    "source": "",
    "url": "https://sh.lianjia.com/zufang/SH1760228218054377472.html",
    "rent_type": "整租",
    "location": "浦东-张江-川杨新苑(六期)",
    "scraped_at": "2026-04-23 10:35:41",
    "region": "zhangjiang",
    "unit_price": 95.8,
    "lat": 31.190876,
    "lng": 121.636381
  },
  {
    "title": "整租·中建朗阅府 5室3厅 复式 南",
    "community": "中建朗阅府",
    "area": "303.40",
    "rooms": "5室3厅",
    "direction": "",
    "floor": "",
    "price": "42000",
    "tags": "",
    "source": "",
    "url": "https://sh.lianjia.com/zufang/SH2155297421704298496.html",
    "rent_type": "整租",
    "location": "浦东-张江-中建朗阅府",
    "scraped_at": "2026-04-23 10:34:32",
    "region": "zhangjiang",
    "unit_price": 138.4,
    "lat": 31.176649,
    "lng": 121.627105
  },
  {
    "title": "整租·建中路171弄 2室1厅 南",
    "community": "建中路171弄",
    "area": "72.00",
    "rooms": "2室1厅",
    "direction": "南",
    "floor": "",
    "price": "6300",
    "tags": "",
    "source": "",
    "url": "https://sh.lianjia.com/zufang/SH1991503120978411520.html",
    "rent_type": "整租",
    "location": "浦东-张江-建中路",
    "scraped_at": "2026-04-23 10:34:32",
    "region": "zhangjiang",
    "unit_price": 87.5,
    "lat": 31.202451,
    "lng": 121.614872
  },
  {
    "title": "独栋·柚米 张江纳仕社区E店 张江纳什经济型三居室，民用水电，宠物友好 3室1厅",
    "community": "柚米 张江纳仕社区E店 张江纳什经济型三居室，民用水电，宠物友好",
    "area": "110.00",
    "rooms": "3室1厅",
    "direction": "",
    "floor": "",
    "price": "8116",
    "tags": "",
    "source": "",
    "url": "https://sh.lianjia.com/apartment/20387.html",
    "rent_type": "独栋",
    "location": "",
    "scraped_at": "2026-04-23 10:36:32",
    "region": "zhangjiang",
    "unit_price": 73.8,
    "lat": 31.228675,
    "lng": 121.23474
  },
  {
    "title": "整租·城市经典四期高迪 1室1厅 南",
    "community": "城市经典四期高迪",
    "area": "63.79",
    "rooms": "1室1厅",
    "direction": "南",
    "floor": "",
    "price": "6100",
    "tags": "",
    "source": "",
    "url": "https://sh.lianjia.com/zufang/SH1885623954081579008.html",
    "rent_type": "整租",
    "location": "浦东-张江-城市经典四期高迪",
    "scraped_at": "2026-04-23 10:35:44",
    "region": "zhangjiang",
    "unit_price": 95.6,
    "lat": 31.212907,
    "lng": 121.618681
  },
  {
    "title": "独栋·柚米 张江纳仕社区A店 张江保租房直营！临近张江科技园 设施齐全 水电民用 2室1厅",
    "community": "柚米 张江纳仕社区A店 张江保租房直营！临近张江科技园 设施齐全 水电民用",
    "area": "90.00",
    "rooms": "2室1厅",
    "direction": "",
    "floor": "",
    "price": "6362",
    "tags": "",
    "source": "",
    "url": "https://sh.lianjia.com/apartment/60831.html",
    "rent_type": "独栋",
    "location": "",
    "scraped_at": "2026-04-23 10:36:32",
    "region": "zhangjiang",
    "unit_price": 70.7,
    "lat": 31.203781,
    "lng": 121.594166
  },
  {
    "title": "整租·盛大天地青春里2.0 2室2厅 南",
    "community": "盛大天地青春里2.0",
    "area": "41.87",
    "rooms": "2室2厅",
    "direction": "南",
    "floor": "",
    "price": "5040",
    "tags": "",
    "source": "",
    "url": "https://sh.lianjia.com/zufang/SH2122301820679225344.html",
    "rent_type": "整租",
    "location": "浦东-张江-盛大天地青春里",
    "scraped_at": "2026-04-23 10:34:32",
    "region": "zhangjiang",
    "unit_price": 120.4,
    "lat": 31.169751,
    "lng": 121.605652
  },
  {
    "title": "独栋·城家公寓 城家公寓上海张江蔡伦路店 限时特惠 地铁口出行便利 精装公寓 采光好 宠物友好大一居阳光房 开间",
    "community": "城家公寓 城家公寓上海张江蔡伦路店 限时特惠 地铁口出行便利 精装公寓 采光好 宠物友好大一居阳光房 开间",
    "area": "33.00",
    "rooms": "",
    "direction": "",
    "floor": "",
    "price": "3650",
    "tags": "",
    "source": "",
    "url": "https://sh.lianjia.com/apartment/104344.html",
    "rent_type": "独栋",
    "location": "",
    "scraped_at": "2026-04-23 10:34:32",
    "region": "zhangjiang",
    "unit_price": 110.6,
    "lat": 31.262907,
    "lng": 121.335573
  },
  {
    "title": "整租·科雅苑 2室1厅 南",
    "community": "科雅苑",
    "area": "60.00",
    "rooms": "2室1厅",
    "direction": "南",
    "floor": "",
    "price": "4410",
    "tags": "",
    "source": "",
    "url": "https://sh.lianjia.com/zufang/SH2032086983743897600.html",
    "rent_type": "整租",
    "location": "浦东-张江-科雅苑",
    "scraped_at": "2026-04-23 10:34:32",
    "region": "zhangjiang",
    "unit_price": 73.5,
    "lat": 31.16647,
    "lng": 121.623478
  },
  {
    "title": "整租·绿地MTOWN 2室1厅 北",
    "community": "绿地MTOWN",
    "area": "36.57",
    "rooms": "2室1厅",
    "direction": "北",
    "floor": "",
    "price": "4500",
    "tags": "",
    "source": "",
    "url": "https://sh.lianjia.com/zufang/SH1763190565953863680.html",
    "rent_type": "整租",
    "location": "浦东-张江-绿地",
    "scraped_at": "2026-04-23 10:34:32",
    "region": "zhangjiang",
    "unit_price": 123.1,
    "lat": 31.177201,
    "lng": 121.603781
  },
  {
    "title": "整租·圣宇豪庭 5室3厅 南",
    "community": "圣宇豪庭",
    "area": "308.00",
    "rooms": "5室3厅",
    "direction": "南",
    "floor": "",
    "price": "43000",
    "tags": "",
    "source": "",
    "url": "https://sh.lianjia.com/zufang/SH2155642919585841152.html",
    "rent_type": "整租",
    "location": "浦东-张江-圣宇豪庭",
    "scraped_at": "2026-04-23 10:34:32",
    "region": "zhangjiang",
    "unit_price": 139.6,
    "lat": 31.18413,
    "lng": 121.630896
  },
  {
    "title": "整租·盛大天地青春里(一期) 2室1厅 南",
    "community": "盛大天地青春里(一期)",
    "area": "66.92",
    "rooms": "2室1厅",
    "direction": "南",
    "floor": "",
    "price": "5100",
    "tags": "",
    "source": "",
    "url": "https://sh.lianjia.com/zufang/SH2594326332834332672.html",
    "rent_type": "整租",
    "location": "浦东-张江-盛大天地青春里(一期)",
    "scraped_at": "2026-04-23 10:35:44",
    "region": "zhangjiang",
    "unit_price": 76.2,
    "lat": 31.170677,
    "lng": 121.605855
  },
  {
    "title": "整租·申城佳苑一期A块 1室1厅 南",
    "community": "申城佳苑一期A块",
    "area": "60.00",
    "rooms": "1室1厅",
    "direction": "南",
    "floor": "",
    "price": "5200",
    "tags": "",
    "source": "",
    "url": "https://sh.lianjia.com/zufang/SH2156408301946929152.html",
    "rent_type": "整租",
    "location": "浦东-张江-申城佳苑一期",
    "scraped_at": "2026-04-23 10:35:38",
    "region": "zhangjiang",
    "unit_price": 86.7,
    "lat": 31.185542,
    "lng": 121.636445
  },
  {
    "title": "独栋·集贤天地人才公寓 张江店 2号线 张江高科 下楼就到公司 民用水电保租房 直租 无中介费 朝南阳台送免租期c 1室1厅",
    "community": "集贤天地人才公寓 张江店 2号线 张江高科 下楼就到公司 民用水电保租房 直租 无中介费 朝南阳台送免租期c",
    "area": "45.00",
    "rooms": "1室1厅",
    "direction": "",
    "floor": "",
    "price": "5300",
    "tags": "",
    "source": "",
    "url": "https://sh.lianjia.com/apartment/85357.html",
    "rent_type": "独栋",
    "location": "",
    "scraped_at": "2026-04-23 10:36:23",
    "region": "zhangjiang",
    "unit_price": 117.8,
    "lat": 31.196598,
    "lng": 121.581975
  },
  {
    "title": "整租·杨镇新村 2室2厅 南",
    "community": "杨镇新村",
    "area": "71.62",
    "rooms": "2室2厅",
    "direction": "南",
    "floor": "",
    "price": "6006",
    "tags": "",
    "source": "",
    "url": "https://sh.lianjia.com/zufang/SH1823551103602524160.html",
    "rent_type": "整租",
    "location": "浦东-张江-杨镇新村",
    "scraped_at": "2026-04-23 10:34:32",
    "region": "zhangjiang",
    "unit_price": 83.9,
    "lat": 31.029188,
    "lng": 121.369623
  },
  {
    "title": "整租·紫晶苑 3室1厅 南",
    "community": "紫晶苑",
    "area": "79.58",
    "rooms": "3室1厅",
    "direction": "南",
    "floor": "",
    "price": "5200",
    "tags": "",
    "source": "",
    "url": "https://sh.lianjia.com/zufang/SH1928445798668828672.html",
    "rent_type": "整租",
    "location": "浦东-张江-紫晶苑",
    "scraped_at": "2026-04-23 10:34:32",
    "region": "zhangjiang",
    "unit_price": 65.3,
    "lat": 31.175766,
    "lng": 121.623784
  },
  {
    "title": "独栋·城家公寓 张江店 温馨榻榻米房间等你来住！可免费办理居住证，学生有优惠，随时看 开间",
    "community": "城家公寓 张江店 温馨榻榻米房间等你来住！可免费办理居住证，学生有优惠，随时看 开间",
    "area": "34.00",
    "rooms": "",
    "direction": "",
    "floor": "",
    "price": "4500",
    "tags": "",
    "source": "",
    "url": "https://sh.lianjia.com/apartment/50830.html",
    "rent_type": "独栋",
    "location": "",
    "scraped_at": "2026-04-23 10:36:37",
    "region": "zhangjiang",
    "unit_price": 132.4,
    "lat": 31.257319,
    "lng": 121.567014
  },
  {
    "title": "整租·科锦苑 2室2厅 南",
    "community": "科锦苑",
    "area": "86.00",
    "rooms": "2室2厅",
    "direction": "南",
    "floor": "",
    "price": "6400",
    "tags": "",
    "source": "",
    "url": "https://sh.lianjia.com/zufang/SH2156715067318468608.html",
    "rent_type": "整租",
    "location": "浦东-张江-科锦苑",
    "scraped_at": "2026-04-23 10:35:38",
    "region": "zhangjiang",
    "unit_price": 74.4,
    "lat": 31.173612,
    "lng": 121.625676
  },
  {
    "title": "整租·中芯花园199弄 2室2厅 南",
    "community": "中芯花园199弄",
    "area": "90.13",
    "rooms": "2室2厅",
    "direction": "南",
    "floor": "",
    "price": "7000",
    "tags": "",
    "source": "",
    "url": "https://sh.lianjia.com/zufang/SH2156977061384683520.html",
    "rent_type": "整租",
    "location": "浦东-张江-中芯花园",
    "scraped_at": "2026-04-23 10:35:38",
    "region": "zhangjiang",
    "unit_price": 77.7,
    "lat": 31.220081,
    "lng": 121.621991
  },
  {
    "title": "整租·黄浦花园 2室2厅 南",
    "community": "黄浦花园",
    "area": "70.00",
    "rooms": "2室2厅",
    "direction": "南",
    "floor": "",
    "price": "5800",
    "tags": "",
    "source": "",
    "url": "https://sh.lianjia.com/zufang/SH2157009915342749696.html",
    "rent_type": "整租",
    "location": "浦东-张江-黄浦花园",
    "scraped_at": "2026-04-23 10:35:38",
    "region": "zhangjiang",
    "unit_price": 82.9,
    "lat": 31.219451,
    "lng": 121.448417
  },
  {
    "title": "整租·申城佳苑一期A块 1室1厅 南",
    "community": "申城佳苑一期A块",
    "area": "60.00",
    "rooms": "1室1厅",
    "direction": "南",
    "floor": "",
    "price": "5200",
    "tags": "",
    "source": "",
    "url": "https://sh.lianjia.com/zufang/SH2157092519664418816.html",
    "rent_type": "整租",
    "location": "浦东-张江-申城佳苑一期",
    "scraped_at": "2026-04-23 10:35:38",
    "region": "zhangjiang",
    "unit_price": 86.7,
    "lat": 31.185542,
    "lng": 121.636445
  },
  {
    "title": "整租·申城佳苑一期C块 1室1厅 南",
    "community": "申城佳苑一期C块",
    "area": "60.15",
    "rooms": "1室1厅",
    "direction": "南",
    "floor": "",
    "price": "5200",
    "tags": "",
    "source": "",
    "url": "https://sh.lianjia.com/zufang/SH2154520338484953088.html",
    "rent_type": "整租",
    "location": "浦东-张江-申城佳苑一期",
    "scraped_at": "2026-04-23 10:34:35",
    "region": "zhangjiang",
    "unit_price": 86.5,
    "lat": 31.185542,
    "lng": 121.636445
  },
  {
    "title": "整租·虹御公寓 1室1厅 南",
    "community": "虹御公寓",
    "area": "52.00",
    "rooms": "1室1厅",
    "direction": "南",
    "floor": "",
    "price": "6600",
    "tags": "",
    "source": "",
    "url": "https://sh.lianjia.com/zufang/SH2157139612357623808.html",
    "rent_type": "整租",
    "location": "浦东-张江-虹御公寓",
    "scraped_at": "2026-04-23 10:34:35",
    "region": "zhangjiang",
    "unit_price": 126.9,
    "lat": 31.187024,
    "lng": 121.628373
  },
  {
    "title": "整租·展想悦廷 1室1厅 南/西南",
    "community": "展想悦廷",
    "area": "52.37",
    "rooms": "1室1厅",
    "direction": "南/西南",
    "floor": "",
    "price": "4725",
    "tags": "",
    "source": "",
    "url": "https://sh.lianjia.com/zufang/SH1755168667185709056.html",
    "rent_type": "整租",
    "location": "浦东-张江-展想悦廷",
    "scraped_at": "2026-04-23 10:34:35",
    "region": "zhangjiang",
    "unit_price": 90.2,
    "lat": 31.210723,
    "lng": 121.626563
  },
  {
    "title": "整租·绿地MTOWN 2室0厅 跃层 北",
    "community": "绿地MTOWN",
    "area": "38.00",
    "rooms": "2室0厅",
    "direction": "",
    "floor": "",
    "price": "4515",
    "tags": "",
    "source": "",
    "url": "https://sh.lianjia.com/zufang/SH2058050068597964800.html",
    "rent_type": "整租",
    "location": "浦东-张江-绿地",
    "scraped_at": "2026-04-23 10:34:35",
    "region": "zhangjiang",
    "unit_price": 118.8,
    "lat": 31.177201,
    "lng": 121.603781
  },
  {
    "title": "独栋·紫晶社区 张江店 社区公寓 春季特惠 超大开间 开间",
    "community": "紫晶社区 张江店 社区公寓 春季特惠 超大开间 开间",
    "area": "35.00",
    "rooms": "",
    "direction": "",
    "floor": "",
    "price": "2800",
    "tags": "",
    "source": "",
    "url": "https://sh.lianjia.com/apartment/89895.html",
    "rent_type": "独栋",
    "location": "",
    "scraped_at": "2026-04-23 10:34:35",
    "region": "zhangjiang",
    "unit_price": 80.0,
    "lat": 31.20947,
    "lng": 121.611467
  },
  {
    "title": "整租·古桐路小区 1室1厅 南",
    "community": "古桐路小区",
    "area": "36.45",
    "rooms": "1室1厅",
    "direction": "南",
    "floor": "",
    "price": "3570",
    "tags": "",
    "source": "",
    "url": "https://sh.lianjia.com/zufang/SH1860564605038755840.html",
    "rent_type": "整租",
    "location": "浦东-张江-古桐路小区",
    "scraped_at": "2026-04-23 10:34:35",
    "region": "zhangjiang",
    "unit_price": 97.9,
    "lat": 31.203065,
    "lng": 121.613053
  },
  {
    "title": "整租·中芯花园18弄 2室1厅 南",
    "community": "中芯花园18弄",
    "area": "90.60",
    "rooms": "2室1厅",
    "direction": "南",
    "floor": "",
    "price": "8000",
    "tags": "",
    "source": "",
    "url": "https://sh.lianjia.com/zufang/SH2156419384698994688.html",
    "rent_type": "整租",
    "location": "浦东-张江-中芯花园",
    "scraped_at": "2026-04-23 10:35:38",
    "region": "zhangjiang",
    "unit_price": 88.3,
    "lat": 31.206715,
    "lng": 121.66839
  },
  {
    "title": "整租·申城佳苑二期C块 3室1厅 南",
    "community": "申城佳苑二期C块",
    "area": "89.00",
    "rooms": "3室1厅",
    "direction": "南",
    "floor": "",
    "price": "6000",
    "tags": "",
    "source": "",
    "url": "https://sh.lianjia.com/zufang/SH2156357327140159488.html",
    "rent_type": "整租",
    "location": "浦东-张江-申城佳苑二期",
    "scraped_at": "2026-04-23 10:34:35",
    "region": "zhangjiang",
    "unit_price": 67.4,
    "lat": 31.183084,
    "lng": 121.637066
  },
  {
    "title": "整租·紫晶苑 2室1厅 南",
    "community": "紫晶苑",
    "area": "81.00",
    "rooms": "2室1厅",
    "direction": "南",
    "floor": "",
    "price": "5000",
    "tags": "",
    "source": "",
    "url": "https://sh.lianjia.com/zufang/SH2152412022325641216.html",
    "rent_type": "整租",
    "location": "浦东-张江-紫晶苑",
    "scraped_at": "2026-04-23 10:35:44",
    "region": "zhangjiang",
    "unit_price": 61.7,
    "lat": 31.175766,
    "lng": 121.623784
  },
  {
    "title": "独栋·微驿共享社区 张江店 2号线广兰路地铁/近张江中心/独立卫生间/1.2床单人床/ 开间",
    "community": "微驿共享社区 张江店 2号线广兰路地铁/近张江中心/独立卫生间/1.2床单人床/ 开间",
    "area": "15.00",
    "rooms": "",
    "direction": "",
    "floor": "",
    "price": "2300",
    "tags": "",
    "source": "",
    "url": "https://sh.lianjia.com/apartment/92967.html",
    "rent_type": "独栋",
    "location": "",
    "scraped_at": "2026-04-23 10:34:35",
    "region": "zhangjiang",
    "unit_price": 153.3,
    "lat": null,
    "lng": null
  },
  {
    "title": "整租·盛大天地青春里(一期) 1室1厅 北",
    "community": "盛大天地青春里(一期)",
    "area": "40.81",
    "rooms": "1室1厅",
    "direction": "北",
    "floor": "",
    "price": "4000",
    "tags": "",
    "source": "",
    "url": "https://sh.lianjia.com/zufang/SH2152461564182003712.html",
    "rent_type": "整租",
    "location": "浦东-张江-盛大天地青春里(一期)",
    "scraped_at": "2026-04-23 10:34:35",
    "region": "zhangjiang",
    "unit_price": 98.0,
    "lat": 31.170677,
    "lng": 121.605855
  },
  {
    "title": "独栋·盛大天地青春里公寓 二期 大套 2房2厅2卫 2室2厅",
    "community": "盛大天地青春里公寓 二期 大套 2房2厅2卫",
    "area": "100.00",
    "rooms": "2室2厅",
    "direction": "",
    "floor": "",
    "price": "5950",
    "tags": "",
    "source": "",
    "url": "https://sh.lianjia.com/apartment/4876.html",
    "rent_type": "独栋",
    "location": "",
    "scraped_at": "2026-04-23 10:35:38",
    "region": "zhangjiang",
    "unit_price": 59.5,
    "lat": 31.169751,
    "lng": 121.605652
  },
  {
    "title": "整租·阳光花城 3室2厅 南",
    "community": "阳光花城",
    "area": "135.00",
    "rooms": "3室2厅",
    "direction": "南",
    "floor": "",
    "price": "10500",
    "tags": "",
    "source": "",
    "url": "https://sh.lianjia.com/zufang/SH2148649186780774400.html",
    "rent_type": "整租",
    "location": "浦东-张江-阳光花城",
    "scraped_at": "2026-04-23 10:35:41",
    "region": "zhangjiang",
    "unit_price": 77.8,
    "lat": 31.208903,
    "lng": 121.623037
  },
  {
    "title": "整租·申城佳苑三期B块 2室1厅 南",
    "community": "申城佳苑三期B块",
    "area": "57.00",
    "rooms": "2室1厅",
    "direction": "南",
    "floor": "",
    "price": "5300",
    "tags": "",
    "source": "",
    "url": "https://sh.lianjia.com/zufang/SH2151607091524009984.html",
    "rent_type": "整租",
    "location": "浦东-张江-申城佳苑三期",
    "scraped_at": "2026-04-23 10:34:35",
    "region": "zhangjiang",
    "unit_price": 93.0,
    "lat": 31.180953,
    "lng": 121.638523
  },
  {
    "title": "整租·张江汤臣豪园(三期) 1室1厅 南",
    "community": "张江汤臣豪园(三期)",
    "area": "61.00",
    "rooms": "1室1厅",
    "direction": "南",
    "floor": "",
    "price": "7500",
    "tags": "",
    "source": "",
    "url": "https://sh.lianjia.com/zufang/SH2137463843721314304.html",
    "rent_type": "整租",
    "location": "浦东-张江-张江汤臣豪园(三期)",
    "scraped_at": "2026-04-23 10:34:35",
    "region": "zhangjiang",
    "unit_price": 123.0,
    "lat": 31.199283,
    "lng": 121.597612
  },
  {
    "title": "整租·张江汤臣豪园(三期) 2室2厅 南",
    "community": "张江汤臣豪园(三期)",
    "area": "88.00",
    "rooms": "2室2厅",
    "direction": "南",
    "floor": "",
    "price": "10500",
    "tags": "",
    "source": "",
    "url": "https://sh.lianjia.com/zufang/SH2139947772265103360.html",
    "rent_type": "整租",
    "location": "浦东-张江-张江汤臣豪园(三期)",
    "scraped_at": "2026-04-23 10:34:35",
    "region": "zhangjiang",
    "unit_price": 119.3,
    "lat": 31.199283,
    "lng": 121.597612
  },
  {
    "title": "整租·张江汤臣豪园(二期) 2室2厅 南",
    "community": "张江汤臣豪园(二期)",
    "area": "107.26",
    "rooms": "2室2厅",
    "direction": "南",
    "floor": "",
    "price": "11500",
    "tags": "",
    "source": "",
    "url": "https://sh.lianjia.com/zufang/SH2154573780939177984.html",
    "rent_type": "整租",
    "location": "浦东-张江-张江汤臣豪园(二期)",
    "scraped_at": "2026-04-23 10:34:35",
    "region": "zhangjiang",
    "unit_price": 107.2,
    "lat": 31.202498,
    "lng": 121.597512
  },
  {
    "title": "独栋·蓝光公寓 张江店 字节跳动附近/全屋宜家家具/可以养猫 开间",
    "community": "蓝光公寓 张江店 字节跳动附近/全屋宜家家具/可以养猫 开间",
    "area": "32.00",
    "rooms": "",
    "direction": "",
    "floor": "",
    "price": "3400",
    "tags": "",
    "source": "",
    "url": "https://sh.lianjia.com/apartment/45535.html",
    "rent_type": "独栋",
    "location": "",
    "scraped_at": "2026-04-23 10:36:27",
    "region": "zhangjiang",
    "unit_price": 106.2,
    "lat": 31.214356,
    "lng": 121.63669
  },
  {
    "title": "整租·古桐六村 3室2厅 南",
    "community": "古桐六村",
    "area": "113.02",
    "rooms": "3室2厅",
    "direction": "南",
    "floor": "",
    "price": "8500",
    "tags": "",
    "source": "",
    "url": "https://sh.lianjia.com/zufang/SH2149415249403445248.html",
    "rent_type": "整租",
    "location": "浦东-张江-古桐六村",
    "scraped_at": "2026-04-23 10:35:41",
    "region": "zhangjiang",
    "unit_price": 75.2,
    "lat": 31.201266,
    "lng": 121.610465
  },
  {
    "title": "整租·东郊华庭 9室2厅 复式 南",
    "community": "东郊华庭",
    "area": "400.10",
    "rooms": "9室2厅",
    "direction": "",
    "floor": "",
    "price": "37000",
    "tags": "",
    "source": "",
    "url": "https://sh.lianjia.com/zufang/SH2153909632790167552.html",
    "rent_type": "整租",
    "location": "浦东-张江-东郊华庭",
    "scraped_at": "2026-04-23 10:34:35",
    "region": "zhangjiang",
    "unit_price": 92.5,
    "lat": 31.218018,
    "lng": 121.623611
  },
  {
    "title": "独栋·盛大天地青春里公寓 居里路 2号线张江高科地铁口，精装一室户，无中介费、毕业生可月付， 开间",
    "community": "盛大天地青春里公寓 居里路 2号线张江高科地铁口，精装一室户，无中介费、毕业生可月付， 开间",
    "area": "25.00",
    "rooms": "",
    "direction": "",
    "floor": "",
    "price": "3200-3600",
    "tags": "",
    "source": "",
    "url": "https://sh.lianjia.com/apartment/31085.html",
    "rent_type": "独栋",
    "location": "",
    "scraped_at": "2026-04-23 10:36:27",
    "region": "zhangjiang",
    "unit_price": "",
    "lat": 31.209441,
    "lng": 121.596793
  },
  {
    "title": "整租·绿地MTOWN 1室1厅 北",
    "community": "绿地MTOWN",
    "area": "40.00",
    "rooms": "1室1厅",
    "direction": "北",
    "floor": "",
    "price": "4300",
    "tags": "",
    "source": "",
    "url": "https://sh.lianjia.com/zufang/SH2155589999054028800.html",
    "rent_type": "整租",
    "location": "浦东-张江-绿地",
    "scraped_at": "2026-04-23 10:34:35",
    "region": "zhangjiang",
    "unit_price": 107.5,
    "lat": 31.177201,
    "lng": 121.603781
  },
  {
    "title": "整租·玉兰香苑二期B块 2室1厅 南",
    "community": "玉兰香苑二期B块",
    "area": "57.85",
    "rooms": "2室1厅",
    "direction": "南",
    "floor": "",
    "price": "5300",
    "tags": "",
    "source": "",
    "url": "https://sh.lianjia.com/zufang/SH2156980517709283328.html",
    "rent_type": "整租",
    "location": "浦东-张江-玉兰香苑二期",
    "scraped_at": "2026-04-23 10:35:38",
    "region": "zhangjiang",
    "unit_price": 91.6,
    "lat": 31.198439,
    "lng": 121.627318
  },
  {
    "title": "整租·万科翡翠公园（商用） 1室1厅 东",
    "community": "万科翡翠公园（商用）",
    "area": "45.00",
    "rooms": "1室1厅",
    "direction": "东",
    "floor": "",
    "price": "6000",
    "tags": "",
    "source": "",
    "url": "https://sh.lianjia.com/zufang/SH2154975493735055360.html",
    "rent_type": "整租",
    "location": "浦东-张江-万科翡翠公园",
    "scraped_at": "2026-04-23 10:34:35",
    "region": "zhangjiang",
    "unit_price": 133.3,
    "lat": 31.179762,
    "lng": 121.610562
  },
  {
    "title": "整租·科锦苑 2室1厅 南",
    "community": "科锦苑",
    "area": "85.00",
    "rooms": "2室1厅",
    "direction": "南",
    "floor": "",
    "price": "6500",
    "tags": "",
    "source": "",
    "url": "https://sh.lianjia.com/zufang/SH2155305598126653440.html",
    "rent_type": "整租",
    "location": "浦东-张江-科锦苑",
    "scraped_at": "2026-04-23 10:34:35",
    "region": "zhangjiang",
    "unit_price": 76.5,
    "lat": 31.173612,
    "lng": 121.625676
  },
  {
    "title": "整租·张江汤臣豪园(三期) 2室2厅 南",
    "community": "张江汤臣豪园(三期)",
    "area": "84.08",
    "rooms": "2室2厅",
    "direction": "南",
    "floor": "",
    "price": "10500",
    "tags": "",
    "source": "",
    "url": "https://sh.lianjia.com/zufang/SH2151222648997150720.html",
    "rent_type": "整租",
    "location": "浦东-张江-张江汤臣豪园(三期)",
    "scraped_at": "2026-04-23 10:34:39",
    "region": "zhangjiang",
    "unit_price": 124.9,
    "lat": 31.199283,
    "lng": 121.597612
  },
  {
    "title": "整租·张江汤臣豪园(二期) 2室1厅 复式 南/北",
    "community": "张江汤臣豪园(二期)",
    "area": "74.94",
    "rooms": "2室1厅",
    "direction": "",
    "floor": "",
    "price": "8700",
    "tags": "",
    "source": "",
    "url": "https://sh.lianjia.com/zufang/SH2152270528222593024.html",
    "rent_type": "整租",
    "location": "浦东-张江-张江汤臣豪园(二期)",
    "scraped_at": "2026-04-23 10:34:39",
    "region": "zhangjiang",
    "unit_price": 116.1,
    "lat": 31.202498,
    "lng": 121.597512
  },
  {
    "title": "整租·城市经典四期高迪 3室2厅 南",
    "community": "城市经典四期高迪",
    "area": "139.00",
    "rooms": "3室2厅",
    "direction": "南",
    "floor": "",
    "price": "14000",
    "tags": "",
    "source": "",
    "url": "https://sh.lianjia.com/zufang/SH2153445039898886144.html",
    "rent_type": "整租",
    "location": "浦东-张江-城市经典四期高迪",
    "scraped_at": "2026-04-23 10:34:39",
    "region": "zhangjiang",
    "unit_price": 100.7,
    "lat": 31.212907,
    "lng": 121.618681
  },
  {
    "title": "整租·汇智湖畔家园 2室2厅 南",
    "community": "汇智湖畔家园",
    "area": "87.69",
    "rooms": "2室2厅",
    "direction": "南",
    "floor": "",
    "price": "11000",
    "tags": "",
    "source": "",
    "url": "https://sh.lianjia.com/zufang/SH2156725081642893312.html",
    "rent_type": "整租",
    "location": "浦东-张江-汇智湖畔家园",
    "scraped_at": "2026-04-23 10:35:38",
    "region": "zhangjiang",
    "unit_price": 125.4,
    "lat": 31.199759,
    "lng": 121.606217
  },
  {
    "title": "独栋·广兰公寓 广兰路店 广兰公寓 毕业季特惠房 精装一室户 1室1厅",
    "community": "广兰公寓 广兰路店 广兰公寓 毕业季特惠房 精装一室户",
    "area": "25.00",
    "rooms": "1室1厅",
    "direction": "",
    "floor": "",
    "price": "2500",
    "tags": "",
    "source": "",
    "url": "https://sh.lianjia.com/apartment/78765.html",
    "rent_type": "独栋",
    "location": "",
    "scraped_at": "2026-04-23 10:36:32",
    "region": "zhangjiang",
    "unit_price": 100.0,
    "lat": 30.827545,
    "lng": 121.239147
  },
  {
    "title": "整租·汤臣豪园(二期) 4室2厅 复式 南",
    "community": "汤臣豪园(二期)",
    "area": "226.00",
    "rooms": "4室2厅",
    "direction": "",
    "floor": "",
    "price": "23000",
    "tags": "",
    "source": "",
    "url": "https://sh.lianjia.com/zufang/SH2154834659031121920.html",
    "rent_type": "整租",
    "location": "浦东-张江-汤臣豪园(二期)",
    "scraped_at": "2026-04-23 10:34:39",
    "region": "zhangjiang",
    "unit_price": 101.8,
    "lat": 31.208639,
    "lng": 121.582621
  },
  {
    "title": "整租·玉兰香苑一期B块 1室2厅 南",
    "community": "玉兰香苑一期B块",
    "area": "60.00",
    "rooms": "1室2厅",
    "direction": "南",
    "floor": "",
    "price": "5600",
    "tags": "",
    "source": "",
    "url": "https://sh.lianjia.com/zufang/SH2151621249611071488.html",
    "rent_type": "整租",
    "location": "浦东-张江-玉兰香苑一期",
    "scraped_at": "2026-04-23 10:34:39",
    "region": "zhangjiang",
    "unit_price": 93.3,
    "lat": 31.201049,
    "lng": 121.631989
  },
  {
    "title": "整租·川杨新苑(二期) 2室1厅 南",
    "community": "川杨新苑(二期)",
    "area": "58.83",
    "rooms": "2室1厅",
    "direction": "南",
    "floor": "",
    "price": "5000",
    "tags": "",
    "source": "",
    "url": "https://sh.lianjia.com/zufang/SH2151237345175666688.html",
    "rent_type": "整租",
    "location": "浦东-张江-川杨新苑(二期)",
    "scraped_at": "2026-04-23 10:34:39",
    "region": "zhangjiang",
    "unit_price": 85.0,
    "lat": 31.185655,
    "lng": 121.627256
  },
  {
    "title": "整租·阳光花城 3室2厅 南",
    "community": "阳光花城",
    "area": "135.33",
    "rooms": "3室2厅",
    "direction": "南",
    "floor": "",
    "price": "12000",
    "tags": "",
    "source": "",
    "url": "https://sh.lianjia.com/zufang/SH2073996590355316736.html",
    "rent_type": "整租",
    "location": "浦东-张江-阳光花城",
    "scraped_at": "2026-04-23 10:34:39",
    "region": "zhangjiang",
    "unit_price": 88.7,
    "lat": 31.208903,
    "lng": 121.623037
  },
  {
    "title": "整租·杨镇新村 2室1厅 南",
    "community": "杨镇新村",
    "area": "71.62",
    "rooms": "2室1厅",
    "direction": "南",
    "floor": "",
    "price": "5000",
    "tags": "",
    "source": "",
    "url": "https://sh.lianjia.com/zufang/SH2153441398014083072.html",
    "rent_type": "整租",
    "location": "浦东-张江-杨镇新村",
    "scraped_at": "2026-04-23 10:34:39",
    "region": "zhangjiang",
    "unit_price": 69.8,
    "lat": 31.029188,
    "lng": 121.369623
  },
  {
    "title": "整租·张江汤臣豪园(二期) 3室2厅 南",
    "community": "张江汤臣豪园(二期)",
    "area": "123.20",
    "rooms": "3室2厅",
    "direction": "南",
    "floor": "",
    "price": "13000",
    "tags": "",
    "source": "",
    "url": "https://sh.lianjia.com/zufang/SH2148423754630299648.html",
    "rent_type": "整租",
    "location": "浦东-张江-张江汤臣豪园(二期)",
    "scraped_at": "2026-04-23 10:34:39",
    "region": "zhangjiang",
    "unit_price": 105.5,
    "lat": 31.202498,
    "lng": 121.597512
  },
  {
    "title": "整租·张江汤臣豪园(三期) 2室2厅 南",
    "community": "张江汤臣豪园(三期)",
    "area": "89.00",
    "rooms": "2室2厅",
    "direction": "南",
    "floor": "",
    "price": "11500",
    "tags": "",
    "source": "",
    "url": "https://sh.lianjia.com/zufang/SH2152814016261521408.html",
    "rent_type": "整租",
    "location": "浦东-张江-张江汤臣豪园(三期)",
    "scraped_at": "2026-04-23 10:34:39",
    "region": "zhangjiang",
    "unit_price": 129.2,
    "lat": 31.199283,
    "lng": 121.597612
  },
  {
    "title": "整租·张江汤臣豪园(四期) 3室2厅 南/北",
    "community": "张江汤臣豪园(四期)",
    "area": "132.09",
    "rooms": "3室2厅",
    "direction": "南/北",
    "floor": "",
    "price": "18000",
    "tags": "",
    "source": "",
    "url": "https://sh.lianjia.com/zufang/SH2155877053621075968.html",
    "rent_type": "整租",
    "location": "浦东-张江-张江汤臣豪园(四期)",
    "scraped_at": "2026-04-23 10:34:39",
    "region": "zhangjiang",
    "unit_price": 136.3,
    "lat": 31.198209,
    "lng": 121.592123
  },
  {
    "title": "整租·绿地MTOWN 1室1厅 南",
    "community": "绿地MTOWN",
    "area": "37.36",
    "rooms": "1室1厅",
    "direction": "南",
    "floor": "",
    "price": "5000",
    "tags": "",
    "source": "",
    "url": "https://sh.lianjia.com/zufang/SH2155895560492548096.html",
    "rent_type": "整租",
    "location": "浦东-张江-绿地",
    "scraped_at": "2026-04-23 10:35:38",
    "region": "zhangjiang",
    "unit_price": 133.8,
    "lat": 31.177201,
    "lng": 121.603781
  },
  {
    "title": "整租·绿地MTOWN 2室1厅 南/北",
    "community": "绿地MTOWN",
    "area": "36.81",
    "rooms": "2室1厅",
    "direction": "南/北",
    "floor": "",
    "price": "4300",
    "tags": "",
    "source": "",
    "url": "https://sh.lianjia.com/zufang/SH2153380226715877376.html",
    "rent_type": "整租",
    "location": "浦东-张江-绿地",
    "scraped_at": "2026-04-23 10:34:39",
    "region": "zhangjiang",
    "unit_price": 116.8,
    "lat": 31.177201,
    "lng": 121.603781
  },
  {
    "title": "整租·万科翡翠公园六期 4室2厅 南",
    "community": "万科翡翠公园六期",
    "area": "104.90",
    "rooms": "4室2厅",
    "direction": "南",
    "floor": "",
    "price": "14500",
    "tags": "",
    "source": "",
    "url": "https://sh.lianjia.com/zufang/SH2153884279594024960.html",
    "rent_type": "整租",
    "location": "浦东-张江-万科翡翠公园六期",
    "scraped_at": "2026-04-23 10:34:39",
    "region": "zhangjiang",
    "unit_price": 138.2,
    "lat": 31.181301,
    "lng": 121.612192
  },
  {
    "title": "整租·城市经典(三期) 3室2厅 南/北",
    "community": "城市经典(三期)",
    "area": "251.00",
    "rooms": "3室2厅",
    "direction": "南/北",
    "floor": "",
    "price": "22000",
    "tags": "",
    "source": "",
    "url": "https://sh.lianjia.com/zufang/SH2139059650224455680.html",
    "rent_type": "整租",
    "location": "浦东-张江-城市经典(三期)",
    "scraped_at": "2026-04-23 10:34:39",
    "region": "zhangjiang",
    "unit_price": 87.6,
    "lat": 31.212888,
    "lng": 121.61652
  },
  {
    "title": "整租·玉兰香苑二期A块 2室1厅 南",
    "community": "玉兰香苑二期A块",
    "area": "55.57",
    "rooms": "2室1厅",
    "direction": "南",
    "floor": "",
    "price": "5300",
    "tags": "",
    "source": "",
    "url": "https://sh.lianjia.com/zufang/SH2149815658022436864.html",
    "rent_type": "整租",
    "location": "浦东-张江-玉兰香苑二期",
    "scraped_at": "2026-04-23 10:34:39",
    "region": "zhangjiang",
    "unit_price": 95.4,
    "lat": 31.198439,
    "lng": 121.627318
  },
  {
    "title": "整租·盛大天地青春里2.0 2室1厅 南",
    "community": "盛大天地青春里2.0",
    "area": "45.00",
    "rooms": "2室1厅",
    "direction": "南",
    "floor": "",
    "price": "5000",
    "tags": "",
    "source": "",
    "url": "https://sh.lianjia.com/zufang/SH2155579869763731456.html",
    "rent_type": "整租",
    "location": "浦东-张江-盛大天地青春里",
    "scraped_at": "2026-04-23 10:34:39",
    "region": "zhangjiang",
    "unit_price": 111.1,
    "lat": 31.169751,
    "lng": 121.605652
  },
  {
    "title": "整租·益丰新村 2室2厅 南",
    "community": "益丰新村",
    "area": "83.46",
    "rooms": "2室2厅",
    "direction": "南",
    "floor": "",
    "price": "6000",
    "tags": "",
    "source": "",
    "url": "https://sh.lianjia.com/zufang/SH2154258249367420928.html",
    "rent_type": "整租",
    "location": "浦东-张江-益丰新村",
    "scraped_at": "2026-04-23 10:34:39",
    "region": "zhangjiang",
    "unit_price": 71.9,
    "lat": 31.197321,
    "lng": 121.631454
  },
  {
    "title": "整租·圣宇豪庭 3室2厅 南",
    "community": "圣宇豪庭",
    "area": "137.08",
    "rooms": "3室2厅",
    "direction": "南",
    "floor": "",
    "price": "15000",
    "tags": "",
    "source": "",
    "url": "https://sh.lianjia.com/zufang/SH2149756293622005760.html",
    "rent_type": "整租",
    "location": "浦东-张江-圣宇豪庭",
    "scraped_at": "2026-04-23 10:34:39",
    "region": "zhangjiang",
    "unit_price": 109.4,
    "lat": 31.18413,
    "lng": 121.630896
  },
  {
    "title": "整租·汤臣豪庭 4室2厅 复式 南",
    "community": "汤臣豪庭",
    "area": "157.64",
    "rooms": "4室2厅",
    "direction": "",
    "floor": "",
    "price": "14000",
    "tags": "",
    "source": "",
    "url": "https://sh.lianjia.com/zufang/SH2068648874016243712.html",
    "rent_type": "整租",
    "location": "浦东-张江-汤臣豪庭",
    "scraped_at": "2026-04-23 10:34:39",
    "region": "zhangjiang",
    "unit_price": 88.8,
    "lat": 31.219466,
    "lng": 121.613806
  },
  {
    "title": "整租·张江汤臣豪园(四期) 2室1厅 南",
    "community": "张江汤臣豪园(四期)",
    "area": "89.90",
    "rooms": "2室1厅",
    "direction": "南",
    "floor": "",
    "price": "12000",
    "tags": "",
    "source": "",
    "url": "https://sh.lianjia.com/zufang/SH2156238942880399360.html",
    "rent_type": "整租",
    "location": "浦东-张江-张江汤臣豪园(四期)",
    "scraped_at": "2026-04-23 10:35:38",
    "region": "zhangjiang",
    "unit_price": 133.5,
    "lat": 31.198209,
    "lng": 121.592123
  },
  {
    "title": "整租·香楠小区 3室1厅 南",
    "community": "香楠小区",
    "area": "92.03",
    "rooms": "3室1厅",
    "direction": "南",
    "floor": "",
    "price": "9000",
    "tags": "",
    "source": "",
    "url": "https://sh.lianjia.com/zufang/SH2153143412864319488.html",
    "rent_type": "整租",
    "location": "浦东-张江-香楠小区",
    "scraped_at": "2026-04-23 10:34:42",
    "region": "zhangjiang",
    "unit_price": 97.8,
    "lat": 31.21652,
    "lng": 121.614476
  },
  {
    "title": "整租·交江大楼 2室1厅 南",
    "community": "交江大楼",
    "area": "82.12",
    "rooms": "2室1厅",
    "direction": "南",
    "floor": "",
    "price": "6300",
    "tags": "",
    "source": "",
    "url": "https://sh.lianjia.com/zufang/SH2153783509267775488.html",
    "rent_type": "整租",
    "location": "浦东-张江-交江大楼",
    "scraped_at": "2026-04-23 10:34:42",
    "region": "zhangjiang",
    "unit_price": 76.7,
    "lat": 31.205617,
    "lng": 121.613283
  },
  {
    "title": "整租·万科翡翠公园六期 2室2厅 南",
    "community": "万科翡翠公园六期",
    "area": "84.73",
    "rooms": "2室2厅",
    "direction": "南",
    "floor": "",
    "price": "11000",
    "tags": "",
    "source": "",
    "url": "https://sh.lianjia.com/zufang/SH2155528583303397376.html",
    "rent_type": "整租",
    "location": "浦东-张江-万科翡翠公园六期",
    "scraped_at": "2026-04-23 10:34:42",
    "region": "zhangjiang",
    "unit_price": 129.8,
    "lat": 31.181301,
    "lng": 121.612192
  },
  {
    "title": "整租·万科翡翠公园四期 3室1厅 南",
    "community": "万科翡翠公园四期",
    "area": "125.00",
    "rooms": "3室1厅",
    "direction": "南",
    "floor": "",
    "price": "14000",
    "tags": "",
    "source": "",
    "url": "https://sh.lianjia.com/zufang/SH2137929165909786624.html",
    "rent_type": "整租",
    "location": "浦东-张江-万科翡翠公园四期",
    "scraped_at": "2026-04-23 10:34:39",
    "region": "zhangjiang",
    "unit_price": 112.0,
    "lat": 31.179139,
    "lng": 121.610609
  },
  {
    "title": "整租·张江汤臣豪园(四期) 2室2厅 南",
    "community": "张江汤臣豪园(四期)",
    "area": "105.00",
    "rooms": "2室2厅",
    "direction": "南",
    "floor": "",
    "price": "13800",
    "tags": "",
    "source": "",
    "url": "https://sh.lianjia.com/zufang/SH2146521766099419136.html",
    "rent_type": "整租",
    "location": "浦东-张江-张江汤臣豪园(四期)",
    "scraped_at": "2026-04-23 10:34:42",
    "region": "zhangjiang",
    "unit_price": 131.4,
    "lat": 31.198209,
    "lng": 121.592123
  },
  {
    "title": "整租·香楠小区 2室1厅 南",
    "community": "香楠小区",
    "area": "71.76",
    "rooms": "2室1厅",
    "direction": "南",
    "floor": "",
    "price": "6000",
    "tags": "",
    "source": "",
    "url": "https://sh.lianjia.com/zufang/SH2147255059509936128.html",
    "rent_type": "整租",
    "location": "浦东-张江-香楠小区",
    "scraped_at": "2026-04-23 10:34:42",
    "region": "zhangjiang",
    "unit_price": 83.6,
    "lat": 31.21652,
    "lng": 121.614476
  },
  {
    "title": "整租·张江汤臣豪园(二期) 2室2厅 南",
    "community": "张江汤臣豪园(二期)",
    "area": "94.15",
    "rooms": "2室2厅",
    "direction": "南",
    "floor": "",
    "price": "10000",
    "tags": "",
    "source": "",
    "url": "https://sh.lianjia.com/zufang/SH2147650921021046784.html",
    "rent_type": "整租",
    "location": "浦东-张江-张江汤臣豪园(二期)",
    "scraped_at": "2026-04-23 10:34:42",
    "region": "zhangjiang",
    "unit_price": 106.2,
    "lat": 31.202498,
    "lng": 121.597512
  },
  {
    "title": "整租·玉兰香苑二期C块 2室1厅 南",
    "community": "玉兰香苑二期C块",
    "area": "60.00",
    "rooms": "2室1厅",
    "direction": "南",
    "floor": "",
    "price": "5500",
    "tags": "",
    "source": "",
    "url": "https://sh.lianjia.com/zufang/SH2155197806577451008.html",
    "rent_type": "整租",
    "location": "浦东-张江-玉兰香苑二期",
    "scraped_at": "2026-04-23 10:34:42",
    "region": "zhangjiang",
    "unit_price": 91.7,
    "lat": 31.198439,
    "lng": 121.627318
  },
  {
    "title": "整租·万科翡翠公园六期 2室1厅 南",
    "community": "万科翡翠公园六期",
    "area": "84.73",
    "rooms": "2室1厅",
    "direction": "南",
    "floor": "",
    "price": "11000",
    "tags": "",
    "source": "",
    "url": "https://sh.lianjia.com/zufang/SH2156276399734784000.html",
    "rent_type": "整租",
    "location": "浦东-张江-万科翡翠公园六期",
    "scraped_at": "2026-04-23 10:35:38",
    "region": "zhangjiang",
    "unit_price": 129.8,
    "lat": 31.181301,
    "lng": 121.612192
  },
  {
    "title": "整租·川杨新苑(二期) 2室2厅 南/北",
    "community": "川杨新苑(二期)",
    "area": "90.58",
    "rooms": "2室2厅",
    "direction": "南/北",
    "floor": "",
    "price": "6600",
    "tags": "",
    "source": "",
    "url": "https://sh.lianjia.com/zufang/SH2152768018189385728.html",
    "rent_type": "整租",
    "location": "浦东-张江-川杨新苑(二期)",
    "scraped_at": "2026-04-23 10:34:42",
    "region": "zhangjiang",
    "unit_price": 72.9,
    "lat": 31.185655,
    "lng": 121.627256
  },
  {
    "title": "整租·张江汤臣豪园(二期) 3室1厅 南/北",
    "community": "张江汤臣豪园(二期)",
    "area": "134.00",
    "rooms": "3室1厅",
    "direction": "南/北",
    "floor": "",
    "price": "15000",
    "tags": "",
    "source": "",
    "url": "https://sh.lianjia.com/zufang/SH2142654848091291648.html",
    "rent_type": "整租",
    "location": "浦东-张江-张江汤臣豪园(二期)",
    "scraped_at": "2026-04-23 10:34:42",
    "region": "zhangjiang",
    "unit_price": 111.9,
    "lat": 31.202498,
    "lng": 121.597512
  },
  {
    "title": "整租·汤臣豪庭 5室2厅 复式 南",
    "community": "汤臣豪庭",
    "area": "178.00",
    "rooms": "5室2厅",
    "direction": "",
    "floor": "",
    "price": "17000",
    "tags": "",
    "source": "",
    "url": "https://sh.lianjia.com/zufang/SH2155159061283209216.html",
    "rent_type": "整租",
    "location": "浦东-张江-汤臣豪庭",
    "scraped_at": "2026-04-23 10:34:42",
    "region": "zhangjiang",
    "unit_price": 95.5,
    "lat": 31.219466,
    "lng": 121.613806
  },
  {
    "title": "整租·盛大天地青春里2.0 2室2厅 北",
    "community": "盛大天地青春里2.0",
    "area": "45.00",
    "rooms": "2室2厅",
    "direction": "北",
    "floor": "",
    "price": "5300",
    "tags": "",
    "source": "",
    "url": "https://sh.lianjia.com/zufang/SH2145502948812128256.html",
    "rent_type": "整租",
    "location": "浦东-张江-盛大天地青春里",
    "scraped_at": "2026-04-23 10:34:42",
    "region": "zhangjiang",
    "unit_price": 117.8,
    "lat": 31.169751,
    "lng": 121.605652
  },
  {
    "title": "整租·汤臣豪庭 4室2厅 复式 南",
    "community": "汤臣豪庭",
    "area": "160.63",
    "rooms": "4室2厅",
    "direction": "",
    "floor": "",
    "price": "15000",
    "tags": "",
    "source": "",
    "url": "https://sh.lianjia.com/zufang/SH2157136438867525632.html",
    "rent_type": "整租",
    "location": "浦东-张江-汤臣豪庭",
    "scraped_at": "2026-04-23 10:34:42",
    "region": "zhangjiang",
    "unit_price": 93.4,
    "lat": 31.219466,
    "lng": 121.613806
  },
  {
    "title": "整租·绿地MTOWN 1室1厅 南",
    "community": "绿地MTOWN",
    "area": "40.22",
    "rooms": "1室1厅",
    "direction": "南",
    "floor": "",
    "price": "4500",
    "tags": "",
    "source": "",
    "url": "https://sh.lianjia.com/zufang/SH2155642345293348864.html",
    "rent_type": "整租",
    "location": "浦东-张江-绿地",
    "scraped_at": "2026-04-23 10:34:42",
    "region": "zhangjiang",
    "unit_price": 111.9,
    "lat": 31.177201,
    "lng": 121.603781
  },
  {
    "title": "整租·张江汤臣豪园(三期) 1室2厅 南",
    "community": "张江汤臣豪园(三期)",
    "area": "61.37",
    "rooms": "1室2厅",
    "direction": "南",
    "floor": "",
    "price": "8800",
    "tags": "",
    "source": "",
    "url": "https://sh.lianjia.com/zufang/SH2150142208412483584.html",
    "rent_type": "整租",
    "location": "浦东-张江-张江汤臣豪园(三期)",
    "scraped_at": "2026-04-23 10:34:42",
    "region": "zhangjiang",
    "unit_price": 143.4,
    "lat": 31.199283,
    "lng": 121.597612
  },
  {
    "title": "整租·建中路171弄 2室1厅 南",
    "community": "建中路171弄",
    "area": "71.59",
    "rooms": "2室1厅",
    "direction": "南",
    "floor": "",
    "price": "5950",
    "tags": "",
    "source": "",
    "url": "https://sh.lianjia.com/zufang/SH2146905027459940352.html",
    "rent_type": "整租",
    "location": "浦东-张江-建中路",
    "scraped_at": "2026-04-23 10:35:41",
    "region": "zhangjiang",
    "unit_price": 83.1,
    "lat": 31.202451,
    "lng": 121.614872
  },
  {
    "title": "整租·城市经典四期高迪 1室1厅 南",
    "community": "城市经典四期高迪",
    "area": "63.92",
    "rooms": "1室1厅",
    "direction": "南",
    "floor": "",
    "price": "6500",
    "tags": "",
    "source": "",
    "url": "https://sh.lianjia.com/zufang/SH2151201437328080896.html",
    "rent_type": "整租",
    "location": "浦东-张江-城市经典四期高迪",
    "scraped_at": "2026-04-23 10:34:42",
    "region": "zhangjiang",
    "unit_price": 101.7,
    "lat": 31.212907,
    "lng": 121.618681
  },
  {
    "title": "整租·香楠小区 1室1厅 南",
    "community": "香楠小区",
    "area": "45.87",
    "rooms": "1室1厅",
    "direction": "南",
    "floor": "",
    "price": "4400",
    "tags": "",
    "source": "",
    "url": "https://sh.lianjia.com/zufang/SH2148443926296526848.html",
    "rent_type": "整租",
    "location": "浦东-张江-香楠小区",
    "scraped_at": "2026-04-23 10:35:41",
    "region": "zhangjiang",
    "unit_price": 95.9,
    "lat": 31.21652,
    "lng": 121.614476
  },
  {
    "title": "整租·中建朗阅府 3室2厅 南",
    "community": "中建朗阅府",
    "area": "89.00",
    "rooms": "3室2厅",
    "direction": "南",
    "floor": "",
    "price": "12500",
    "tags": "",
    "source": "",
    "url": "https://sh.lianjia.com/zufang/SH2149501087319588864.html",
    "rent_type": "整租",
    "location": "浦东-张江-中建朗阅府",
    "scraped_at": "2026-04-23 10:35:41",
    "region": "zhangjiang",
    "unit_price": 140.4,
    "lat": 31.176649,
    "lng": 121.627105
  },
  {
    "title": "整租·春港丽园(公寓) 3室2厅 南",
    "community": "春港丽园(公寓)",
    "area": "123.01",
    "rooms": "3室2厅",
    "direction": "南",
    "floor": "",
    "price": "8000",
    "tags": "",
    "source": "",
    "url": "https://sh.lianjia.com/zufang/SH2150827561188327424.html",
    "rent_type": "整租",
    "location": "浦东-张江-春港丽园(公寓)",
    "scraped_at": "2026-04-23 10:34:42",
    "region": "zhangjiang",
    "unit_price": 65.0,
    "lat": 31.202239,
    "lng": 121.623576
  },
  {
    "title": "整租·张江汤臣豪园(二期) 3室2厅 南/北",
    "community": "张江汤臣豪园(二期)",
    "area": "123.00",
    "rooms": "3室2厅",
    "direction": "南/北",
    "floor": "",
    "price": "15000",
    "tags": "",
    "source": "",
    "url": "https://sh.lianjia.com/zufang/SH2153515408739532800.html",
    "rent_type": "整租",
    "location": "浦东-张江-张江汤臣豪园(二期)",
    "scraped_at": "2026-04-23 10:34:42",
    "region": "zhangjiang",
    "unit_price": 122.0,
    "lat": 31.202498,
    "lng": 121.597512
  },
  {
    "title": "整租·城市经典四期高迪 1室1厅 南",
    "community": "城市经典四期高迪",
    "area": "63.92",
    "rooms": "1室1厅",
    "direction": "南",
    "floor": "",
    "price": "6300",
    "tags": "",
    "source": "",
    "url": "https://sh.lianjia.com/zufang/SH2152006804240859136.html",
    "rent_type": "整租",
    "location": "浦东-张江-城市经典四期高迪",
    "scraped_at": "2026-04-23 10:34:42",
    "region": "zhangjiang",
    "unit_price": 98.6,
    "lat": 31.212907,
    "lng": 121.618681
  },
  {
    "title": "整租·华陇建中小区 1室1厅 南",
    "community": "华陇建中小区",
    "area": "40.00",
    "rooms": "1室1厅",
    "direction": "南",
    "floor": "",
    "price": "4800",
    "tags": "",
    "source": "",
    "url": "https://sh.lianjia.com/zufang/SH2157003454646583296.html",
    "rent_type": "整租",
    "location": "浦东-张江-华陇建中小区",
    "scraped_at": "2026-04-23 10:35:38",
    "region": "zhangjiang",
    "unit_price": 120.0,
    "lat": 31.198965,
    "lng": 121.61088
  },
  {
    "title": "整租·张江汤臣豪园(四期) 2室1厅 南/北",
    "community": "张江汤臣豪园(四期)",
    "area": "90.00",
    "rooms": "2室1厅",
    "direction": "南/北",
    "floor": "",
    "price": "13500",
    "tags": "",
    "source": "",
    "url": "https://sh.lianjia.com/zufang/SH2151525339816263680.html",
    "rent_type": "整租",
    "location": "浦东-张江-张江汤臣豪园(四期)",
    "scraped_at": "2026-04-23 10:34:42",
    "region": "zhangjiang",
    "unit_price": 150.0,
    "lat": 31.198209,
    "lng": 121.592123
  },
  {
    "title": "整租·香楠小区 2室1厅 南",
    "community": "香楠小区",
    "area": "56.12",
    "rooms": "2室1厅",
    "direction": "南",
    "floor": "",
    "price": "4500",
    "tags": "",
    "source": "",
    "url": "https://sh.lianjia.com/zufang/SH2147325524203012096.html",
    "rent_type": "整租",
    "location": "浦东-张江-香楠小区",
    "scraped_at": "2026-04-23 10:35:41",
    "region": "zhangjiang",
    "unit_price": 80.2,
    "lat": 31.21652,
    "lng": 121.614476
  },
  {
    "title": "整租·香楠小区 3室1厅 东/西",
    "community": "香楠小区",
    "area": "86.00",
    "rooms": "3室1厅",
    "direction": "东/西",
    "floor": "",
    "price": "6500",
    "tags": "",
    "source": "",
    "url": "https://sh.lianjia.com/zufang/SH2149812300108791808.html",
    "rent_type": "整租",
    "location": "浦东-张江-香楠小区",
    "scraped_at": "2026-04-23 10:34:42",
    "region": "zhangjiang",
    "unit_price": 75.6,
    "lat": 31.21652,
    "lng": 121.614476
  },
  {
    "title": "整租·华陇建中小区 2室1厅 南",
    "community": "华陇建中小区",
    "area": "57.77",
    "rooms": "2室1厅",
    "direction": "南",
    "floor": "",
    "price": "5000",
    "tags": "",
    "source": "",
    "url": "https://sh.lianjia.com/zufang/SH2152368795459518464.html",
    "rent_type": "整租",
    "location": "浦东-张江-华陇建中小区",
    "scraped_at": "2026-04-23 10:34:42",
    "region": "zhangjiang",
    "unit_price": 86.6,
    "lat": 31.198965,
    "lng": 121.61088
  },
  {
    "title": "整租·张江汤臣豪园(二期) 2室1厅 南",
    "community": "张江汤臣豪园(二期)",
    "area": "94.15",
    "rooms": "2室1厅",
    "direction": "南",
    "floor": "",
    "price": "8700",
    "tags": "",
    "source": "",
    "url": "https://sh.lianjia.com/zufang/SH2154886447876800512.html",
    "rent_type": "整租",
    "location": "浦东-张江-张江汤臣豪园(二期)",
    "scraped_at": "2026-04-23 10:35:31",
    "region": "zhangjiang",
    "unit_price": 92.4,
    "lat": 31.202498,
    "lng": 121.597512
  },
  {
    "title": "整租·绿地MTOWN 1室1厅 北",
    "community": "绿地MTOWN",
    "area": "40.00",
    "rooms": "1室1厅",
    "direction": "北",
    "floor": "",
    "price": "5500",
    "tags": "",
    "source": "",
    "url": "https://sh.lianjia.com/zufang/SH2155883295953387520.html",
    "rent_type": "整租",
    "location": "浦东-张江-绿地",
    "scraped_at": "2026-04-23 10:35:31",
    "region": "zhangjiang",
    "unit_price": 137.5,
    "lat": 31.177201,
    "lng": 121.603781
  },
  {
    "title": "整租·宝地东郊四季 4室2厅 南/北",
    "community": "宝地东郊四季",
    "area": "243.00",
    "rooms": "4室2厅",
    "direction": "南/北",
    "floor": "",
    "price": "29000",
    "tags": "",
    "source": "",
    "url": "https://sh.lianjia.com/zufang/SH2007757611910299648.html",
    "rent_type": "整租",
    "location": "浦东-张江-宝地东郊四季",
    "scraped_at": "2026-04-23 10:35:31",
    "region": "zhangjiang",
    "unit_price": 119.3,
    "lat": 31.225427,
    "lng": 121.614465
  },
  {
    "title": "整租·申城佳苑三期A块 3室1厅 南",
    "community": "申城佳苑三期A块",
    "area": "91.00",
    "rooms": "3室1厅",
    "direction": "南",
    "floor": "",
    "price": "7000",
    "tags": "",
    "source": "",
    "url": "https://sh.lianjia.com/zufang/SH2157313130969956352.html",
    "rent_type": "整租",
    "location": "浦东-张江-申城佳苑三期",
    "scraped_at": "2026-04-23 10:35:31",
    "region": "zhangjiang",
    "unit_price": 76.9,
    "lat": 31.180953,
    "lng": 121.638523
  },
  {
    "title": "整租·张江汤臣豪园(三期) 1室2厅 南",
    "community": "张江汤臣豪园(三期)",
    "area": "61.32",
    "rooms": "1室2厅",
    "direction": "南",
    "floor": "",
    "price": "8300",
    "tags": "",
    "source": "",
    "url": "https://sh.lianjia.com/zufang/SH2157377251459465216.html",
    "rent_type": "整租",
    "location": "浦东-张江-张江汤臣豪园(三期)",
    "scraped_at": "2026-04-23 10:35:31",
    "region": "zhangjiang",
    "unit_price": 135.4,
    "lat": 31.199283,
    "lng": 121.597612
  },
  {
    "title": "整租·城市经典四期高迪 1室1厅 南",
    "community": "城市经典四期高迪",
    "area": "63.92",
    "rooms": "1室1厅",
    "direction": "南",
    "floor": "",
    "price": "6400",
    "tags": "",
    "source": "",
    "url": "https://sh.lianjia.com/zufang/SH2157701722477166592.html",
    "rent_type": "整租",
    "location": "浦东-张江-城市经典四期高迪",
    "scraped_at": "2026-04-23 10:35:31",
    "region": "zhangjiang",
    "unit_price": 100.1,
    "lat": 31.212907,
    "lng": 121.618681
  },
  {
    "title": "整租·香楠小区 2室1厅 南",
    "community": "香楠小区",
    "area": "56.12",
    "rooms": "2室1厅",
    "direction": "南",
    "floor": "",
    "price": "5300",
    "tags": "",
    "source": "",
    "url": "https://sh.lianjia.com/zufang/SH2158066735293399040.html",
    "rent_type": "整租",
    "location": "浦东-张江-香楠小区",
    "scraped_at": "2026-04-23 10:35:31",
    "region": "zhangjiang",
    "unit_price": 94.4,
    "lat": 31.21652,
    "lng": 121.614476
  },
  {
    "title": "整租·万科翡翠公园四期 2室2厅 南/北",
    "community": "万科翡翠公园四期",
    "area": "84.26",
    "rooms": "2室2厅",
    "direction": "南/北",
    "floor": "",
    "price": "10500",
    "tags": "",
    "source": "",
    "url": "https://sh.lianjia.com/zufang/SH2158124537898598400.html",
    "rent_type": "整租",
    "location": "浦东-张江-万科翡翠公园四期",
    "scraped_at": "2026-04-23 10:35:31",
    "region": "zhangjiang",
    "unit_price": 124.6,
    "lat": 31.179139,
    "lng": 121.610609
  },
  {
    "title": "整租·玉兰香苑二期A块 3室2厅 南",
    "community": "玉兰香苑二期A块",
    "area": "88.61",
    "rooms": "3室2厅",
    "direction": "南",
    "floor": "",
    "price": "6500",
    "tags": "",
    "source": "",
    "url": "https://sh.lianjia.com/zufang/SH2158185883885371392.html",
    "rent_type": "整租",
    "location": "浦东-张江-玉兰香苑二期",
    "scraped_at": "2026-04-23 10:35:31",
    "region": "zhangjiang",
    "unit_price": 73.4,
    "lat": 31.198439,
    "lng": 121.627318
  },
  {
    "title": "整租·春港丽园(公寓) 3室2厅 南",
    "community": "春港丽园(公寓)",
    "area": "112.10",
    "rooms": "3室2厅",
    "direction": "南",
    "floor": "",
    "price": "7500",
    "tags": "",
    "source": "",
    "url": "https://sh.lianjia.com/zufang/SH1930118618868088832.html",
    "rent_type": "整租",
    "location": "浦东-张江-春港丽园(公寓)",
    "scraped_at": "2026-04-23 10:35:31",
    "region": "zhangjiang",
    "unit_price": 66.9,
    "lat": 31.202239,
    "lng": 121.623576
  },
  {
    "title": "整租·杨镇新村 2室1厅 南",
    "community": "杨镇新村",
    "area": "71.67",
    "rooms": "2室1厅",
    "direction": "南",
    "floor": "",
    "price": "5600",
    "tags": "",
    "source": "",
    "url": "https://sh.lianjia.com/zufang/SH2152996647481638912.html",
    "rent_type": "整租",
    "location": "浦东-张江-杨镇新村",
    "scraped_at": "2026-04-23 10:35:31",
    "region": "zhangjiang",
    "unit_price": 78.1,
    "lat": 31.029188,
    "lng": 121.369623
  },
  {
    "title": "整租·申城佳苑一期A块 2室1厅 南",
    "community": "申城佳苑一期A块",
    "area": "61.00",
    "rooms": "2室1厅",
    "direction": "南",
    "floor": "",
    "price": "5500",
    "tags": "",
    "source": "",
    "url": "https://sh.lianjia.com/zufang/SH2153407477784248320.html",
    "rent_type": "整租",
    "location": "浦东-张江-申城佳苑一期",
    "scraped_at": "2026-04-23 10:35:31",
    "region": "zhangjiang",
    "unit_price": 90.2,
    "lat": 31.185542,
    "lng": 121.636445
  },
  {
    "title": "整租·绿地MTOWN 1室1厅 南",
    "community": "绿地MTOWN",
    "area": "40.00",
    "rooms": "1室1厅",
    "direction": "南",
    "floor": "",
    "price": "5000",
    "tags": "",
    "source": "",
    "url": "https://sh.lianjia.com/zufang/SH2155885230815182848.html",
    "rent_type": "整租",
    "location": "浦东-张江-绿地",
    "scraped_at": "2026-04-23 10:35:31",
    "region": "zhangjiang",
    "unit_price": 125.0,
    "lat": 31.177201,
    "lng": 121.603781
  },
  {
    "title": "整租·盛大天地青春里2.0 2室2厅 北",
    "community": "盛大天地青春里2.0",
    "area": "45.00",
    "rooms": "2室2厅",
    "direction": "北",
    "floor": "",
    "price": "4500",
    "tags": "",
    "source": "",
    "url": "https://sh.lianjia.com/zufang/SH2155913521181753344.html",
    "rent_type": "整租",
    "location": "浦东-张江-盛大天地青春里",
    "scraped_at": "2026-04-23 10:35:31",
    "region": "zhangjiang",
    "unit_price": 100.0,
    "lat": 31.169751,
    "lng": 121.605652
  },
  {
    "title": "整租·盛大天地青春里2.0 1室0厅 东",
    "community": "盛大天地青春里2.0",
    "area": "46.00",
    "rooms": "1室0厅",
    "direction": "东",
    "floor": "",
    "price": "4300",
    "tags": "",
    "source": "",
    "url": "https://sh.lianjia.com/zufang/SH2155941964216795136.html",
    "rent_type": "整租",
    "location": "浦东-张江-盛大天地青春里",
    "scraped_at": "2026-04-23 10:35:31",
    "region": "zhangjiang",
    "unit_price": 93.5,
    "lat": 31.169751,
    "lng": 121.605652
  },
  {
    "title": "整租·科锦苑 3室2厅 南/北",
    "community": "科锦苑",
    "area": "100.00",
    "rooms": "3室2厅",
    "direction": "南/北",
    "floor": "",
    "price": "7800",
    "tags": "",
    "source": "",
    "url": "https://sh.lianjia.com/zufang/SH2156027898119585792.html",
    "rent_type": "整租",
    "location": "浦东-张江-科锦苑",
    "scraped_at": "2026-04-23 10:35:38",
    "region": "zhangjiang",
    "unit_price": 78.0,
    "lat": 31.173612,
    "lng": 121.625676
  },
  {
    "title": "整租·古桐公寓 3室2厅 南",
    "community": "古桐公寓",
    "area": "107.23",
    "rooms": "3室2厅",
    "direction": "南",
    "floor": "",
    "price": "8000",
    "tags": "",
    "source": "",
    "url": "https://sh.lianjia.com/zufang/SH2156716873104752640.html",
    "rent_type": "整租",
    "location": "浦东-张江-古桐公寓",
    "scraped_at": "2026-04-23 10:35:38",
    "region": "zhangjiang",
    "unit_price": 74.6,
    "lat": 31.200974,
    "lng": 121.616393
  },
  {
    "title": "整租·杨镇新村 3室1厅 南",
    "community": "杨镇新村",
    "area": "105.65",
    "rooms": "3室1厅",
    "direction": "南",
    "floor": "",
    "price": "7500",
    "tags": "",
    "source": "",
    "url": "https://sh.lianjia.com/zufang/SH2157078202642595840.html",
    "rent_type": "整租",
    "location": "浦东-张江-杨镇新村",
    "scraped_at": "2026-04-23 10:35:38",
    "region": "zhangjiang",
    "unit_price": 71.0,
    "lat": 31.029188,
    "lng": 121.369623
  },
  {
    "title": "整租·科锦苑 3室1厅 南",
    "community": "科锦苑",
    "area": "80.00",
    "rooms": "3室1厅",
    "direction": "南",
    "floor": "",
    "price": "5800",
    "tags": "",
    "source": "",
    "url": "https://sh.lianjia.com/zufang/SH2157144543730860032.html",
    "rent_type": "整租",
    "location": "浦东-张江-科锦苑",
    "scraped_at": "2026-04-23 10:35:31",
    "region": "zhangjiang",
    "unit_price": 72.5,
    "lat": 31.173612,
    "lng": 121.625676
  },
  {
    "title": "整租·孙建路四八0弄 1室2厅 南",
    "community": "孙建路四八0弄",
    "area": "44.00",
    "rooms": "1室2厅",
    "direction": "南",
    "floor": "",
    "price": "4800",
    "tags": "",
    "source": "",
    "url": "https://sh.lianjia.com/zufang/SH2157345619000164352.html",
    "rent_type": "整租",
    "location": "浦东-张江-孙建路四八",
    "scraped_at": "2026-04-23 10:35:31",
    "region": "zhangjiang",
    "unit_price": 109.1,
    "lat": 31.180817,
    "lng": 121.634991
  },
  {
    "title": "整租·申城佳苑一期B块 2室1厅 南",
    "community": "申城佳苑一期B块",
    "area": "60.64",
    "rooms": "2室1厅",
    "direction": "南",
    "floor": "",
    "price": "5000",
    "tags": "",
    "source": "",
    "url": "https://sh.lianjia.com/zufang/SH2157480515689512960.html",
    "rent_type": "整租",
    "location": "浦东-张江-申城佳苑一期",
    "scraped_at": "2026-04-23 10:35:31",
    "region": "zhangjiang",
    "unit_price": 82.5,
    "lat": 31.185542,
    "lng": 121.636445
  },
  {
    "title": "整租·申城佳苑二期B块 1室1厅 南",
    "community": "申城佳苑二期B块",
    "area": "63.47",
    "rooms": "1室1厅",
    "direction": "南",
    "floor": "",
    "price": "5800",
    "tags": "",
    "source": "",
    "url": "https://sh.lianjia.com/zufang/SH2158148421817466880.html",
    "rent_type": "整租",
    "location": "浦东-张江-申城佳苑二期",
    "scraped_at": "2026-04-23 10:35:31",
    "region": "zhangjiang",
    "unit_price": 91.4,
    "lat": 31.183084,
    "lng": 121.637066
  },
  {
    "title": "整租·川杨新苑(二期) 3室1厅 南",
    "community": "川杨新苑(二期)",
    "area": "93.00",
    "rooms": "3室1厅",
    "direction": "南",
    "floor": "",
    "price": "5800",
    "tags": "",
    "source": "",
    "url": "https://sh.lianjia.com/zufang/SH2155145488515465216.html",
    "rent_type": "整租",
    "location": "浦东-张江-川杨新苑(二期)",
    "scraped_at": "2026-04-23 10:35:31",
    "region": "zhangjiang",
    "unit_price": 62.4,
    "lat": 31.185655,
    "lng": 121.627256
  },
  {
    "title": "整租·华陇建中小区 2室1厅 南",
    "community": "华陇建中小区",
    "area": "64.17",
    "rooms": "2室1厅",
    "direction": "南",
    "floor": "",
    "price": "6000",
    "tags": "",
    "source": "",
    "url": "https://sh.lianjia.com/zufang/SH2154981507859480576.html",
    "rent_type": "整租",
    "location": "浦东-张江-华陇建中小区",
    "scraped_at": "2026-04-23 10:35:31",
    "region": "zhangjiang",
    "unit_price": 93.5,
    "lat": 31.198965,
    "lng": 121.61088
  },
  {
    "title": "整租·张江汤臣豪园(四期) 2室2厅 南",
    "community": "张江汤臣豪园(四期)",
    "area": "90.88",
    "rooms": "2室2厅",
    "direction": "南",
    "floor": "",
    "price": "11000",
    "tags": "",
    "source": "",
    "url": "https://sh.lianjia.com/zufang/SH2155967879181238272.html",
    "rent_type": "整租",
    "location": "浦东-张江-张江汤臣豪园(四期)",
    "scraped_at": "2026-04-23 10:35:38",
    "region": "zhangjiang",
    "unit_price": 121.0,
    "lat": 31.198209,
    "lng": 121.592123
  },
  {
    "title": "整租·玉兰香苑二期A块 1室1厅 南",
    "community": "玉兰香苑二期A块",
    "area": "57.42",
    "rooms": "1室1厅",
    "direction": "南",
    "floor": "",
    "price": "5500",
    "tags": "",
    "source": "",
    "url": "https://sh.lianjia.com/zufang/SH2153724853637611520.html",
    "rent_type": "整租",
    "location": "浦东-张江-玉兰香苑二期",
    "scraped_at": "2026-04-23 10:35:31",
    "region": "zhangjiang",
    "unit_price": 95.8,
    "lat": 31.198439,
    "lng": 121.627318
  },
  {
    "title": "整租·玉兰香苑一期A块 3室2厅 南",
    "community": "玉兰香苑一期A块",
    "area": "115.00",
    "rooms": "3室2厅",
    "direction": "南",
    "floor": "",
    "price": "7300",
    "tags": "",
    "source": "",
    "url": "https://sh.lianjia.com/zufang/SH2146115069434396672.html",
    "rent_type": "整租",
    "location": "浦东-张江-玉兰香苑一期",
    "scraped_at": "2026-04-23 10:35:31",
    "region": "zhangjiang",
    "unit_price": 63.5,
    "lat": 31.201049,
    "lng": 121.631989
  },
  {
    "title": "整租·盛大天地青春里2.0 2室2厅 跃层 东南",
    "community": "盛大天地青春里2.0",
    "area": "45.00",
    "rooms": "2室2厅",
    "direction": "",
    "floor": "",
    "price": "5500",
    "tags": "",
    "source": "",
    "url": "https://sh.lianjia.com/zufang/SH2149837773756956672.html",
    "rent_type": "整租",
    "location": "浦东-张江-盛大天地青春里",
    "scraped_at": "2026-04-23 10:35:31",
    "region": "zhangjiang",
    "unit_price": 122.2,
    "lat": 31.169751,
    "lng": 121.605652
  },
  {
    "title": "整租·申城佳苑一期A块 3室2厅 东/西",
    "community": "申城佳苑一期A块",
    "area": "114.00",
    "rooms": "3室2厅",
    "direction": "东/西",
    "floor": "",
    "price": "7600",
    "tags": "",
    "source": "",
    "url": "https://sh.lianjia.com/zufang/SH2152232874776985600.html",
    "rent_type": "整租",
    "location": "浦东-张江-申城佳苑一期",
    "scraped_at": "2026-04-23 10:35:31",
    "region": "zhangjiang",
    "unit_price": 66.7,
    "lat": 31.185542,
    "lng": 121.636445
  },
  {
    "title": "整租·展想悦廷 1室1厅 东",
    "community": "展想悦廷",
    "area": "57.40",
    "rooms": "1室1厅",
    "direction": "东",
    "floor": "",
    "price": "5300",
    "tags": "",
    "source": "",
    "url": "https://sh.lianjia.com/zufang/SH2152733284839194624.html",
    "rent_type": "整租",
    "location": "浦东-张江-展想悦廷",
    "scraped_at": "2026-04-23 10:35:31",
    "region": "zhangjiang",
    "unit_price": 92.3,
    "lat": 31.210723,
    "lng": 121.626563
  },
  {
    "title": "整租·古桐六村 2室2厅 南",
    "community": "古桐六村",
    "area": "95.00",
    "rooms": "2室2厅",
    "direction": "南",
    "floor": "",
    "price": "8500",
    "tags": "",
    "source": "",
    "url": "https://sh.lianjia.com/zufang/SH2146864679786381312.html",
    "rent_type": "整租",
    "location": "浦东-张江-古桐六村",
    "scraped_at": "2026-04-23 10:35:41",
    "region": "zhangjiang",
    "unit_price": 89.5,
    "lat": 31.201266,
    "lng": 121.610465
  },
  {
    "title": "整租·张江汤臣豪园(三期) 2室1厅 南/北",
    "community": "张江汤臣豪园(三期)",
    "area": "88.00",
    "rooms": "2室1厅",
    "direction": "南/北",
    "floor": "",
    "price": "11500",
    "tags": "",
    "source": "",
    "url": "https://sh.lianjia.com/zufang/SH2147639717070372864.html",
    "rent_type": "整租",
    "location": "浦东-张江-张江汤臣豪园(三期)",
    "scraped_at": "2026-04-23 10:35:41",
    "region": "zhangjiang",
    "unit_price": 130.7,
    "lat": 31.199283,
    "lng": 121.597612
  },
  {
    "title": "整租·绿地MTOWN 1室1厅 南",
    "community": "绿地MTOWN",
    "area": "40.22",
    "rooms": "1室1厅",
    "direction": "南",
    "floor": "",
    "price": "5000",
    "tags": "",
    "source": "",
    "url": "https://sh.lianjia.com/zufang/SH2147323950915387392.html",
    "rent_type": "整租",
    "location": "浦东-张江-绿地",
    "scraped_at": "2026-04-23 10:35:41",
    "region": "zhangjiang",
    "unit_price": 124.3,
    "lat": 31.177201,
    "lng": 121.603781
  },
  {
    "title": "整租·城市经典四期高迪 1室1厅 南",
    "community": "城市经典四期高迪",
    "area": "63.94",
    "rooms": "1室1厅",
    "direction": "南",
    "floor": "",
    "price": "6300",
    "tags": "",
    "source": "",
    "url": "https://sh.lianjia.com/zufang/SH2147899024600989696.html",
    "rent_type": "整租",
    "location": "浦东-张江-城市经典四期高迪",
    "scraped_at": "2026-04-23 10:35:41",
    "region": "zhangjiang",
    "unit_price": 98.5,
    "lat": 31.212907,
    "lng": 121.618681
  },
  {
    "title": "整租·万科翡翠公园（商用） 2室1厅 西",
    "community": "万科翡翠公园（商用）",
    "area": "65.59",
    "rooms": "2室1厅",
    "direction": "西",
    "floor": "",
    "price": "6200",
    "tags": "",
    "source": "",
    "url": "https://sh.lianjia.com/zufang/SH2149417166569472000.html",
    "rent_type": "整租",
    "location": "浦东-张江-万科翡翠公园",
    "scraped_at": "2026-04-23 10:35:41",
    "region": "zhangjiang",
    "unit_price": 94.5,
    "lat": 31.179762,
    "lng": 121.610562
  },
  {
    "title": "整租·日月光水岸花园(一期) 2室2厅 南",
    "community": "日月光水岸花园(一期)",
    "area": "87.57",
    "rooms": "2室2厅",
    "direction": "南",
    "floor": "",
    "price": "7700",
    "tags": "",
    "source": "",
    "url": "https://sh.lianjia.com/zufang/SH2105227536328818688.html",
    "rent_type": "整租",
    "location": "浦东-张江-日月光水岸花园(一期)",
    "scraped_at": "2026-04-23 10:35:41",
    "region": "zhangjiang",
    "unit_price": 87.9,
    "lat": 31.214414,
    "lng": 121.623717
  },
  {
    "title": "整租·圣宇豪庭 3室2厅 南",
    "community": "圣宇豪庭",
    "area": "137.00",
    "rooms": "3室2厅",
    "direction": "南",
    "floor": "",
    "price": "13000",
    "tags": "",
    "source": "",
    "url": "https://sh.lianjia.com/zufang/SH2106375468860047360.html",
    "rent_type": "整租",
    "location": "浦东-张江-圣宇豪庭",
    "scraped_at": "2026-04-23 10:35:41",
    "region": "zhangjiang",
    "unit_price": 94.9,
    "lat": 31.18413,
    "lng": 121.630896
  },
  {
    "title": "整租·中建御华园 3室2厅 南",
    "community": "中建御华园",
    "area": "100.00",
    "rooms": "3室2厅",
    "direction": "南",
    "floor": "",
    "price": "11800",
    "tags": "",
    "source": "",
    "url": "https://sh.lianjia.com/zufang/SH2113906125601505280.html",
    "rent_type": "整租",
    "location": "浦东-张江-中建御华园",
    "scraped_at": "2026-04-23 10:35:41",
    "region": "zhangjiang",
    "unit_price": 118.0,
    "lat": 31.207382,
    "lng": 121.617018
  },
  {
    "title": "整租·张江新苑 1室1厅 南",
    "community": "张江新苑",
    "area": "104.97",
    "rooms": "1室1厅",
    "direction": "南",
    "floor": "",
    "price": "5300",
    "tags": "",
    "source": "",
    "url": "https://sh.lianjia.com/zufang/SH2119740581339987968.html",
    "rent_type": "整租",
    "location": "浦东-张江-张江新苑",
    "scraped_at": "2026-04-23 10:35:41",
    "region": "zhangjiang",
    "unit_price": 50.5,
    "lat": 31.201001,
    "lng": 121.613004
  },
  {
    "title": "整租·紫晶苑 2室2厅 南",
    "community": "紫晶苑",
    "area": "80.21",
    "rooms": "2室2厅",
    "direction": "南",
    "floor": "",
    "price": "5200",
    "tags": "",
    "source": "",
    "url": "https://sh.lianjia.com/zufang/SH2120854188643581952.html",
    "rent_type": "整租",
    "location": "浦东-张江-紫晶苑",
    "scraped_at": "2026-04-23 10:35:41",
    "region": "zhangjiang",
    "unit_price": 64.8,
    "lat": 31.175766,
    "lng": 121.623784
  },
  {
    "title": "整租·虹御公寓 3室2厅 南",
    "community": "虹御公寓",
    "area": "114.85",
    "rooms": "3室2厅",
    "direction": "南",
    "floor": "",
    "price": "7000",
    "tags": "",
    "source": "",
    "url": "https://sh.lianjia.com/zufang/SH2122662613778169856.html",
    "rent_type": "整租",
    "location": "浦东-张江-虹御公寓",
    "scraped_at": "2026-04-23 10:35:41",
    "region": "zhangjiang",
    "unit_price": 60.9,
    "lat": 31.187024,
    "lng": 121.628373
  },
  {
    "title": "独栋·纳仕 张江在线右里3 宠物友好，南北通透，家具家电齐全，拎包入住 1室1厅",
    "community": "纳仕 张江在线右里3 宠物友好，南北通透，家具家电齐全，拎包入住",
    "area": "55.00",
    "rooms": "1室1厅",
    "direction": "",
    "floor": "",
    "price": "5116-5199",
    "tags": "",
    "source": "",
    "url": "https://sh.lianjia.com/apartment/101073.html",
    "rent_type": "独栋",
    "location": "",
    "scraped_at": "2026-04-23 10:35:44",
    "region": "zhangjiang",
    "unit_price": "",
    "lat": null,
    "lng": null
  },
  {
    "title": "整租·盛大天地青春里2.0 1室1厅 南",
    "community": "盛大天地青春里2.0",
    "area": "44.91",
    "rooms": "1室1厅",
    "direction": "南",
    "floor": "",
    "price": "4900",
    "tags": "",
    "source": "",
    "url": "https://sh.lianjia.com/zufang/SH1877993836018401280.html",
    "rent_type": "整租",
    "location": "浦东-张江-盛大天地青春里",
    "scraped_at": "2026-04-23 10:35:44",
    "region": "zhangjiang",
    "unit_price": 109.1,
    "lat": 31.169751,
    "lng": 121.605652
  },
  {
    "title": "整租·兰沁苑 2室2厅 南",
    "community": "兰沁苑",
    "area": "92.44",
    "rooms": "2室2厅",
    "direction": "南",
    "floor": "",
    "price": "9800",
    "tags": "",
    "source": "",
    "url": "https://sh.lianjia.com/zufang/SH2151614078315921408.html",
    "rent_type": "整租",
    "location": "浦东-张江-兰沁苑",
    "scraped_at": "2026-04-23 10:35:44",
    "region": "zhangjiang",
    "unit_price": 106.0,
    "lat": 31.205112,
    "lng": 121.622633
  },
  {
    "title": "整租·中芯花园199弄 1室1厅 南",
    "community": "中芯花园199弄",
    "area": "67.05",
    "rooms": "1室1厅",
    "direction": "南",
    "floor": "",
    "price": "5200",
    "tags": "",
    "source": "",
    "url": "https://sh.lianjia.com/zufang/SH1892228484181262336.html",
    "rent_type": "整租",
    "location": "浦东-张江-中芯花园",
    "scraped_at": "2026-04-23 10:35:44",
    "region": "zhangjiang",
    "unit_price": 77.6,
    "lat": 31.220081,
    "lng": 121.621991
  },
  {
    "title": "整租·黄浦花园 3室2厅 南",
    "community": "黄浦花园",
    "area": "101.58",
    "rooms": "3室2厅",
    "direction": "南",
    "floor": "",
    "price": "5040",
    "tags": "",
    "source": "",
    "url": "https://sh.lianjia.com/zufang/SH2025427331740336128.html",
    "rent_type": "整租",
    "location": "浦东-张江-黄浦花园",
    "scraped_at": "2026-04-23 10:35:44",
    "region": "zhangjiang",
    "unit_price": 49.6,
    "lat": 31.219451,
    "lng": 121.448417
  },
  {
    "title": "整租·展想悦廷 1室1厅 南",
    "community": "展想悦廷",
    "area": "52.95",
    "rooms": "1室1厅",
    "direction": "南",
    "floor": "",
    "price": "4725",
    "tags": "",
    "source": "",
    "url": "https://sh.lianjia.com/zufang/SH2026327343940763648.html",
    "rent_type": "整租",
    "location": "浦东-张江-展想悦廷",
    "scraped_at": "2026-04-23 10:36:08",
    "region": "zhangjiang",
    "unit_price": 89.2,
    "lat": 31.210723,
    "lng": 121.626563
  },
  {
    "title": "整租·川杨新苑(四期) 1室1厅 南",
    "community": "川杨新苑(四期)",
    "area": "57.00",
    "rooms": "1室1厅",
    "direction": "南",
    "floor": "",
    "price": "4725",
    "tags": "",
    "source": "",
    "url": "https://sh.lianjia.com/zufang/SH2030190477289979904.html",
    "rent_type": "整租",
    "location": "浦东-张江-川杨新苑(四期)",
    "scraped_at": "2026-04-23 10:36:08",
    "region": "zhangjiang",
    "unit_price": 82.9,
    "lat": 31.189052,
    "lng": 121.63772
  },
  {
    "title": "独栋·纳仕 张江在线右里2 24H安全保障，宜家绿色家具，民水民电，燃气做饭 1室1厅",
    "community": "纳仕 张江在线右里2 24H安全保障，宜家绿色家具，民水民电，燃气做饭",
    "area": "55.00",
    "rooms": "1室1厅",
    "direction": "",
    "floor": "",
    "price": "5171-5227",
    "tags": "",
    "source": "",
    "url": "https://sh.lianjia.com/apartment/101080.html",
    "rent_type": "独栋",
    "location": "",
    "scraped_at": "2026-04-23 10:35:44",
    "region": "zhangjiang",
    "unit_price": "",
    "lat": 31.205606,
    "lng": 121.459202
  },
  {
    "title": "整租·盛大天地青春里2.0 2室2厅 南",
    "community": "盛大天地青春里2.0",
    "area": "44.73",
    "rooms": "2室2厅",
    "direction": "南",
    "floor": "",
    "price": "4830",
    "tags": "",
    "source": "",
    "url": "https://sh.lianjia.com/zufang/SH2017126228166705152.html",
    "rent_type": "整租",
    "location": "浦东-张江-盛大天地青春里",
    "scraped_at": "2026-04-23 10:36:18",
    "region": "zhangjiang",
    "unit_price": 108.0,
    "lat": 31.169751,
    "lng": 121.605652
  },
  {
    "title": "整租·张江一村 2室1厅 南",
    "community": "张江一村",
    "area": "59.17",
    "rooms": "2室1厅",
    "direction": "南",
    "floor": "",
    "price": "4725",
    "tags": "",
    "source": "",
    "url": "https://sh.lianjia.com/zufang/SH2033163122038013952.html",
    "rent_type": "整租",
    "location": "浦东-张江-张江一村",
    "scraped_at": "2026-04-23 10:36:08",
    "region": "zhangjiang",
    "unit_price": 79.9,
    "lat": 31.207204,
    "lng": 121.612924
  },
  {
    "title": "整租·盛大天地青春里2.0 2室2厅 西南",
    "community": "盛大天地青春里2.0",
    "area": "54.00",
    "rooms": "2室2厅",
    "direction": "西南",
    "floor": "",
    "price": "5040",
    "tags": "",
    "source": "",
    "url": "https://sh.lianjia.com/zufang/SH2067817588066353152.html",
    "rent_type": "整租",
    "location": "浦东-张江-盛大天地青春里",
    "scraped_at": "2026-04-23 10:36:18",
    "region": "zhangjiang",
    "unit_price": 93.3,
    "lat": 31.169751,
    "lng": 121.605652
  },
  {
    "title": "整租·汇智湖畔家园 1室1厅 南",
    "community": "汇智湖畔家园",
    "area": "74.86",
    "rooms": "1室1厅",
    "direction": "南",
    "floor": "",
    "price": "7350",
    "tags": "",
    "source": "",
    "url": "https://sh.lianjia.com/zufang/SH2042955152205283328.html",
    "rent_type": "整租",
    "location": "浦东-张江-汇智湖畔家园",
    "scraped_at": "2026-04-23 10:36:18",
    "region": "zhangjiang",
    "unit_price": 98.2,
    "lat": 31.199759,
    "lng": 121.606217
  },
  {
    "title": "整租·紫晶苑 1室1厅 南",
    "community": "紫晶苑",
    "area": "60.00",
    "rooms": "1室1厅",
    "direction": "南",
    "floor": "",
    "price": "4600",
    "tags": "",
    "source": "",
    "url": "https://sh.lianjia.com/zufang/SH2052222382294171648.html",
    "rent_type": "整租",
    "location": "浦东-张江-紫晶苑",
    "scraped_at": "2026-04-23 10:36:08",
    "region": "zhangjiang",
    "unit_price": 76.7,
    "lat": 31.175766,
    "lng": 121.623784
  },
  {
    "title": "整租·香楠小区 1室1厅 南",
    "community": "香楠小区",
    "area": "47.00",
    "rooms": "1室1厅",
    "direction": "南",
    "floor": "",
    "price": "4410",
    "tags": "",
    "source": "",
    "url": "https://sh.lianjia.com/zufang/SH2020508257784692736.html",
    "rent_type": "整租",
    "location": "浦东-张江-香楠小区",
    "scraped_at": "2026-04-23 10:36:18",
    "region": "zhangjiang",
    "unit_price": 93.8,
    "lat": 31.21652,
    "lng": 121.614476
  },
  {
    "title": "整租·展想悦廷 1室1厅 西",
    "community": "展想悦廷",
    "area": "54.12",
    "rooms": "1室1厅",
    "direction": "西",
    "floor": "",
    "price": "3780",
    "tags": "",
    "source": "",
    "url": "https://sh.lianjia.com/zufang/SH2023307314466914304.html",
    "rent_type": "整租",
    "location": "浦东-张江-展想悦廷",
    "scraped_at": "2026-04-23 10:36:08",
    "region": "zhangjiang",
    "unit_price": 69.8,
    "lat": 31.210723,
    "lng": 121.626563
  },
  {
    "title": "整租·川杨新苑(六期) 2室2厅 南",
    "community": "川杨新苑(六期)",
    "area": "85.53",
    "rooms": "2室2厅",
    "direction": "南",
    "floor": "",
    "price": "6825",
    "tags": "",
    "source": "",
    "url": "https://sh.lianjia.com/zufang/SH2023280721765859328.html",
    "rent_type": "整租",
    "location": "浦东-张江-川杨新苑(六期)",
    "scraped_at": "2026-04-23 10:36:08",
    "region": "zhangjiang",
    "unit_price": 79.8,
    "lat": 31.190876,
    "lng": 121.636381
  },
  {
    "title": "整租·玉兰香苑二期A块 2室1厅 南",
    "community": "玉兰香苑二期A块",
    "area": "58.98",
    "rooms": "2室1厅",
    "direction": "南",
    "floor": "",
    "price": "4725",
    "tags": "",
    "source": "",
    "url": "https://sh.lianjia.com/zufang/SH2023774565703876608.html",
    "rent_type": "整租",
    "location": "浦东-张江-玉兰香苑二期",
    "scraped_at": "2026-04-23 10:36:08",
    "region": "zhangjiang",
    "unit_price": 80.1,
    "lat": 31.198439,
    "lng": 121.627318
  },
  {
    "title": "整租·张江汤臣豪园(三期) 2室2厅 南/北",
    "community": "张江汤臣豪园(三期)",
    "area": "88.00",
    "rooms": "2室2厅",
    "direction": "南/北",
    "floor": "",
    "price": "9660",
    "tags": "",
    "source": "",
    "url": "https://sh.lianjia.com/zufang/SH2024363075527770112.html",
    "rent_type": "整租",
    "location": "浦东-张江-张江汤臣豪园(三期)",
    "scraped_at": "2026-04-23 10:35:44",
    "region": "zhangjiang",
    "unit_price": 109.8,
    "lat": 31.199283,
    "lng": 121.597612
  },
  {
    "title": "整租·展想悦廷 1室1厅 东",
    "community": "展想悦廷",
    "area": "53.09",
    "rooms": "1室1厅",
    "direction": "东",
    "floor": "",
    "price": "4200",
    "tags": "",
    "source": "",
    "url": "https://sh.lianjia.com/zufang/SH2086318045046767616.html",
    "rent_type": "整租",
    "location": "浦东-张江-展想悦廷",
    "scraped_at": "2026-04-23 10:36:18",
    "region": "zhangjiang",
    "unit_price": 79.1,
    "lat": 31.210723,
    "lng": 121.626563
  },
  {
    "title": "整租·绿地MTOWN 1室1厅 北",
    "community": "绿地MTOWN",
    "area": "38.00",
    "rooms": "1室1厅",
    "direction": "北",
    "floor": "",
    "price": "4200",
    "tags": "",
    "source": "",
    "url": "https://sh.lianjia.com/zufang/SH1958100708322443264.html",
    "rent_type": "整租",
    "location": "浦东-张江-绿地",
    "scraped_at": "2026-04-23 10:36:08",
    "region": "zhangjiang",
    "unit_price": 110.5,
    "lat": 31.177201,
    "lng": 121.603781
  },
  {
    "title": "整租·张江汤臣豪园(三期) 2室1厅 南",
    "community": "张江汤臣豪园(三期)",
    "area": "88.00",
    "rooms": "2室1厅",
    "direction": "南",
    "floor": "",
    "price": "9500",
    "tags": "",
    "source": "",
    "url": "https://sh.lianjia.com/zufang/SH2145526391318249472.html",
    "rent_type": "整租",
    "location": "浦东-张江-张江汤臣豪园(三期)",
    "scraped_at": "2026-04-23 10:36:08",
    "region": "zhangjiang",
    "unit_price": 108.0,
    "lat": 31.199283,
    "lng": 121.597612
  },
  {
    "title": "整租·申城佳苑三期B块 3室2厅 南",
    "community": "申城佳苑三期B块",
    "area": "112.80",
    "rooms": "3室2厅",
    "direction": "南",
    "floor": "",
    "price": "7800",
    "tags": "",
    "source": "",
    "url": "https://sh.lianjia.com/zufang/SH2145534819440787456.html",
    "rent_type": "整租",
    "location": "浦东-张江-申城佳苑三期",
    "scraped_at": "2026-04-23 10:36:08",
    "region": "zhangjiang",
    "unit_price": 69.1,
    "lat": 31.180953,
    "lng": 121.638523
  },
  {
    "title": "整租·杨镇新村 2室1厅 南/北",
    "community": "杨镇新村",
    "area": "65.00",
    "rooms": "2室1厅",
    "direction": "南/北",
    "floor": "",
    "price": "4673",
    "tags": "",
    "source": "",
    "url": "https://sh.lianjia.com/zufang/SH2127794984030568448.html",
    "rent_type": "整租",
    "location": "浦东-张江-杨镇新村",
    "scraped_at": "2026-04-23 10:36:08",
    "region": "zhangjiang",
    "unit_price": 71.9,
    "lat": 31.029188,
    "lng": 121.369623
  },
  {
    "title": "整租·展想悦廷 1室0厅 东",
    "community": "展想悦廷",
    "area": "52.96",
    "rooms": "1室0厅",
    "direction": "东",
    "floor": "",
    "price": "4300",
    "tags": "",
    "source": "",
    "url": "https://sh.lianjia.com/zufang/SH2143662152114765824.html",
    "rent_type": "整租",
    "location": "浦东-张江-展想悦廷",
    "scraped_at": "2026-04-23 10:36:08",
    "region": "zhangjiang",
    "unit_price": 81.2,
    "lat": 31.210723,
    "lng": 121.626563
  },
  {
    "title": "整租·展想悦廷 1室1厅 西",
    "community": "展想悦廷",
    "area": "52.83",
    "rooms": "1室1厅",
    "direction": "西",
    "floor": "",
    "price": "4200",
    "tags": "",
    "source": "",
    "url": "https://sh.lianjia.com/zufang/SH2144388274746032128.html",
    "rent_type": "整租",
    "location": "浦东-张江-展想悦廷",
    "scraped_at": "2026-04-23 10:36:18",
    "region": "zhangjiang",
    "unit_price": 79.5,
    "lat": 31.210723,
    "lng": 121.626563
  },
  {
    "title": "整租·古桐公寓 2室2厅 南",
    "community": "古桐公寓",
    "area": "75.63",
    "rooms": "2室2厅",
    "direction": "南",
    "floor": "",
    "price": "6700",
    "tags": "",
    "source": "",
    "url": "https://sh.lianjia.com/zufang/SH2150518641072799744.html",
    "rent_type": "整租",
    "location": "浦东-张江-古桐公寓",
    "scraped_at": "2026-04-23 10:36:08",
    "region": "zhangjiang",
    "unit_price": 88.6,
    "lat": 31.200974,
    "lng": 121.616393
  },
  {
    "title": "整租·春港丽园(公寓) 3室1厅 南",
    "community": "春港丽园(公寓)",
    "area": "77.48",
    "rooms": "3室1厅",
    "direction": "南",
    "floor": "",
    "price": "5770",
    "tags": "",
    "source": "",
    "url": "https://sh.lianjia.com/zufang/SH2150524900660477952.html",
    "rent_type": "整租",
    "location": "浦东-张江-春港丽园(公寓)",
    "scraped_at": "2026-04-23 10:36:08",
    "region": "zhangjiang",
    "unit_price": 74.5,
    "lat": 31.202239,
    "lng": 121.623576
  },
  {
    "title": "独栋·顶夫公寓 孙桥路店 13号线张江路房源!独立厨卫 ，采光佳 开间",
    "community": "顶夫公寓 孙桥路店 13号线张江路房源!独立厨卫 ，采光佳 开间",
    "area": "25.00",
    "rooms": "",
    "direction": "",
    "floor": "",
    "price": "3300",
    "tags": "",
    "source": "",
    "url": "https://sh.lianjia.com/apartment/106602.html",
    "rent_type": "独栋",
    "location": "",
    "scraped_at": "2026-04-23 10:36:18",
    "region": "zhangjiang",
    "unit_price": 132.0,
    "lat": 31.120383,
    "lng": 121.27151
  },
  {
    "title": "整租·香楠小区 3室1厅 南",
    "community": "香楠小区",
    "area": "76.54",
    "rooms": "3室1厅",
    "direction": "南",
    "floor": "",
    "price": "5775",
    "tags": "",
    "source": "",
    "url": "https://sh.lianjia.com/zufang/SH2012472828820979712.html",
    "rent_type": "整租",
    "location": "浦东-张江-香楠小区",
    "scraped_at": "2026-04-23 10:36:18",
    "region": "zhangjiang",
    "unit_price": 75.5,
    "lat": 31.21652,
    "lng": 121.614476
  },
  {
    "title": "整租·展想悦廷 1室1厅 南",
    "community": "展想悦廷",
    "area": "52.83",
    "rooms": "1室1厅",
    "direction": "南",
    "floor": "",
    "price": "4500",
    "tags": "",
    "source": "",
    "url": "https://sh.lianjia.com/zufang/SH1909472568658624512.html",
    "rent_type": "整租",
    "location": "浦东-张江-展想悦廷",
    "scraped_at": "2026-04-23 10:36:18",
    "region": "zhangjiang",
    "unit_price": 85.2,
    "lat": 31.210723,
    "lng": 121.626563
  },
  {
    "title": "独栋·松鼠公寓 广兰路店 地铁2号线整租一居室，近广兰路地铁站，展想广场集贤中心 开间",
    "community": "松鼠公寓 广兰路店 地铁2号线整租一居室，近广兰路地铁站，展想广场集贤中心 开间",
    "area": "40.00",
    "rooms": "",
    "direction": "",
    "floor": "",
    "price": "3580",
    "tags": "",
    "source": "",
    "url": "https://sh.lianjia.com/apartment/106601.html",
    "rent_type": "独栋",
    "location": "",
    "scraped_at": "2026-04-23 10:36:18",
    "region": "zhangjiang",
    "unit_price": 89.5,
    "lat": 31.209977,
    "lng": 121.628799
  },
  {
    "title": "独栋·丹芳公寓 张江店 【暖春特惠】2号线直达陆家嘴，配套齐全，拎包入住 开间",
    "community": "丹芳公寓 张江店 【暖春特惠】2号线直达陆家嘴，配套齐全，拎包入住 开间",
    "area": "23.00",
    "rooms": "",
    "direction": "",
    "floor": "",
    "price": "2300",
    "tags": "",
    "source": "",
    "url": "https://sh.lianjia.com/apartment/106343.html",
    "rent_type": "独栋",
    "location": "",
    "scraped_at": "2026-04-23 10:36:18",
    "region": "zhangjiang",
    "unit_price": 100.0,
    "lat": 31.237015,
    "lng": 121.5025
  },
  {
    "title": "独栋·青年汇 张江店 2号线，近地铁，整租一室户，独立厨卫 开间",
    "community": "青年汇 张江店 2号线，近地铁，整租一室户，独立厨卫 开间",
    "area": "25.00",
    "rooms": "",
    "direction": "",
    "floor": "",
    "price": "2600",
    "tags": "",
    "source": "",
    "url": "https://sh.lianjia.com/apartment/106366.html",
    "rent_type": "独栋",
    "location": "",
    "scraped_at": "2026-04-23 10:36:18",
    "region": "zhangjiang",
    "unit_price": 104.0,
    "lat": 31.205437,
    "lng": 121.611702
  },
  {
    "title": "独栋·摩居社区公寓 海趣路店 地铁口好房!13号线中科路整租任选，周边商圈环绕 开间",
    "community": "摩居社区公寓 海趣路店 地铁口好房!13号线中科路整租任选，周边商圈环绕 开间",
    "area": "25.00",
    "rooms": "",
    "direction": "",
    "floor": "",
    "price": "2600",
    "tags": "",
    "source": "",
    "url": "https://sh.lianjia.com/apartment/106515.html",
    "rent_type": "独栋",
    "location": "",
    "scraped_at": "2026-04-23 10:36:18",
    "region": "zhangjiang",
    "unit_price": 104.0,
    "lat": 31.235316,
    "lng": 121.428936
  },
  {
    "title": "独栋·集贤天地人才公寓 旗舰店 张江科创园区朝南一室户，民用水电，拎包入住优惠多多D 1室1厅",
    "community": "集贤天地人才公寓 旗舰店 张江科创园区朝南一室户，民用水电，拎包入住优惠多多D",
    "area": "45.00",
    "rooms": "1室1厅",
    "direction": "",
    "floor": "",
    "price": "5200",
    "tags": "",
    "source": "",
    "url": "https://sh.lianjia.com/apartment/85222.html",
    "rent_type": "独栋",
    "location": "",
    "scraped_at": "2026-04-23 10:36:23",
    "region": "zhangjiang",
    "unit_price": 115.6,
    "lat": 31.208796,
    "lng": 121.629595
  },
  {
    "title": "独栋·城方公寓 张江璟绸社区 拎包入住2房，可提公积金，通透朝南，宠物友好 2室1厅",
    "community": "城方公寓 张江璟绸社区 拎包入住2房，可提公积金，通透朝南，宠物友好",
    "area": "68.00",
    "rooms": "2室1厅",
    "direction": "",
    "floor": "",
    "price": "6189",
    "tags": "",
    "source": "",
    "url": "https://sh.lianjia.com/apartment/90525.html",
    "rent_type": "独栋",
    "location": "",
    "scraped_at": "2026-04-23 10:36:23",
    "region": "zhangjiang",
    "unit_price": 91.0,
    "lat": 31.213456,
    "lng": 121.435516
  },
  {
    "title": "独栋·纳仕云庐 张江国际C区 季度大促-品质大两房 南北通透 独立厨房 双卫 民用水电 2室2厅",
    "community": "纳仕云庐 张江国际C区 季度大促-品质大两房 南北通透 独立厨房 双卫 民用水电",
    "area": "112.00",
    "rooms": "2室2厅",
    "direction": "",
    "floor": "",
    "price": "9223",
    "tags": "",
    "source": "",
    "url": "https://sh.lianjia.com/apartment/90534.html",
    "rent_type": "独栋",
    "location": "",
    "scraped_at": "2026-04-23 10:36:23",
    "region": "zhangjiang",
    "unit_price": 82.3,
    "lat": 31.168606,
    "lng": 121.624907
  },
  {
    "title": "独栋·纳仕 张江科学之门星庐1 张江国企直租、近地铁站、全屋地暖、南北通透 2室2厅",
    "community": "纳仕 张江科学之门星庐1 张江国企直租、近地铁站、全屋地暖、南北通透",
    "area": "90.00",
    "rooms": "2室2厅",
    "direction": "",
    "floor": "",
    "price": "9989",
    "tags": "",
    "source": "",
    "url": "https://sh.lianjia.com/apartment/92443.html",
    "rent_type": "独栋",
    "location": "",
    "scraped_at": "2026-04-23 10:36:23",
    "region": "zhangjiang",
    "unit_price": 111.0,
    "lat": 31.21933,
    "lng": 121.627858
  },
  {
    "title": "独栋·baseLITE 张江店 此为长租价格，短租溢价，全景落地窗大阳台，入住提供床品，宠物友好，拎包即住 1室1厅",
    "community": "baseLITE 张江店 此为长租价格，短租溢价，全景落地窗大阳台，入住提供床品，宠物友好，拎包即住",
    "area": "51.00",
    "rooms": "1室1厅",
    "direction": "",
    "floor": "",
    "price": "6000",
    "tags": "",
    "source": "",
    "url": "https://sh.lianjia.com/apartment/29634.html",
    "rent_type": "独栋",
    "location": "",
    "scraped_at": "2026-04-23 10:36:32",
    "region": "zhangjiang",
    "unit_price": 117.6,
    "lat": null,
    "lng": null
  },
  {
    "title": "独栋·柚米 张江纳仕社区F店 张江高端社区 一房两厅配备书房 全屋定制 品质保证 1室2厅",
    "community": "柚米 张江纳仕社区F店 张江高端社区 一房两厅配备书房 全屋定制 品质保证",
    "area": "90.00",
    "rooms": "1室2厅",
    "direction": "",
    "floor": "",
    "price": "6293",
    "tags": "",
    "source": "",
    "url": "https://sh.lianjia.com/apartment/46401.html",
    "rent_type": "独栋",
    "location": "",
    "scraped_at": "2026-04-23 10:36:32",
    "region": "zhangjiang",
    "unit_price": 69.9,
    "lat": 31.225603,
    "lng": 121.48083
  },
  {
    "title": "独栋·柚米 张江纳仕社区C店 张江集团人才社区 民水民电 两房一厅 空房不多 先到先得 2室1厅",
    "community": "柚米 张江纳仕社区C店 张江集团人才社区 民水民电 两房一厅 空房不多 先到先得",
    "area": "90.00",
    "rooms": "2室1厅",
    "direction": "",
    "floor": "",
    "price": "6362",
    "tags": "",
    "source": "",
    "url": "https://sh.lianjia.com/apartment/60815.html",
    "rent_type": "独栋",
    "location": "",
    "scraped_at": "2026-04-23 10:36:32",
    "region": "zhangjiang",
    "unit_price": 70.7,
    "lat": 31.228148,
    "lng": 121.463211
  },
  {
    "title": "独栋·柚米 张江纳仕社区B店 保租房直租！宠物友好，两房一厅！民用水电燃气 社区环境好 2室1厅",
    "community": "柚米 张江纳仕社区B店 保租房直租！宠物友好，两房一厅！民用水电燃气 社区环境好",
    "area": "90.00",
    "rooms": "2室1厅",
    "direction": "",
    "floor": "",
    "price": "6593",
    "tags": "",
    "source": "",
    "url": "https://sh.lianjia.com/apartment/60819.html",
    "rent_type": "独栋",
    "location": "",
    "scraped_at": "2026-04-23 10:36:32",
    "region": "zhangjiang",
    "unit_price": 73.3,
    "lat": 31.168893,
    "lng": 121.623166
  },
  {
    "title": "独栋·纳仕 张江国际社区云庐 史上巨惠！免1.5个月租金 云庐·独栋 张江公寓直租 豪华平层 宽境客厅 地暖新风 可办居住证 3室2厅",
    "community": "纳仕 张江国际社区云庐 史上巨惠！免1.5个月租金 云庐·独栋 张江公寓直租 豪华平层 宽境客厅 地暖新风 可办居住证",
    "area": "180.00",
    "rooms": "3室2厅",
    "direction": "",
    "floor": "",
    "price": "17175",
    "tags": "",
    "source": "",
    "url": "https://sh.lianjia.com/apartment/63406.html",
    "rent_type": "独栋",
    "location": "",
    "scraped_at": "2026-04-23 10:36:32",
    "region": "zhangjiang",
    "unit_price": 95.4,
    "lat": null,
    "lng": null
  },