[
  {
    "title": "整租·逸贤雅苑 1室1厅 南",
    "community": "逸贤雅苑",
    "area": "58.00",
    "rooms": "1室1厅",
    "direction": "南",
    "floor": "",
    "price": "1780",
    "tags": "",
    "source": "",
    "url": "https://sh.lianjia.com/zufang/SH2153469034421551104.html",
    "rent_type": "整租",
    "location": "奉贤-奉贤金汇-逸贤雅苑",
    "scraped_at": "2026-04-23 17:36:21",
    "region": "fengxianjinhui",
    "unit_price": 30.7,
    "lat": 30.955023,
    "lng": 121.508195
  },
  {
    "title": "整租·宝华帝华园 2室2厅 南/北",
    "community": "宝华帝华园",
    "area": "123.48",
    "rooms": "2室2厅",
    "direction": "南/北",
    "floor": "",
    "price": "3700",
    "tags": "",
    "source": "",
    "url": "https://sh.lianjia.com/zufang/SH2144314688500924416.html",
    "rent_type": "整租",
    "location": "奉贤-奉贤金汇-宝华帝华园",
    "scraped_at": "2026-04-23 17:36:21",
    "region": "fengxianjinhui",
    "unit_price": 30.0,
    "lat": 30.920579,
    "lng": 121.573183
  },
  {
    "title": "整租·逸贤雅苑 2室1厅 南",
    "community": "逸贤雅苑",
    "area": "69.81",
    "rooms": "2室1厅",
    "direction": "南",
    "floor": "",
    "price": "2000",
    "tags": "",
    "source": "",
    "url": "https://sh.lianjia.com/zufang/SH2026148217216827392.html",
    "rent_type": "整租",
    "location": "奉贤-奉贤金汇-逸贤雅苑",
    "scraped_at": "2026-04-23 17:36:21",
    "region": "fengxianjinhui",
    "unit_price": 28.6,
    "lat": 30.955023,
    "lng": 121.508195
  },
  {
    "title": "独栋·寓贤公寓 金茂悦 小区精装两室一厅燃气做饭带阳台 2室1厅",
    "community": "寓贤公寓 金茂悦 小区精装两室一厅燃气做饭带阳台",
    "area": "65.00",
    "rooms": "2室1厅",
    "direction": "",
    "floor": "",
    "price": "2400",
    "tags": "",
    "source": "",
    "url": "https://sh.lianjia.com/apartment/85116.html",
    "rent_type": "独栋",
    "location": "",
    "scraped_at": "2026-04-23 17:36:21",
    "region": "fengxianjinhui",
    "unit_price": 36.9,
    "lat": 30.890353,
    "lng": 121.925123
  },
  {
    "title": "整租·东原郦湾东区 3室2厅 南",
    "community": "东原郦湾东区",
    "area": "108.00",
    "rooms": "3室2厅",
    "direction": "南",
    "floor": "",
    "price": "3171",
    "tags": "",
    "source": "",
    "url": "https://sh.lianjia.com/zufang/SH2028309861640437760.html",
    "rent_type": "整租",
    "location": "奉贤-奉贤金汇-东原郦湾东区",
    "scraped_at": "2026-04-23 17:36:21",
    "region": "fengxianjinhui",
    "unit_price": 29.4,
    "lat": 30.942848,
    "lng": 121.519036
  },
  {
    "title": "独栋·金裕雅居 金汇中心 一室户 开间",
    "community": "金裕雅居 金汇中心 一室户 开间",
    "area": "58.60",
    "rooms": "",
    "direction": "",
    "floor": "",
    "price": "1408-2618",
    "tags": "",
    "source": "",
    "url": "https://sh.lianjia.com/apartment/105378.html",
    "rent_type": "独栋",
    "location": "",
    "scraped_at": "2026-04-23 17:36:21",
    "region": "fengxianjinhui",
    "unit_price": "",
    "lat": 31.344448,
    "lng": 121.192438
  },
  {
    "title": "整租·敬贤雅苑 2室1厅 南",
    "community": "敬贤雅苑",
    "area": "78.00",
    "rooms": "2室1厅",
    "direction": "南",
    "floor": "",
    "price": "2310",
    "tags": "",
    "source": "",
    "url": "https://sh.lianjia.com/zufang/SH2105203958141157376.html",
    "rent_type": "整租",
    "location": "奉贤-奉贤金汇-敬贤雅苑",
    "scraped_at": "2026-04-23 17:36:21",
    "region": "fengxianjinhui",
    "unit_price": 29.6,
    "lat": 30.954441,
    "lng": 121.516291
  },
  {
    "title": "整租·万科金域华府西区 3室2厅 南/北",
    "community": "万科金域华府西区",
    "area": "116.30",
    "rooms": "3室2厅",
    "direction": "南/北",
    "floor": "",
    "price": "3000",
    "tags": "",
    "source": "",
    "url": "https://sh.lianjia.com/zufang/SH2148636957469573120.html",
    "rent_type": "整租",
    "location": "奉贤-奉贤金汇-万科金域华府西区",
    "scraped_at": "2026-04-23 17:36:21",
    "region": "fengxianjinhui",
    "unit_price": 25.8,
    "lat": 30.935581,
    "lng": 121.517385
  },
  {
    "title": "整租·南桥金茂悦 3室2厅 南/北",
    "community": "南桥金茂悦",
    "area": "99.75",
    "rooms": "3室2厅",
    "direction": "南/北",
    "floor": "",
    "price": "3045",
    "tags": "",
    "source": "",
    "url": "https://sh.lianjia.com/zufang/SH1829520847296004096.html",
    "rent_type": "整租",
    "location": "奉贤-奉贤金汇-南桥金茂悦",
    "scraped_at": "2026-04-23 17:36:21",
    "region": "fengxianjinhui",
    "unit_price": 30.5,
    "lat": 30.962747,
    "lng": 121.503786
  },
  {
    "title": "整租·百曲雅苑 3室1厅 南/北",
    "community": "百曲雅苑",
    "area": "101.00",
    "rooms": "3室1厅",
    "direction": "南/北",
    "floor": "",
    "price": "2300",
    "tags": "",
    "source": "",
    "url": "https://sh.lianjia.com/zufang/SH2144441149295689728.html",
    "rent_type": "整租",
    "location": "奉贤-奉贤金汇-百曲雅苑",
    "scraped_at": "2026-04-23 17:36:21",
    "region": "fengxianjinhui",
    "unit_price": 22.8,
    "lat": 30.956277,
    "lng": 121.518102
  },
  {
    "title": "整租·朗诗未来街区 2室2厅 南",
    "community": "朗诗未来街区",
    "area": "86.22",
    "rooms": "2室2厅",
    "direction": "南",
    "floor": "",
    "price": "2520",
    "tags": "",
    "source": "",
    "url": "https://sh.lianjia.com/zufang/SH1935731429069553664.html",
    "rent_type": "整租",
    "location": "奉贤-奉贤金汇-朗诗未来街区",
    "scraped_at": "2026-04-23 17:36:21",
    "region": "fengxianjinhui",
    "unit_price": 29.2,
    "lat": 31.201283,
    "lng": 121.269307
  },
  {
    "title": "整租·沿港河畔家园 2室2厅 南/北",
    "community": "沿港河畔家园",
    "area": "69.98",
    "rooms": "2室2厅",
    "direction": "南/北",
    "floor": "",
    "price": "2310",
    "tags": "",
    "source": "",
    "url": "https://sh.lianjia.com/zufang/SH1992207029107687424.html",
    "rent_type": "整租",
    "location": "奉贤-奉贤金汇-沿港河畔家园",
    "scraped_at": "2026-04-23 17:36:21",
    "region": "fengxianjinhui",
    "unit_price": 33.0,
    "lat": 30.962265,
    "lng": 121.512246
  },
  {
    "title": "整租·禹洲雍锦府 3室2厅 南/北",
    "community": "禹洲雍锦府",
    "area": "87.64",
    "rooms": "3室2厅",
    "direction": "南/北",
    "floor": "",
    "price": "2940",
    "tags": "",
    "source": "",
    "url": "https://sh.lianjia.com/zufang/SH1786087230016585728.html",
    "rent_type": "整租",
    "location": "奉贤-奉贤金汇-禹洲雍锦府",
    "scraped_at": "2026-04-23 17:36:21",
    "region": "fengxianjinhui",
    "unit_price": 33.5,
    "lat": 30.97873,
    "lng": 121.509785
  },
  {
    "title": "整租·朗诗未来街区 2室2厅 南",
    "community": "朗诗未来街区",
    "area": "76.93",
    "rooms": "2室2厅",
    "direction": "南",
    "floor": "",
    "price": "2678",
    "tags": "",
    "source": "",
    "url": "https://sh.lianjia.com/zufang/SH1939000757248327680.html",
    "rent_type": "整租",
    "location": "奉贤-奉贤金汇-朗诗未来街区",
    "scraped_at": "2026-04-23 17:36:21",
    "region": "fengxianjinhui",
    "unit_price": 34.8,
    "lat": 31.201283,
    "lng": 121.269307
  },
  {
    "title": "整租·金碧汇虹苑 2室2厅 东南/北",
    "community": "金碧汇虹苑",
    "area": "100.79",
    "rooms": "2室2厅",
    "direction": "东南/北",
    "floor": "",
    "price": "2520",
    "tags": "",
    "source": "",
    "url": "https://sh.lianjia.com/zufang/SH1752961281360396288.html",
    "rent_type": "整租",
    "location": "奉贤-奉贤金汇-金碧汇虹苑",
    "scraped_at": "2026-04-23 17:36:21",
    "region": "fengxianjinhui",
    "unit_price": 25.0,
    "lat": 30.974038,
    "lng": 121.509098
  },
  {
    "title": "整租·汇港苑 1室1厅 南",
    "community": "汇港苑",
    "area": "52.00",
    "rooms": "1室1厅",
    "direction": "南",
    "floor": "",
    "price": "2100",
    "tags": "",
    "source": "",
    "url": "https://sh.lianjia.com/zufang/SH1964256134478954496.html",
    "rent_type": "整租",
    "location": "奉贤-奉贤金汇-汇港苑",
    "scraped_at": "2026-04-23 17:36:21",
    "region": "fengxianjinhui",
    "unit_price": 40.4,
    "lat": 30.959257,
    "lng": 121.512728
  },
  {
    "title": "整租·张弄富苑 3室2厅 南",
    "community": "张弄富苑",
    "area": "117.00",
    "rooms": "3室2厅",
    "direction": "南",
    "floor": "",
    "price": "3100",
    "tags": "",
    "source": "",
    "url": "https://sh.lianjia.com/zufang/SH2152249610775560192.html",
    "rent_type": "整租",
    "location": "奉贤-奉贤金汇-张弄富苑",
    "scraped_at": "2026-04-23 17:36:21",
    "region": "fengxianjinhui",
    "unit_price": 26.5,
    "lat": 30.92088,
    "lng": 121.521995
  },
  {
    "title": "整租·朗诗未来街区 2室2厅 南",
    "community": "朗诗未来街区",
    "area": "86.22",
    "rooms": "2室2厅",
    "direction": "南",
    "floor": "",
    "price": "2835",
    "tags": "",
    "source": "",
    "url": "https://sh.lianjia.com/zufang/SH1782814994031706112.html",
    "rent_type": "整租",
    "location": "奉贤-奉贤金汇-朗诗未来街区",
    "scraped_at": "2026-04-23 17:36:21",
    "region": "fengxianjinhui",
    "unit_price": 32.9,
    "lat": 31.201283,
    "lng": 121.269307
  },
  {
    "title": "整租·禹洲雍锦府 3室2厅 南",
    "community": "禹洲雍锦府",
    "area": "90.00",
    "rooms": "3室2厅",
    "direction": "南",
    "floor": "",
    "price": "2700",
    "tags": "",
    "source": "",
    "url": "https://sh.lianjia.com/zufang/SH1849009640646377472.html",
    "rent_type": "整租",
    "location": "奉贤-奉贤金汇-禹洲雍锦府",
    "scraped_at": "2026-04-23 17:36:21",
    "region": "fengxianjinhui",
    "unit_price": 30.0,
    "lat": 30.97873,
    "lng": 121.509785
  },
  {
    "title": "整租·张弄富苑 2室2厅 南",
    "community": "张弄富苑",
    "area": "91.00",
    "rooms": "2室2厅",
    "direction": "南",
    "floor": "",
    "price": "2300",
    "tags": "",
    "source": "",
    "url": "https://sh.lianjia.com/zufang/SH2131644552828682240.html",
    "rent_type": "整租",
    "location": "奉贤-奉贤金汇-张弄富苑",
    "scraped_at": "2026-04-23 17:36:21",
    "region": "fengxianjinhui",
    "unit_price": 25.3,
    "lat": 30.92088,
    "lng": 121.521995
  },
  {
    "title": "整租·龙湖春江天越 3室2厅 南",
    "community": "龙湖春江天越",
    "area": "86.54",
    "rooms": "3室2厅",
    "direction": "南",
    "floor": "",
    "price": "2835",
    "tags": "",
    "source": "",
    "url": "https://sh.lianjia.com/zufang/SH2034236234884186112.html",
    "rent_type": "整租",
    "location": "奉贤-奉贤金汇-龙湖春江天越",
    "scraped_at": "2026-04-23 17:36:21",
    "region": "fengxianjinhui",
    "unit_price": 32.8,
    "lat": 30.959382,
    "lng": 121.503022
  },
  {
    "title": "整租·东原郦湾东区 3室1厅 南",
    "community": "东原郦湾东区",
    "area": "109.81",
    "rooms": "3室1厅",
    "direction": "南",
    "floor": "",
    "price": "3045",
    "tags": "",
    "source": "",
    "url": "https://sh.lianjia.com/zufang/SH1915656736564314112.html",
    "rent_type": "整租",
    "location": "奉贤-奉贤金汇-东原郦湾东区",
    "scraped_at": "2026-04-23 17:36:21",
    "region": "fengxianjinhui",
    "unit_price": 27.7,
    "lat": 30.942848,
    "lng": 121.519036
  },
  {
    "title": "整租·逸贤雅苑 2室1厅 南/北",
    "community": "逸贤雅苑",
    "area": "74.59",
    "rooms": "2室1厅",
    "direction": "南/北",
    "floor": "",
    "price": "2100",
    "tags": "",
    "source": "",
    "url": "https://sh.lianjia.com/zufang/SH2006639682137358336.html",
    "rent_type": "整租",
    "location": "奉贤-奉贤金汇-逸贤雅苑",
    "scraped_at": "2026-04-23 17:36:21",
    "region": "fengxianjinhui",
    "unit_price": 28.2,
    "lat": 30.955023,
    "lng": 121.508195
  },
  {
    "title": "整租·禹洲雍锦府 3室2厅 南/北",
    "community": "禹洲雍锦府",
    "area": "87.96",
    "rooms": "3室2厅",
    "direction": "南/北",
    "floor": "",
    "price": "3360",
    "tags": "",
    "source": "",
    "url": "https://sh.lianjia.com/zufang/SH1961809277865689088.html",
    "rent_type": "整租",
    "location": "奉贤-奉贤金汇-禹洲雍锦府",
    "scraped_at": "2026-04-23 17:36:21",
    "region": "fengxianjinhui",
    "unit_price": 38.2,
    "lat": 30.97873,
    "lng": 121.509785
  },
  {
    "title": "整租·天和前滩时代2期 2室1厅 南",
    "community": "天和前滩时代2期",
    "area": "78.00",
    "rooms": "2室1厅",
    "direction": "南",
    "floor": "",
    "price": "2415",
    "tags": "",
    "source": "",
    "url": "https://sh.lianjia.com/zufang/SH2032817709560889344.html",
    "rent_type": "整租",
    "location": "奉贤-奉贤金汇-天和前滩时代",
    "scraped_at": "2026-04-23 17:36:21",
    "region": "fengxianjinhui",
    "unit_price": 31.0,
    "lat": 30.971708,
    "lng": 121.515777
  },
  {
    "title": "整租·贤浦名苑 2室1厅 南",
    "community": "贤浦名苑",
    "area": "72.45",
    "rooms": "2室1厅",
    "direction": "南",
    "floor": "",
    "price": "2400",
    "tags": "",
    "source": "",
    "url": "https://sh.lianjia.com/zufang/SH2131986725545705472.html",
    "rent_type": "整租",
    "location": "奉贤-奉贤金汇-贤浦名苑",
    "scraped_at": "2026-04-23 17:36:21",
    "region": "fengxianjinhui",
    "unit_price": 33.1,
    "lat": 30.913275,
    "lng": 121.51866
  },
  {
    "title": "整租·灏景湾 3室2厅 南",
    "community": "灏景湾",
    "area": "89.17",
    "rooms": "3室2厅",
    "direction": "南",
    "floor": "",
    "price": "3000",
    "tags": "",
    "source": "",
    "url": "https://sh.lianjia.com/zufang/SH2147936315314798592.html",
    "rent_type": "整租",
    "location": "奉贤-奉贤金汇-灏景湾",
    "scraped_at": "2026-04-23 17:36:21",
    "region": "fengxianjinhui",
    "unit_price": 33.6,
    "lat": 30.933873,
    "lng": 121.520953
  },
  {
    "title": "整租·天和前滩时代2期 3室2厅 南",
    "community": "天和前滩时代2期",
    "area": "82.68",
    "rooms": "3室2厅",
    "direction": "南",
    "floor": "",
    "price": "3100",
    "tags": "",
    "source": "",
    "url": "https://sh.lianjia.com/zufang/SH2156682207442239488.html",
    "rent_type": "整租",
    "location": "奉贤-奉贤金汇-天和前滩时代",
    "scraped_at": "2026-04-23 17:36:21",
    "region": "fengxianjinhui",
    "unit_price": 37.5,
    "lat": 30.971708,
    "lng": 121.515777
  },
  {
    "title": "整租·天和前滩时代2期 3室2厅 南",
    "community": "天和前滩时代2期",
    "area": "83.01",
    "rooms": "3室2厅",
    "direction": "南",
    "floor": "",
    "price": "3200",
    "tags": "",
    "source": "",
    "url": "https://sh.lianjia.com/zufang/SH2152629671412367360.html",
    "rent_type": "整租",
    "location": "奉贤-奉贤金汇-天和前滩时代",
    "scraped_at": "2026-04-23 17:36:21",
    "region": "fengxianjinhui",
    "unit_price": 38.5,
    "lat": 30.971708,
    "lng": 121.515777
  },
  {
    "title": "整租·大家美颂 2室2厅 南",
    "community": "大家美颂",
    "area": "88.00",
    "rooms": "2室2厅",
    "direction": "南",
    "floor": "",
    "price": "2600",
    "tags": "",
    "source": "",
    "url": "https://sh.lianjia.com/zufang/SH2129204982367387648.html",
    "rent_type": "整租",
    "location": "奉贤-奉城-大家美颂",
    "scraped_at": "2026-04-23 17:36:25",
    "region": "fengcheng",
    "unit_price": 29.5,
    "lat": 30.909725,
    "lng": 121.662711
  },
  {
    "title": "整租·娜欧佳苑 4室2厅 南",
    "community": "娜欧佳苑",
    "area": "268.00",
    "rooms": "4室2厅",
    "direction": "南",
    "floor": "",
    "price": "3000",
    "tags": "",
    "source": "",
    "url": "https://sh.lianjia.com/zufang/SH2146805107025510400.html",
    "rent_type": "整租",
    "location": "奉贤-奉城-娜欧佳苑",
    "scraped_at": "2026-04-23 17:36:25",
    "region": "fengcheng",
    "unit_price": 11.2,
    "lat": 30.904468,
    "lng": 121.648565
  },
  {
    "title": "整租·中海戈雅园 3室2厅 南",
    "community": "中海戈雅园",
    "area": "1.00",
    "rooms": "3室2厅",
    "direction": "南",
    "floor": "",
    "price": "3600",
    "tags": "",
    "source": "",
    "url": "https://sh.lianjia.com/zufang/SH2127703420151267328.html",
    "rent_type": "整租",
    "location": "奉贤-奉城-中海戈雅园",
    "scraped_at": "2026-04-23 17:36:25",
    "region": "fengcheng",
    "unit_price": 3600.0,
    "lat": 30.915404,
    "lng": 121.667074
  },
  {
    "title": "独栋·中海友里 上海临港自贸区店 【民水民电】【可办居住证】国企公寓70平两室拎包入住 可短租 2室0厅",
    "community": "中海友里 上海临港自贸区店 【民水民电】【可办居住证】国企公寓70平两室拎包入住 可短租",
    "area": "65.00",
    "rooms": "2室0厅",
    "direction": "",
    "floor": "",
    "price": "1850",
    "tags": "",
    "source": "",
    "url": "https://sh.lianjia.com/apartment/44621.html",
    "rent_type": "独栋",
    "location": "",
    "scraped_at": "2026-04-23 17:36:25",
    "region": "fengcheng",
    "unit_price": 28.5,
    "lat": 31.205514,
    "lng": 121.51314
  },
  {
    "title": "整租·绿地风清苑 2室1厅 南",
    "community": "绿地风清苑",
    "area": "66.94",
    "rooms": "2室1厅",
    "direction": "南",
    "floor": "",
    "price": "2400",
    "tags": "",
    "source": "",
    "url": "https://sh.lianjia.com/zufang/SH2053670853849120768.html",
    "rent_type": "整租",
    "location": "奉贤-奉城-绿地风清苑",
    "scraped_at": "2026-04-23 17:36:25",
    "region": "fengcheng",
    "unit_price": 35.9,
    "lat": 30.911687,
    "lng": 121.665721
  },
  {
    "title": "整租·中建公元名邸(别墅) 4室4厅 南",
    "community": "中建公元名邸(别墅)",
    "area": "260.00",
    "rooms": "4室4厅",
    "direction": "南",
    "floor": "",
    "price": "6000",
    "tags": "",
    "source": "",
    "url": "https://sh.lianjia.com/zufang/SH2145922712617353216.html",
    "rent_type": "整租",
    "location": "奉贤-奉城-中建公元名邸(别墅)",
    "scraped_at": "2026-04-23 17:36:25",
    "region": "fengcheng",
    "unit_price": 23.1,
    "lat": 30.906466,
    "lng": 121.655763
  },
  {
    "title": "整租·佳源梦想广场 3室1厅 南",
    "community": "佳源梦想广场",
    "area": "88.45",
    "rooms": "3室1厅",
    "direction": "南",
    "floor": "",
    "price": "2300",
    "tags": "",
    "source": "",
    "url": "https://sh.lianjia.com/zufang/SH2152769942502506496.html",
    "rent_type": "整租",
    "location": "奉贤-海湾-佳源梦想广场",
    "scraped_at": "2026-04-23 17:36:28",
    "region": "haiwan",
    "unit_price": 26.0,
    "lat": 30.848926,
    "lng": 121.51293
  },
  {
    "title": "整租·海尚墅林苑 2室1厅 南",
    "community": "海尚墅林苑",
    "area": "86.00",
    "rooms": "2室1厅",
    "direction": "南",
    "floor": "",
    "price": "1000",
    "tags": "",
    "source": "",
    "url": "https://sh.lianjia.com/zufang/SH2121939313024303104.html",
    "rent_type": "整租",
    "location": "奉贤-海湾-海尚墅林苑",
    "scraped_at": "2026-04-23 17:36:28",
    "region": "haiwan",
    "unit_price": 11.6,
    "lat": 30.838225,
    "lng": 121.509866
  },
  {
    "title": "整租·佳源梦想广场 3室2厅 南/北",
    "community": "佳源梦想广场",
    "area": "88.59",
    "rooms": "3室2厅",
    "direction": "南/北",
    "floor": "",
    "price": "2300",
    "tags": "",
    "source": "",
    "url": "https://sh.lianjia.com/zufang/SH2150513052301131776.html",
    "rent_type": "整租",
    "location": "奉贤-海湾-佳源梦想广场",
    "scraped_at": "2026-04-23 17:36:28",
    "region": "haiwan",
    "unit_price": 26.0,
    "lat": 30.848926,
    "lng": 121.51293
  },
  {
    "title": "整租·佳源梦想广场 2室2厅 南",
    "community": "佳源梦想广场",
    "area": "84.97",
    "rooms": "2室2厅",
    "direction": "南",
    "floor": "",
    "price": "2500",
    "tags": "",
    "source": "",
    "url": "https://sh.lianjia.com/zufang/SH2150582009301303296.html",
    "rent_type": "整租",
    "location": "奉贤-海湾-佳源梦想广场",
    "scraped_at": "2026-04-23 17:36:28",
    "region": "haiwan",
    "unit_price": 29.4,
    "lat": 30.848926,
    "lng": 121.51293
  },
  {
    "title": "整租·佳源梦想广场 2室1厅 南/北",
    "community": "佳源梦想广场",
    "area": "88.13",
    "rooms": "2室1厅",
    "direction": "南/北",
    "floor": "",
    "price": "2520",
    "tags": "",
    "source": "",
    "url": "https://sh.lianjia.com/zufang/SH2129474020997857280.html",
    "rent_type": "整租",
    "location": "奉贤-海湾-佳源梦想广场",
    "scraped_at": "2026-04-23 17:36:28",
    "region": "haiwan",
    "unit_price": 28.6,
    "lat": 30.848926,
    "lng": 121.51293
  },
  {
    "title": "整租·棕榈滩海景城 2室1厅 南",
    "community": "棕榈滩海景城",
    "area": "90.85",
    "rooms": "2室1厅",
    "direction": "南",
    "floor": "",
    "price": "2000",
    "tags": "",
    "source": "",
    "url": "https://sh.lianjia.com/zufang/SH2099742025577398272.html",
    "rent_type": "整租",
    "location": "奉贤-海湾-棕榈滩海景城",
    "scraped_at": "2026-04-23 17:36:28",
    "region": "haiwan",
    "unit_price": 22.0,
    "lat": 30.821305,
    "lng": 121.541589
  },
  {
    "title": "整租·棕榈滩海景城 2室1厅 南",
    "community": "棕榈滩海景城",
    "area": "81.00",
    "rooms": "2室1厅",
    "direction": "南",
    "floor": "",
    "price": "2300",
    "tags": "",
    "source": "",
    "url": "https://sh.lianjia.com/zufang/SH2102046827997036544.html",
    "rent_type": "整租",
    "location": "奉贤-海湾-棕榈滩海景城",
    "scraped_at": "2026-04-23 17:36:28",
    "region": "haiwan",
    "unit_price": 28.4,
    "lat": 30.821305,
    "lng": 121.541589
  },
  {
    "title": "整租·保利玲玥公馆 3室2厅 南",
    "community": "保利玲玥公馆",
    "area": "94.30",
    "rooms": "3室2厅",
    "direction": "南",
    "floor": "",
    "price": "2400",
    "tags": "",
    "source": "",
    "url": "https://sh.lianjia.com/zufang/SH2101185611334418432.html",
    "rent_type": "整租",
    "location": "奉贤-海湾-保利玲玥公馆",
    "scraped_at": "2026-04-23 17:36:28",
    "region": "haiwan",
    "unit_price": 25.5,
    "lat": 30.873107,
    "lng": 121.741157
  },
  {
    "title": "整租·棕榈滩海景城 2室2厅 南",
    "community": "棕榈滩海景城",
    "area": "90.56",
    "rooms": "2室2厅",
    "direction": "南",
    "floor": "",
    "price": "2100",
    "tags": "",
    "source": "",
    "url": "https://sh.lianjia.com/zufang/SH2022284444508880896.html",
    "rent_type": "整租",
    "location": "奉贤-海湾-棕榈滩海景城",
    "scraped_at": "2026-04-23 17:36:28",
    "region": "haiwan",
    "unit_price": 23.2,
    "lat": 30.821305,
    "lng": 121.541589
  },
  {
    "title": "整租·嘉业海悦苑 2室2厅 南",
    "community": "嘉业海悦苑",
    "area": "89.00",
    "rooms": "2室2厅",
    "direction": "南",
    "floor": "",
    "price": "2400",
    "tags": "",
    "source": "",
    "url": "https://sh.lianjia.com/zufang/SH2065725418345857024.html",
    "rent_type": "整租",
    "location": "奉贤-海湾-嘉业海悦苑",
    "scraped_at": "2026-04-23 17:36:28",
    "region": "haiwan",
    "unit_price": 27.0,
    "lat": 30.823521,
    "lng": 121.533339
  },
  {
    "title": "整租·棕榈滩海景城 2室2厅 南/北",
    "community": "棕榈滩海景城",
    "area": "90.35",
    "rooms": "2室2厅",
    "direction": "南/北",
    "floor": "",
    "price": "1995",
    "tags": "",
    "source": "",
    "url": "https://sh.lianjia.com/zufang/SH1943284141189496832.html",
    "rent_type": "整租",
    "location": "奉贤-海湾-棕榈滩海景城",
    "scraped_at": "2026-04-23 17:36:28",
    "region": "haiwan",
    "unit_price": 22.1,
    "lat": 30.821305,
    "lng": 121.541589
  },
  {
    "title": "整租·棕榈滩海景城 2室1厅 南",
    "community": "棕榈滩海景城",
    "area": "80.96",
    "rooms": "2室1厅",
    "direction": "南",
    "floor": "",
    "price": "2100",
    "tags": "",
    "source": "",
    "url": "https://sh.lianjia.com/zufang/SH2029086408672542720.html",
    "rent_type": "整租",
    "location": "奉贤-海湾-棕榈滩海景城",
    "scraped_at": "2026-04-23 17:36:28",
    "region": "haiwan",
    "unit_price": 25.9,
    "lat": 30.821305,
    "lng": 121.541589
  },
  {
    "title": "整租·棕榈滩海景城 2室1厅 南",
    "community": "棕榈滩海景城",
    "area": "80.96",
    "rooms": "2室1厅",
    "direction": "南",
    "floor": "",
    "price": "1890",
    "tags": "",
    "source": "",
    "url": "https://sh.lianjia.com/zufang/SH2020048985263177728.html",
    "rent_type": "整租",
    "location": "奉贤-海湾-棕榈滩海景城",
    "scraped_at": "2026-04-23 17:36:28",
    "region": "haiwan",
    "unit_price": 23.3,
    "lat": 30.821305,
    "lng": 121.541589
  },
  {
    "title": "整租·绿地香颂(奉贤)(公寓) 2室1厅 南/北",
    "community": "绿地香颂(奉贤)(公寓)",
    "area": "62.00",
    "rooms": "2室1厅",
    "direction": "南/北",
    "floor": "",
    "price": "1890",
    "tags": "",
    "source": "",
    "url": "https://sh.lianjia.com/zufang/SH1794365637103976448.html",
    "rent_type": "整租",
    "location": "奉贤-海湾-绿地香颂(奉贤)(公寓)",
    "scraped_at": "2026-04-23 17:36:28",
    "region": "haiwan",
    "unit_price": 30.5,
    "lat": 30.826688,
    "lng": 121.511008
  },
  {
    "title": "整租·佳源梦想广场 3室2厅 南",
    "community": "佳源梦想广场",
    "area": "90.77",
    "rooms": "3室2厅",
    "direction": "南",
    "floor": "",
    "price": "3150",
    "tags": "",
    "source": "",
    "url": "https://sh.lianjia.com/zufang/SH2053050783917670400.html",
    "rent_type": "整租",
    "location": "奉贤-海湾-佳源梦想广场",
    "scraped_at": "2026-04-23 17:36:28",
    "region": "haiwan",
    "unit_price": 34.7,
    "lat": 30.848926,
    "lng": 121.51293
  },
  {
    "title": "整租·海尚墅林苑 2室2厅 南",
    "community": "海尚墅林苑",
    "area": "86.56",
    "rooms": "2室2厅",
    "direction": "南",
    "floor": "",
    "price": "2700",
    "tags": "",
    "source": "",
    "url": "https://sh.lianjia.com/zufang/SH1988953152090537984.html",
    "rent_type": "整租",
    "location": "奉贤-海湾-海尚墅林苑",
    "scraped_at": "2026-04-23 17:36:28",
    "region": "haiwan",
    "unit_price": 31.2,
    "lat": 30.838225,
    "lng": 121.509866
  },
  {
    "title": "整租·阳光海岸(公寓) 1室1厅 东南",
    "community": "阳光海岸(公寓)",
    "area": "59.00",
    "rooms": "1室1厅",
    "direction": "东南",
    "floor": "",
    "price": "1785",
    "tags": "",
    "source": "",
    "url": "https://sh.lianjia.com/zufang/SH2005270249691152384.html",
    "rent_type": "整租",
    "location": "奉贤-海湾-阳光海岸(公寓)",
    "scraped_at": "2026-04-23 17:36:28",
    "region": "haiwan",
    "unit_price": 30.3,
    "lat": 30.820805,
    "lng": 121.515782
  },
  {
    "title": "整租·电建地产·泷悦蓝湾 3室2厅 南/北",
    "community": "电建地产·泷悦蓝湾",
    "area": "98.54",
    "rooms": "3室2厅",
    "direction": "南/北",
    "floor": "",
    "price": "2600",
    "tags": "",
    "source": "",
    "url": "https://sh.lianjia.com/zufang/SH2145037948708454400.html",
    "rent_type": "整租",
    "location": "奉贤-海湾-电建地产",
    "scraped_at": "2026-04-23 17:36:28",
    "region": "haiwan",
    "unit_price": 26.4,
    "lat": 30.918406,
    "lng": 121.473945
  },
  {
    "title": "整租·绿地香颂(奉贤)(公寓) 1室1厅 南",
    "community": "绿地香颂(奉贤)(公寓)",
    "area": "62.58",
    "rooms": "1室1厅",
    "direction": "南",
    "floor": "",
    "price": "2100",
    "tags": "",
    "source": "",
    "url": "https://sh.lianjia.com/zufang/SH2154448011286020096.html",
    "rent_type": "整租",
    "location": "奉贤-海湾-绿地香颂(奉贤)(公寓)",
    "scraped_at": "2026-04-23 17:36:28",
    "region": "haiwan",
    "unit_price": 33.6,
    "lat": 30.826688,
    "lng": 121.511008
  },
  {
    "title": "整租·凤鸣海尚 3室2厅 南/北",
    "community": "凤鸣海尚",
    "area": "89.44",
    "rooms": "3室2厅",
    "direction": "南/北",
    "floor": "",
    "price": "2100",
    "tags": "",
    "source": "",
    "url": "https://sh.lianjia.com/zufang/SH1932495527585251328.html",
    "rent_type": "整租",
    "location": "奉贤-海湾-凤鸣海尚",
    "scraped_at": "2026-04-23 17:36:28",
    "region": "haiwan",
    "unit_price": 23.5,
    "lat": 30.854174,
    "lng": 121.570445
  },
  {
    "title": "整租·大名城映园 4室2厅 南",
    "community": "大名城映园",
    "area": "123.79",
    "rooms": "4室2厅",
    "direction": "南",
    "floor": "",
    "price": "4300",
    "tags": "",
    "source": "",
    "url": "https://sh.lianjia.com/zufang/SH2146990083473932288.html",
    "rent_type": "整租",
    "location": "奉贤-海湾-大名城映园",
    "scraped_at": "2026-04-23 17:36:28",
    "region": "haiwan",
    "unit_price": 34.7,
    "lat": 30.872968,
    "lng": 121.747235
  },
  {
    "title": "整租·绿地香颂(奉贤)(公寓) 2室2厅 南",
    "community": "绿地香颂(奉贤)(公寓)",
    "area": "84.64",
    "rooms": "2室2厅",
    "direction": "南",
    "floor": "",
    "price": "2500",
    "tags": "",
    "source": "",
    "url": "https://sh.lianjia.com/zufang/SH1978349941608677376.html",
    "rent_type": "整租",
    "location": "奉贤-海湾-绿地香颂(奉贤)(公寓)",
    "scraped_at": "2026-04-23 17:36:28",
    "region": "haiwan",
    "unit_price": 29.5,
    "lat": 30.826688,
    "lng": 121.511008
  },
  {
    "title": "整租·绿地香颂(奉贤)(公寓) 3室2厅 南",
    "community": "绿地香颂(奉贤)(公寓)",
    "area": "82.00",
    "rooms": "3室2厅",
    "direction": "南",
    "floor": "",
    "price": "2520",
    "tags": "",
    "source": "",
    "url": "https://sh.lianjia.com/zufang/SH1930141247670845440.html",
    "rent_type": "整租",
    "location": "奉贤-海湾-绿地香颂(奉贤)(公寓)",
    "scraped_at": "2026-04-23 17:36:28",
    "region": "haiwan",
    "unit_price": 30.7,
    "lat": 30.826688,
    "lng": 121.511008
  },
  {
    "title": "整租·海尚墅林苑 3室1厅 南",
    "community": "海尚墅林苑",
    "area": "87.59",
    "rooms": "3室1厅",
    "direction": "南",
    "floor": "",
    "price": "3000",
    "tags": "",
    "source": "",
    "url": "https://sh.lianjia.com/zufang/SH2083939204856807424.html",
    "rent_type": "整租",
    "location": "奉贤-海湾-海尚墅林苑",
    "scraped_at": "2026-04-23 17:36:28",
    "region": "haiwan",
    "unit_price": 34.3,
    "lat": 30.838225,
    "lng": 121.509866
  },
  {
    "title": "整租·海尚墅林苑 2室1厅 南",
    "community": "海尚墅林苑",
    "area": "86.56",
    "rooms": "2室1厅",
    "direction": "南",
    "floor": "",
    "price": "2600",
    "tags": "",
    "source": "",
    "url": "https://sh.lianjia.com/zufang/SH2158233441731084288.html",
    "rent_type": "整租",
    "location": "奉贤-海湾-海尚墅林苑",
    "scraped_at": "2026-04-23 17:36:28",
    "region": "haiwan",
    "unit_price": 30.0,
    "lat": 30.838225,
    "lng": 121.509866
  },
  {
    "title": "整租·绿地香颂(奉贤)(公寓) 2室1厅 南/北",
    "community": "绿地香颂(奉贤)(公寓)",
    "area": "62.04",
    "rooms": "2室1厅",
    "direction": "南/北",
    "floor": "",
    "price": "1890",
    "tags": "",
    "source": "",
    "url": "https://sh.lianjia.com/zufang/SH1950544873278930944.html",
    "rent_type": "整租",
    "location": "奉贤-海湾-绿地香颂(奉贤)(公寓)",
    "scraped_at": "2026-04-23 17:36:28",
    "region": "haiwan",
    "unit_price": 30.5,
    "lat": 30.826688,
    "lng": 121.511008
  },
  {
    "title": "整租·棕榈滩海景城 3室1厅 南/北",
    "community": "棕榈滩海景城",
    "area": "90.00",
    "rooms": "3室1厅",
    "direction": "南/北",
    "floor": "",
    "price": "2300",
    "tags": "",
    "source": "",
    "url": "https://sh.lianjia.com/zufang/SH2148078438274039808.html",
    "rent_type": "整租",
    "location": "奉贤-海湾-棕榈滩海景城",
    "scraped_at": "2026-04-23 17:36:28",
    "region": "haiwan",
    "unit_price": 25.6,
    "lat": 30.821305,
    "lng": 121.541589
  },
  {
    "title": "整租·保利玲玥公馆 3室2厅 南",
    "community": "保利玲玥公馆",
    "area": "82.41",
    "rooms": "3室2厅",
    "direction": "南",
    "floor": "",
    "price": "2000",
    "tags": "",
    "source": "",
    "url": "https://sh.lianjia.com/zufang/SH2154242921195372544.html",
    "rent_type": "整租",
    "location": "奉贤-海湾-保利玲玥公馆",
    "scraped_at": "2026-04-23 17:36:28",
    "region": "haiwan",
    "unit_price": 24.3,
    "lat": 30.873107,
    "lng": 121.741157
  },
  {
    "title": "整租·绿地香溢 2室2厅 南",
    "community": "绿地香溢",
    "area": "69.81",
    "rooms": "2室2厅",
    "direction": "南",
    "floor": "",
    "price": "2100",
    "tags": "",
    "source": "",
    "url": "https://sh.lianjia.com/zufang/SH2147528379715289088.html",
    "rent_type": "整租",
    "location": "奉贤-海湾-绿地香溢",
    "scraped_at": "2026-04-23 17:36:28",
    "region": "haiwan",
    "unit_price": 30.1,
    "lat": 30.855357,
    "lng": 121.571506
  },
  {
    "title": "整租·电建地产·泷悦蓝湾 3室2厅 南/北",
    "community": "电建地产·泷悦蓝湾",
    "area": "98.09",
    "rooms": "3室2厅",
    "direction": "南/北",
    "floor": "",
    "price": "3000",
    "tags": "",
    "source": "",
    "url": "https://sh.lianjia.com/zufang/SH2149092538483474432.html",
    "rent_type": "整租",
    "location": "奉贤-海湾-电建地产",
    "scraped_at": "2026-04-23 17:36:28",
    "region": "haiwan",
    "unit_price": 30.6,
    "lat": 30.918406,
    "lng": 121.473945
  },
  {
    "title": "整租·悦达南郊华都 1室1厅 北",
    "community": "悦达南郊华都",
    "area": "38.94",
    "rooms": "1室1厅",
    "direction": "北",
    "floor": "",
    "price": "1365",
    "tags": "",
    "source": "",
    "url": "https://sh.lianjia.com/zufang/SH1964307687839629312.html",
    "rent_type": "整租",
    "location": "奉贤-南桥-悦达南郊华都",
    "scraped_at": "2026-04-23 17:38:39",
    "region": "nanqiao",
    "unit_price": 35.1,
    "lat": 30.972978,
    "lng": 121.466938
  },
  {
    "title": "整租·金水和璟园 3室2厅 南",
    "community": "金水和璟园",
    "area": "118.00",
    "rooms": "3室2厅",
    "direction": "南",
    "floor": "",
    "price": "3000",
    "tags": "",
    "source": "",
    "url": "https://sh.lianjia.com/zufang/SH2104786983585841152.html",
    "rent_type": "整租",
    "location": "奉贤-南桥-金水和璟园",
    "scraped_at": "2026-04-23 17:36:34",
    "region": "nanqiao",
    "unit_price": 25.4,
    "lat": 30.964247,
    "lng": 121.496317
  },
  {
    "title": "整租·解放新村 2室1厅 南",
    "community": "解放新村",
    "area": "57.16",
    "rooms": "2室1厅",
    "direction": "南",
    "floor": "",
    "price": "1650",
    "tags": "",
    "source": "",
    "url": "https://sh.lianjia.com/zufang/SH1910659442324537344.html",
    "rent_type": "整租",
    "location": "奉贤-南桥-解放新村",
    "scraped_at": "2026-04-23 17:38:39",
    "region": "nanqiao",
    "unit_price": 28.9,
    "lat": 30.914195,
    "lng": 121.450354
  },
  {
    "title": "独栋·冠寓 上海奉贤天街店 奉贤南桥正中心 龙湖品牌公寓直租 独厨独卫 近地铁 24h在线 管家服务更省心 1室1厅",
    "community": "冠寓 上海奉贤天街店 奉贤南桥正中心 龙湖品牌公寓直租 独厨独卫 近地铁 24h在线 管家服务更省心",
    "area": "34.00",
    "rooms": "1室1厅",
    "direction": "",
    "floor": "",
    "price": "1521",
    "tags": "",
    "source": "",
    "url": "https://sh.lianjia.com/apartment/56859.html",
    "rent_type": "独栋",
    "location": "",
    "scraped_at": "2026-04-23 17:36:40",
    "region": "nanqiao",
    "unit_price": 44.7,
    "lat": 31.358576,
    "lng": 121.362068
  },
  {
    "title": "整租·中心公馆 2室2厅 南",
    "community": "中心公馆",
    "area": "65.14",
    "rooms": "2室2厅",
    "direction": "南",
    "floor": "",
    "price": "2400",
    "tags": "",
    "source": "",
    "url": "https://sh.lianjia.com/zufang/SH1924094803910328320.html",
    "rent_type": "整租",
    "location": "奉贤-南桥-中心公馆",
    "scraped_at": "2026-04-23 17:38:39",
    "region": "nanqiao",
    "unit_price": 36.8,
    "lat": 30.91006,
    "lng": 121.458044
  },
  {
    "title": "独栋·南方青年社区 奉贤店 实拍落地窗loft独立厨卫 包电费 可免费停车 1室1厅",
    "community": "南方青年社区 奉贤店 实拍落地窗loft独立厨卫 包电费 可免费停车",
    "area": "46.00",
    "rooms": "1室1厅",
    "direction": "",
    "floor": "",
    "price": "1400",
    "tags": "",
    "source": "",
    "url": "https://sh.lianjia.com/apartment/49293.html",
    "rent_type": "独栋",
    "location": "",
    "scraped_at": "2026-04-23 17:36:40",
    "region": "nanqiao",
    "unit_price": 30.4,
    "lat": 30.903642,
    "lng": 121.511023
  },
  {
    "title": "整租·悦达南郊华都 1室1厅 南",
    "community": "悦达南郊华都",
    "area": "39.00",
    "rooms": "1室1厅",
    "direction": "南",
    "floor": "",
    "price": "1400",
    "tags": "",
    "source": "",
    "url": "https://sh.lianjia.com/zufang/SH2037169775871787008.html",
    "rent_type": "整租",
    "location": "奉贤-南桥-悦达南郊华都",
    "scraped_at": "2026-04-23 17:36:34",
    "region": "nanqiao",
    "unit_price": 35.9,
    "lat": 30.972978,
    "lng": 121.466938
  },
  {
    "title": "整租·众旺苑 2室2厅 南",
    "community": "众旺苑",
    "area": "89.83",
    "rooms": "2室2厅",
    "direction": "南",
    "floor": "",
    "price": "2400",
    "tags": "",
    "source": "",
    "url": "https://sh.lianjia.com/zufang/SH2123631500875268096.html",
    "rent_type": "整租",
    "location": "奉贤-南桥-众旺苑",
    "scraped_at": "2026-04-23 17:38:08",
    "region": "nanqiao",
    "unit_price": 26.7,
    "lat": 30.91351,
    "lng": 121.442601
  },
  {
    "title": "整租·合景万景峰 1室1厅 南",
    "community": "合景万景峰",
    "area": "42.12",
    "rooms": "1室1厅",
    "direction": "南",
    "floor": "",
    "price": "1700",
    "tags": "",
    "source": "",
    "url": "https://sh.lianjia.com/zufang/SH2141780590800666624.html",
    "rent_type": "整租",
    "location": "奉贤-南桥-合景万景峰",
    "scraped_at": "2026-04-23 17:40:02",
    "region": "nanqiao",
    "unit_price": 40.4,
    "lat": 30.935129,
    "lng": 121.493264
  },
  {
    "title": "整租·阳光春城 2室2厅 南",
    "community": "阳光春城",
    "area": "95.35",
    "rooms": "2室2厅",
    "direction": "南",
    "floor": "",
    "price": "3000",
    "tags": "",
    "source": "",
    "url": "https://sh.lianjia.com/zufang/SH2153492087364911104.html",
    "rent_type": "整租",
    "location": "奉贤-南桥-阳光春城",
    "scraped_at": "2026-04-23 17:40:02",
    "region": "nanqiao",
    "unit_price": 31.5,
    "lat": 30.902521,
    "lng": 121.447346
  },
  {
    "title": "独栋·冠寓 奉贤天街观萃店 开业早鸟优惠！步行3分钟到5号线！龙湖高品质公寓！配24H豪华健身房 1室1厅",
    "community": "冠寓 奉贤天街观萃店 开业早鸟优惠！步行3分钟到5号线！龙湖高品质公寓！配24H豪华健身房",
    "area": "38.00",
    "rooms": "1室1厅",
    "direction": "",
    "floor": "",
    "price": "2559-2632",
    "tags": "",
    "source": "",
    "url": "https://sh.lianjia.com/apartment/103892.html",
    "rent_type": "独栋",
    "location": "",
    "scraped_at": "2026-04-23 17:36:38",
    "region": "nanqiao",
    "unit_price": "",
    "lat": 31.358064,
    "lng": 121.362647
  },
  {
    "title": "整租·悦达南郊华都 1室1厅 北",
    "community": "悦达南郊华都",
    "area": "41.00",
    "rooms": "1室1厅",
    "direction": "北",
    "floor": "",
    "price": "1470",
    "tags": "",
    "source": "",
    "url": "https://sh.lianjia.com/zufang/SH2044813283797499904.html",
    "rent_type": "整租",
    "location": "奉贤-南桥-悦达南郊华都",
    "scraped_at": "2026-04-23 17:39:47",
    "region": "nanqiao",
    "unit_price": 35.9,
    "lat": 30.972978,
    "lng": 121.466938
  },
  {
    "title": "整租·江海花园 2室2厅 南",
    "community": "江海花园",
    "area": "84.99",
    "rooms": "2室2厅",
    "direction": "南",
    "floor": "",
    "price": "1943",
    "tags": "",
    "source": "",
    "url": "https://sh.lianjia.com/zufang/SH2038221285292507136.html",
    "rent_type": "整租",
    "location": "奉贤-南桥-江海花园",
    "scraped_at": "2026-04-23 17:36:38",
    "region": "nanqiao",
    "unit_price": 22.9,
    "lat": 30.902771,
    "lng": 121.463083
  },
  {
    "title": "整租·贝港北区（一区） 3室1厅 南",
    "community": "贝港北区（一区）",
    "area": "85.00",
    "rooms": "3室1厅",
    "direction": "南",
    "floor": "",
    "price": "2100",
    "tags": "",
    "source": "",
    "url": "https://sh.lianjia.com/zufang/SH2039739741913481216.html",
    "rent_type": "整租",
    "location": "奉贤-南桥-贝港北区",
    "scraped_at": "2026-04-23 17:36:38",
    "region": "nanqiao",
    "unit_price": 24.7,
    "lat": 30.915387,
    "lng": 121.443954
  },
  {
    "title": "整租·招商南桥雅苑 2室1厅 南",
    "community": "招商南桥雅苑",
    "area": "84.31",
    "rooms": "2室1厅",
    "direction": "南",
    "floor": "",
    "price": "3000",
    "tags": "",
    "source": "",
    "url": "https://sh.lianjia.com/zufang/SH2125543410818351104.html",
    "rent_type": "整租",
    "location": "奉贤-南桥-招商南桥雅苑",
    "scraped_at": "2026-04-23 17:38:08",
    "region": "nanqiao",
    "unit_price": 35.6,
    "lat": 30.903872,
    "lng": 121.451953
  },
  {
    "title": "整租·合景万景峰 2室1厅 南",
    "community": "合景万景峰",
    "area": "44.16",
    "rooms": "2室1厅",
    "direction": "南",
    "floor": "",
    "price": "2200",
    "tags": "",
    "source": "",
    "url": "https://sh.lianjia.com/zufang/SH1971588176384360448.html",
    "rent_type": "整租",
    "location": "奉贤-南桥-合景万景峰",
    "scraped_at": "2026-04-23 17:38:44",
    "region": "nanqiao",
    "unit_price": 49.8,
    "lat": 30.935129,
    "lng": 121.493264
  },
  {
    "title": "整租·绿地无双 4室2厅 南/北",
    "community": "绿地无双",
    "area": "143.65",
    "rooms": "4室2厅",
    "direction": "南/北",
    "floor": "",
    "price": "5800",
    "tags": "",
    "source": "",
    "url": "https://sh.lianjia.com/zufang/SH2129183501012959232.html",
    "rent_type": "整租",
    "location": "奉贤-南桥-绿地无双",
    "scraped_at": "2026-04-23 17:36:34",
    "region": "nanqiao",
    "unit_price": 40.4,
    "lat": 30.938212,
    "lng": 121.497502
  },
  {
    "title": "整租·金水苑 3室2厅 南/北",
    "community": "金水苑",
    "area": "133.23",
    "rooms": "3室2厅",
    "direction": "南/北",
    "floor": "",
    "price": "2940",
    "tags": "",
    "source": "",
    "url": "https://sh.lianjia.com/zufang/SH2004801842013274112.html",
    "rent_type": "整租",
    "location": "奉贤-南桥-金水苑",
    "scraped_at": "2026-04-23 17:39:56",
    "region": "nanqiao",
    "unit_price": 22.1,
    "lat": 30.955985,
    "lng": 121.497627
  },
  {
    "title": "整租·悦达南郊华都 1室1厅 北",
    "community": "悦达南郊华都",
    "area": "37.68",
    "rooms": "1室1厅",
    "direction": "北",
    "floor": "",
    "price": "1313",
    "tags": "",
    "source": "",
    "url": "https://sh.lianjia.com/zufang/SH2004567908700651520.html",
    "rent_type": "整租",
    "location": "奉贤-南桥-悦达南郊华都",
    "scraped_at": "2026-04-23 17:39:56",
    "region": "nanqiao",
    "unit_price": 34.8,
    "lat": 30.972978,
    "lng": 121.466938
  },
  {
    "title": "整租·悦达南郊华都 1室1厅 北",
    "community": "悦达南郊华都",
    "area": "39.00",
    "rooms": "1室1厅",
    "direction": "北",
    "floor": "",
    "price": "1200",
    "tags": "",
    "source": "",
    "url": "https://sh.lianjia.com/zufang/SH2116500861948526592.html",
    "rent_type": "整租",
    "location": "奉贤-南桥-悦达南郊华都",
    "scraped_at": "2026-04-23 17:38:08",
    "region": "nanqiao",
    "unit_price": 30.8,
    "lat": 30.972978,
    "lng": 121.466938
  },
  {
    "title": "整租·南郊一品 1室1厅 北",
    "community": "南郊一品",
    "area": "50.00",
    "rooms": "1室1厅",
    "direction": "北",
    "floor": "",
    "price": "2300",
    "tags": "",
    "source": "",
    "url": "https://sh.lianjia.com/zufang/SH2149390931541884928.html",
    "rent_type": "整租",
    "location": "奉贤-南桥-南郊一品",
    "scraped_at": "2026-04-23 17:36:57",
    "region": "nanqiao",
    "unit_price": 46.0,
    "lat": 30.925599,
    "lng": 121.492052
  },
  {
    "title": "整租·金昊雅苑 3室2厅 南",
    "community": "金昊雅苑",
    "area": "146.00",
    "rooms": "3室2厅",
    "direction": "南",
    "floor": "",
    "price": "3800",
    "tags": "",
    "source": "",
    "url": "https://sh.lianjia.com/zufang/SH2149744374655746048.html",
    "rent_type": "整租",
    "location": "奉贤-南桥-金昊雅苑",
    "scraped_at": "2026-04-23 17:36:57",
    "region": "nanqiao",
    "unit_price": 26.0,
    "lat": 30.918006,
    "lng": 121.503193
  },
  {
    "title": "整租·恒盛湖畔豪庭南区 2室2厅 南",
    "community": "恒盛湖畔豪庭南区",
    "area": "134.25",
    "rooms": "2室2厅",
    "direction": "南",
    "floor": "",
    "price": "3000",
    "tags": "",
    "source": "",
    "url": "https://sh.lianjia.com/zufang/SH2150486279156924416.html",
    "rent_type": "整租",
    "location": "奉贤-南桥-恒盛湖畔豪庭南区",
    "scraped_at": "2026-04-23 17:36:34",
    "region": "nanqiao",
    "unit_price": 22.3,
    "lat": 30.927913,
    "lng": 121.490309
  },
  {
    "title": "整租·运河新村(南桥) 2室2厅 南",
    "community": "运河新村(南桥)",
    "area": "98.45",
    "rooms": "2室2厅",
    "direction": "南",
    "floor": "",
    "price": "1890",
    "tags": "",
    "source": "",
    "url": "https://sh.lianjia.com/zufang/SH2022996783474409472.html",
    "rent_type": "整租",
    "location": "奉贤-南桥-运河新村(南桥)",
    "scraped_at": "2026-04-23 17:36:38",
    "region": "nanqiao",
    "unit_price": 19.2,
    "lat": 30.919062,
    "lng": 121.461921
  },
  {
    "title": "整租·金水丽苑 2室2厅 南/北",
    "community": "金水丽苑",
    "area": "117.00",
    "rooms": "2室2厅",
    "direction": "南/北",
    "floor": "",
    "price": "2500",
    "tags": "",
    "source": "",
    "url": "https://sh.lianjia.com/zufang/SH2150945586734432256.html",
    "rent_type": "整租",
    "location": "奉贤-南桥-金水丽苑",
    "scraped_at": "2026-04-23 17:36:38",
    "region": "nanqiao",
    "unit_price": 21.4,
    "lat": 30.960453,
    "lng": 121.492007
  },
  {
    "title": "整租·绿地南桥新苑 3室2厅 南",
    "community": "绿地南桥新苑",
    "area": "130.00",
    "rooms": "3室2厅",
    "direction": "南",
    "floor": "",
    "price": "3334",
    "tags": "",
    "source": "",
    "url": "https://sh.lianjia.com/zufang/SH2055271748563107840.html",
    "rent_type": "整租",
    "location": "奉贤-南桥-绿地南桥新苑",
    "scraped_at": "2026-04-23 17:39:56",
    "region": "nanqiao",
    "unit_price": 25.6,
    "lat": 30.926404,
    "lng": 121.46566
  },
  {
    "title": "整租·悦达南郊华都 1室1厅 北",
    "community": "悦达南郊华都",
    "area": "39.00",
    "rooms": "1室1厅",
    "direction": "北",
    "floor": "",
    "price": "1365",
    "tags": "",
    "source": "",
    "url": "https://sh.lianjia.com/zufang/SH2116022629944000512.html",
    "rent_type": "整租",
    "location": "奉贤-南桥-悦达南郊华都",
    "scraped_at": "2026-04-23 17:36:38",
    "region": "nanqiao",
    "unit_price": 35.0,
    "lat": 30.972978,
    "lng": 121.466938
  },
  {
    "title": "整租·江海新村 3室1厅 南",
    "community": "江海新村",
    "area": "81.00",
    "rooms": "3室1厅",
    "direction": "南",
    "floor": "",
    "price": "1890",
    "tags": "",
    "source": "",
    "url": "https://sh.lianjia.com/zufang/SH2157722759772241920.html",
    "rent_type": "整租",
    "location": "奉贤-南桥-江海新村",
    "scraped_at": "2026-04-23 17:40:13",
    "region": "nanqiao",
    "unit_price": 23.3,
    "lat": 30.905814,
    "lng": 121.455574
  },
  {
    "title": "整租·中心公馆 2室1厅 南",
    "community": "中心公馆",
    "area": "68.46",
    "rooms": "2室1厅",
    "direction": "南",
    "floor": "",
    "price": "2500",
    "tags": "",
    "source": "",
    "url": "https://sh.lianjia.com/zufang/SH2150822744156012544.html",
    "rent_type": "整租",
    "location": "奉贤-南桥-中心公馆",
    "scraped_at": "2026-04-23 17:36:38",
    "region": "nanqiao",
    "unit_price": 36.5,
    "lat": 30.91006,
    "lng": 121.458044
  },
  {
    "title": "整租·万科南桥传奇 3室2厅 南/北",
    "community": "万科南桥传奇",
    "area": "127.00",
    "rooms": "3室2厅",
    "direction": "南/北",
    "floor": "",
    "price": "5350",
    "tags": "",
    "source": "",
    "url": "https://sh.lianjia.com/zufang/SH2154622943320080384.html",
    "rent_type": "整租",
    "location": "奉贤-南桥-万科南桥传奇",
    "scraped_at": "2026-04-23 17:39:47",
    "region": "nanqiao",
    "unit_price": 42.1,
    "lat": 30.931083,
    "lng": 121.453999
  },
  {
    "title": "整租·悦达南郊华都 1室1厅 南",
    "community": "悦达南郊华都",
    "area": "39.00",
    "rooms": "1室1厅",
    "direction": "南",
    "floor": "",
    "price": "1400",
    "tags": "",
    "source": "",
    "url": "https://sh.lianjia.com/zufang/SH2063639820214730752.html",
    "rent_type": "整租",
    "location": "奉贤-南桥-悦达南郊华都",
    "scraped_at": "2026-04-23 17:39:56",
    "region": "nanqiao",
    "unit_price": 35.9,
    "lat": 30.972978,
    "lng": 121.466938
  },
  {
    "title": "整租·保利象屿公园悦府 2室2厅 南",
    "community": "保利象屿公园悦府",
    "area": "70.53",
    "rooms": "2室2厅",
    "direction": "南",
    "floor": "",
    "price": "2600",
    "tags": "",
    "source": "",
    "url": "https://sh.lianjia.com/zufang/SH2116094686505467904.html",
    "rent_type": "整租",
    "location": "奉贤-南桥-保利象屿公园悦府",
    "scraped_at": "2026-04-23 17:38:08",
    "region": "nanqiao",
    "unit_price": 36.9,
    "lat": 30.952391,
    "lng": 121.489296
  },
  {
    "title": "整租·新民旺苑(二期) 2室2厅 南",
    "community": "新民旺苑(二期)",
    "area": "89.89",
    "rooms": "2室2厅",
    "direction": "南",
    "floor": "",
    "price": "2600",
    "tags": "",
    "source": "",
    "url": "https://sh.lianjia.com/zufang/SH2128737153990000640.html",
    "rent_type": "整租",
    "location": "奉贤-南桥-新民旺苑(二期)",
    "scraped_at": "2026-04-23 17:36:38",
    "region": "nanqiao",
    "unit_price": 28.9,
    "lat": 30.920023,
    "lng": 121.438933
  },
  {
    "title": "独栋·悦家公寓 南桥店 奉贤新城地铁旁押一付一精装修拎包入住朝南带阳台一室一厅 1室1厅",
    "community": "悦家公寓 南桥店 奉贤新城地铁旁押一付一精装修拎包入住朝南带阳台一室一厅",
    "area": "45.00",
    "rooms": "1室1厅",
    "direction": "",
    "floor": "",
    "price": "2071-2261",
    "tags": "",
    "source": "",
    "url": "https://sh.lianjia.com/apartment/105628.html",
    "rent_type": "独栋",
    "location": "",
    "scraped_at": "2026-04-23 17:36:40",
    "region": "nanqiao",
    "unit_price": "",
    "lat": 30.919119,
    "lng": 121.501785
  },
  {
    "title": "整租·江海新村 2室2厅 东南",
    "community": "江海新村",
    "area": "80.50",
    "rooms": "2室2厅",
    "direction": "东南",
    "floor": "",
    "price": "1890",
    "tags": "",
    "source": "",
    "url": "https://sh.lianjia.com/zufang/SH2014671515231977472.html",
    "rent_type": "整租",
    "location": "奉贤-南桥-江海新村",
    "scraped_at": "2026-04-23 17:39:56",
    "region": "nanqiao",
    "unit_price": 23.5,
    "lat": 30.905814,
    "lng": 121.455574
  },
  {
    "title": "整租·立新南路20号 3室2厅 南",
    "community": "立新南路20号",
    "area": "85.44",
    "rooms": "3室2厅",
    "direction": "南",
    "floor": "",
    "price": "2800",
    "tags": "",
    "source": "",
    "url": "https://sh.lianjia.com/zufang/SH2149691029165441024.html",
    "rent_type": "整租",
    "location": "奉贤-南桥-立新南路",
    "scraped_at": "2026-04-23 17:36:57",
    "region": "nanqiao",
    "unit_price": 32.8,
    "lat": 30.914416,
    "lng": 121.460151
  },
  {
    "title": "整租·贝港南区（第二居民区） 1室1厅 南",
    "community": "贝港南区（第二居民区）",
    "area": "46.42",
    "rooms": "1室1厅",
    "direction": "南",
    "floor": "",
    "price": "1500",
    "tags": "",
    "source": "",
    "url": "https://sh.lianjia.com/zufang/SH2044979614123556864.html",
    "rent_type": "整租",
    "location": "奉贤-南桥-贝港南区",
    "scraped_at": "2026-04-23 17:36:38",
    "region": "nanqiao",
    "unit_price": 32.3,
    "lat": 30.913223,
    "lng": 121.448293
  },
  {
    "title": "整租·景怡佳苑 3室2厅 南/北",
    "community": "景怡佳苑",
    "area": "111.33",
    "rooms": "3室2厅",
    "direction": "南/北",
    "floor": "",
    "price": "2800",
    "tags": "",
    "source": "",
    "url": "https://sh.lianjia.com/zufang/SH2103721720853561344.html",
    "rent_type": "整租",
    "location": "奉贤-南桥-景怡佳苑",
    "scraped_at": "2026-04-23 17:36:38",
    "region": "nanqiao",
    "unit_price": 25.2,
    "lat": 30.941868,
    "lng": 121.462116
  },
  {
    "title": "整租·悦丰新苑 3室2厅 南",
    "community": "悦丰新苑",
    "area": "113.38",
    "rooms": "3室2厅",
    "direction": "南",
    "floor": "",
    "price": "2600",
    "tags": "",
    "source": "",
    "url": "https://sh.lianjia.com/zufang/SH2124022428630777856.html",
    "rent_type": "整租",
    "location": "奉贤-南桥-悦丰新苑",
    "scraped_at": "2026-04-23 17:38:08",
    "region": "nanqiao",
    "unit_price": 22.9,
    "lat": 30.925316,
    "lng": 121.449465
  },
  {
    "title": "整租·悦达南郊华都 1室0厅 南",
    "community": "悦达南郊华都",
    "area": "37.68",
    "rooms": "1室0厅",
    "direction": "南",
    "floor": "",
    "price": "1365",
    "tags": "",
    "source": "",
    "url": "https://sh.lianjia.com/zufang/SH1959535685778014208.html",
    "rent_type": "整租",
    "location": "奉贤-南桥-悦达南郊华都",
    "scraped_at": "2026-04-23 17:38:39",
    "region": "nanqiao",
    "unit_price": 36.2,
    "lat": 30.972978,
    "lng": 121.466938
  },
  {
    "title": "整租·浦南园 2室2厅 南",
    "community": "浦南园",
    "area": "100.00",
    "rooms": "2室2厅",
    "direction": "南",
    "floor": "",
    "price": "2600",
    "tags": "",
    "source": "",
    "url": "https://sh.lianjia.com/zufang/SH2156964673474265088.html",
    "rent_type": "整租",
    "location": "奉贤-南桥-浦南园",
    "scraped_at": "2026-04-23 17:36:40",
    "region": "nanqiao",
    "unit_price": 26.0,
    "lat": 30.904788,
    "lng": 121.473262
  },
  {
    "title": "整租·合景万景峰 2室2厅 南",
    "community": "合景万景峰",
    "area": "45.99",
    "rooms": "2室2厅",
    "direction": "南",
    "floor": "",
    "price": "2226",
    "tags": "",
    "source": "",
    "url": "https://sh.lianjia.com/zufang/SH2148262485973532672.html",
    "rent_type": "整租",
    "location": "奉贤-南桥-合景万景峰",
    "scraped_at": "2026-04-23 17:40:13",
    "region": "nanqiao",
    "unit_price": 48.4,
    "lat": 30.935129,
    "lng": 121.493264
  },
  {
    "title": "整租·卓越世纪中心(奉贤) 2室1厅 南",
    "community": "卓越世纪中心(奉贤)",
    "area": "43.00",
    "rooms": "2室1厅",
    "direction": "南",
    "floor": "",
    "price": "2100",
    "tags": "",
    "source": "",
    "url": "https://sh.lianjia.com/zufang/SH1946424885454569472.html",
    "rent_type": "整租",
    "location": "奉贤-南桥-卓越世纪中心(奉贤)",
    "scraped_at": "2026-04-23 17:38:39",
    "region": "nanqiao",
    "unit_price": 48.8,
    "lat": 30.91301,
    "lng": 121.490163
  },
  {
    "title": "整租·卓越世纪中心(奉贤) 2室2厅 南",
    "community": "卓越世纪中心(奉贤)",
    "area": "47.54",
    "rooms": "2室2厅",
    "direction": "南",
    "floor": "",
    "price": "2100",
    "tags": "",
    "source": "",
    "url": "https://sh.lianjia.com/zufang/SH1958159784871985152.html",
    "rent_type": "整租",
    "location": "奉贤-南桥-卓越世纪中心(奉贤)",
    "scraped_at": "2026-04-23 17:38:39",
    "region": "nanqiao",
    "unit_price": 44.2,
    "lat": 30.91301,
    "lng": 121.490163
  },
  {
    "title": "整租·金水和璟园 3室2厅 南/北",
    "community": "金水和璟园",
    "area": "103.00",
    "rooms": "3室2厅",
    "direction": "南/北",
    "floor": "",
    "price": "2700",
    "tags": "",
    "source": "",
    "url": "https://sh.lianjia.com/zufang/SH2155582175410388992.html",
    "rent_type": "整租",
    "location": "奉贤-南桥-金水和璟园",
    "scraped_at": "2026-04-23 17:36:40",
    "region": "nanqiao",
    "unit_price": 26.2,
    "lat": 30.964247,
    "lng": 121.496317
  },
  {
    "title": "整租·宝龙城市广场(奉贤) 1室1厅 南",
    "community": "宝龙城市广场(奉贤)",
    "area": "43.00",
    "rooms": "1室1厅",
    "direction": "南",
    "floor": "",
    "price": "2100",
    "tags": "",
    "source": "",
    "url": "https://sh.lianjia.com/zufang/SH2031335847474757632.html",
    "rent_type": "整租",
    "location": "奉贤-南桥-宝龙城市广场(奉贤)",
    "scraped_at": "2026-04-23 17:36:40",
    "region": "nanqiao",
    "unit_price": 48.8,
    "lat": 30.929094,
    "lng": 121.463175
  },
  {
    "title": "整租·人民北路77号 1室1厅 南/北",
    "community": "人民北路77号",
    "area": "36.90",
    "rooms": "1室1厅",
    "direction": "南/北",
    "floor": "",
    "price": "1200",
    "tags": "",
    "source": "",
    "url": "https://sh.lianjia.com/zufang/SH1969602905031835648.html",
    "rent_type": "整租",
    "location": "奉贤-南桥-人民北路",
    "scraped_at": "2026-04-23 17:38:44",
    "region": "nanqiao",
    "unit_price": 32.5,
    "lat": 30.924416,
    "lng": 121.468867
  },
  {
    "title": "整租·南方国际广场 1室1厅 南",
    "community": "南方国际广场",
    "area": "68.00",
    "rooms": "1室1厅",
    "direction": "南",
    "floor": "",
    "price": "2200",
    "tags": "",
    "source": "",
    "url": "https://sh.lianjia.com/zufang/SH2158477859713187840.html",
    "rent_type": "整租",
    "location": "奉贤-南桥-南方国际广场",
    "scraped_at": "2026-04-23 17:38:39",
    "region": "nanqiao",
    "unit_price": 32.4,
    "lat": 30.915808,
    "lng": 121.486326
  },
  {
    "title": "整租·合景万景峰 1室1厅 南",
    "community": "合景万景峰",
    "area": "45.00",
    "rooms": "1室1厅",
    "direction": "南",
    "floor": "",
    "price": "1890",
    "tags": "",
    "source": "",
    "url": "https://sh.lianjia.com/zufang/SH2022625991645462528.html",
    "rent_type": "整租",
    "location": "奉贤-南桥-合景万景峰",
    "scraped_at": "2026-04-23 17:36:40",
    "region": "nanqiao",
    "unit_price": 42.0,
    "lat": 30.935129,
    "lng": 121.493264
  },
  {
    "title": "独栋·寓贤公寓 万景峰 租金折扣，免租期半个月，拎包入住，随时看房 1室1厅",
    "community": "寓贤公寓 万景峰 租金折扣，免租期半个月，拎包入住，随时看房",
    "area": "45.00",
    "rooms": "1室1厅",
    "direction": "",
    "floor": "",
    "price": "1600",
    "tags": "",
    "source": "",
    "url": "https://sh.lianjia.com/apartment/98592.html",
    "rent_type": "独栋",
    "location": "",
    "scraped_at": "2026-04-23 17:36:40",
    "region": "nanqiao",
    "unit_price": 35.6,
    "lat": 30.890353,
    "lng": 121.925123
  },
  {
    "title": "整租·绿地南桥新苑 2室2厅 南",
    "community": "绿地南桥新苑",
    "area": "89.00",
    "rooms": "2室2厅",
    "direction": "南",
    "floor": "",
    "price": "3150",
    "tags": "",
    "source": "",
    "url": "https://sh.lianjia.com/zufang/SH2022935187037356032.html",
    "rent_type": "整租",
    "location": "奉贤-南桥-绿地南桥新苑",
    "scraped_at": "2026-04-23 17:36:40",
    "region": "nanqiao",
    "unit_price": 35.4,
    "lat": 30.926404,
    "lng": 121.46566
  },
  {
    "title": "整租·金海苑北区 3室2厅 南",
    "community": "金海苑北区",
    "area": "125.00",
    "rooms": "3室2厅",
    "direction": "南",
    "floor": "",
    "price": "3000",
    "tags": "",
    "source": "",
    "url": "https://sh.lianjia.com/zufang/SH2156350892251545600.html",
    "rent_type": "整租",
    "location": "奉贤-南桥-金海苑北区",
    "scraped_at": "2026-04-23 17:38:19",
    "region": "nanqiao",
    "unit_price": 24.0,
    "lat": 30.91856,
    "lng": 121.498876
  },
  {
    "title": "整租·贝港南区（八区） 1室1厅 南",
    "community": "贝港南区（八区）",
    "area": "37.07",
    "rooms": "1室1厅",
    "direction": "南",
    "floor": "",
    "price": "1575",
    "tags": "",
    "source": "",
    "url": "https://sh.lianjia.com/zufang/SH1936750140861710336.html",
    "rent_type": "整租",
    "location": "奉贤-南桥-贝港南区",
    "scraped_at": "2026-04-23 17:38:39",
    "region": "nanqiao",
    "unit_price": 42.5,
    "lat": 30.913223,
    "lng": 121.448293
  },
  {
    "title": "整租·正阳世纪星城莱茵之恋 3室2厅 南",
    "community": "正阳世纪星城莱茵之恋",
    "area": "116.51",
    "rooms": "3室2厅",
    "direction": "南",
    "floor": "",
    "price": "3300",
    "tags": "",
    "source": "",
    "url": "https://sh.lianjia.com/zufang/SH2157422938465239040.html",
    "rent_type": "整租",
    "location": "奉贤-南桥-正阳世纪星城莱茵之恋",
    "scraped_at": "2026-04-23 17:36:40",
    "region": "nanqiao",
    "unit_price": 28.3,
    "lat": 30.90934,
    "lng": 121.474215
  },
  {
    "title": "整租·中心公馆 2室1厅 东",
    "community": "中心公馆",
    "area": "47.00",
    "rooms": "2室1厅",
    "direction": "东",
    "floor": "",
    "price": "2333",
    "tags": "",
    "source": "",
    "url": "https://sh.lianjia.com/zufang/SH2030211388395225088.html",
    "rent_type": "整租",
    "location": "奉贤-南桥-中心公馆",
    "scraped_at": "2026-04-23 17:36:40",
    "region": "nanqiao",
    "unit_price": 49.6,
    "lat": 30.91006,
    "lng": 121.458044
  },
  {
    "title": "整租·解放新村 1室1厅 南",
    "community": "解放新村",
    "area": "45.00",
    "rooms": "1室1厅",
    "direction": "南",
    "floor": "",
    "price": "1575",
    "tags": "",
    "source": "",
    "url": "https://sh.lianjia.com/zufang/SH2031368330018816000.html",
    "rent_type": "整租",
    "location": "奉贤-南桥-解放新村",
    "scraped_at": "2026-04-23 17:36:40",
    "region": "nanqiao",
    "unit_price": 35.0,
    "lat": 30.914195,
    "lng": 121.450354
  },
  {
    "title": "整租·五星花园别墅(奉贤) 6室3厅 复式 南",
    "community": "五星花园别墅(奉贤)",
    "area": "348.83",
    "rooms": "6室3厅",
    "direction": "",
    "floor": "",
    "price": "9500",
    "tags": "",
    "source": "",
    "url": "https://sh.lianjia.com/zufang/SH2152721463491166208.html",
    "rent_type": "整租",
    "location": "奉贤-南桥-五星花园别墅(奉贤)",
    "scraped_at": "2026-04-23 17:36:40",
    "region": "nanqiao",
    "unit_price": 27.2,
    "lat": 30.896397,
    "lng": 121.433539
  },
  {
    "title": "整租·苏宁荣悦 2室1厅 南",
    "community": "苏宁荣悦",
    "area": "93.00",
    "rooms": "2室1厅",
    "direction": "南",
    "floor": "",
    "price": "3800",
    "tags": "",
    "source": "",
    "url": "https://sh.lianjia.com/zufang/SH2153699444523008000.html",
    "rent_type": "整租",
    "location": "奉贤-南桥-苏宁荣悦",
    "scraped_at": "2026-04-23 17:37:00",
    "region": "nanqiao",
    "unit_price": 40.9,
    "lat": 30.920265,
    "lng": 121.488217
  },
  {
    "title": "整租·中心公馆 2室2厅 东",
    "community": "中心公馆",
    "area": "47.10",
    "rooms": "2室2厅",
    "direction": "东",
    "floor": "",
    "price": "2200",
    "tags": "",
    "source": "",
    "url": "https://sh.lianjia.com/zufang/SH2154209400967921664.html",
    "rent_type": "整租",
    "location": "奉贤-南桥-中心公馆",
    "scraped_at": "2026-04-23 17:36:40",
    "region": "nanqiao",
    "unit_price": 46.7,
    "lat": 30.91006,
    "lng": 121.458044
  },
  {
    "title": "整租·江海新村 2室2厅 南",
    "community": "江海新村",
    "area": "80.83",
    "rooms": "2室2厅",
    "direction": "南",
    "floor": "",
    "price": "1700",
    "tags": "",
    "source": "",
    "url": "https://sh.lianjia.com/zufang/SH1976505058811969536.html",
    "rent_type": "整租",
    "location": "奉贤-南桥-江海新村",
    "scraped_at": "2026-04-23 17:36:44",
    "region": "nanqiao",
    "unit_price": 21.0,
    "lat": 30.905814,
    "lng": 121.455574
  },
  {
    "title": "整租·悦达南郊华都 1室1厅 东",
    "community": "悦达南郊华都",
    "area": "55.00",
    "rooms": "1室1厅",
    "direction": "东",
    "floor": "",
    "price": "1500",
    "tags": "",
    "source": "",
    "url": "https://sh.lianjia.com/zufang/SH2095866737860804608.html",
    "rent_type": "整租",
    "location": "奉贤-南桥-悦达南郊华都",
    "scraped_at": "2026-04-23 17:38:50",
    "region": "nanqiao",
    "unit_price": 27.3,
    "lat": 30.972978,
    "lng": 121.466938
  },
  {
    "title": "整租·阳光园(四期) 3室2厅 南",
    "community": "阳光园(四期)",
    "area": "130.00",
    "rooms": "3室2厅",
    "direction": "南",
    "floor": "",
    "price": "2900",
    "tags": "",
    "source": "",
    "url": "https://sh.lianjia.com/zufang/SH2143382734507081728.html",
    "rent_type": "整租",
    "location": "奉贤-南桥-阳光园(四期)",
    "scraped_at": "2026-04-23 17:36:53",
    "region": "nanqiao",
    "unit_price": 22.3,
    "lat": 30.903388,
    "lng": 121.444277
  },
  {
    "title": "整租·贝港南区（八区） 2室1厅 南",
    "community": "贝港南区（八区）",
    "area": "82.00",
    "rooms": "2室1厅",
    "direction": "南",
    "floor": "",
    "price": "2100",
    "tags": "",
    "source": "",
    "url": "https://sh.lianjia.com/zufang/SH2098009056156319744.html",
    "rent_type": "整租",
    "location": "奉贤-南桥-贝港南区",
    "scraped_at": "2026-04-23 17:38:50",
    "region": "nanqiao",
    "unit_price": 25.6,
    "lat": 30.913223,
    "lng": 121.448293
  },
  {
    "title": "整租·解放西路后门26号 2室1厅 南",
    "community": "解放西路后门26号",
    "area": "60.18",
    "rooms": "2室1厅",
    "direction": "南",
    "floor": "",
    "price": "2000",
    "tags": "",
    "source": "",
    "url": "https://sh.lianjia.com/zufang/SH2080154492937961472.html",
    "rent_type": "整租",
    "location": "奉贤-南桥-解放西路后门",
    "scraped_at": "2026-04-23 17:36:44",
    "region": "nanqiao",
    "unit_price": 33.2,
    "lat": 30.924416,
    "lng": 121.468867
  },
  {
    "title": "整租·江海花园 2室2厅 南",
    "community": "江海花园",
    "area": "89.96",
    "rooms": "2室2厅",
    "direction": "南",
    "floor": "",
    "price": "2000",
    "tags": "",
    "source": "",
    "url": "https://sh.lianjia.com/zufang/SH2149445067369086976.html",
    "rent_type": "整租",
    "location": "奉贤-南桥-江海花园",
    "scraped_at": "2026-04-23 17:36:57",
    "region": "nanqiao",
    "unit_price": 22.2,
    "lat": 30.902771,
    "lng": 121.463083
  },
  {
    "title": "整租·金海苑南区 3室2厅 南",
    "community": "金海苑南区",
    "area": "121.00",
    "rooms": "3室2厅",
    "direction": "南",
    "floor": "",
    "price": "2800",
    "tags": "",
    "source": "",
    "url": "https://sh.lianjia.com/zufang/SH2034262546994692096.html",
    "rent_type": "整租",
    "location": "奉贤-南桥-金海苑南区",
    "scraped_at": "2026-04-23 17:38:08",
    "region": "nanqiao",
    "unit_price": 23.1,
    "lat": 30.91704,
    "lng": 121.499953
  },
  {
    "title": "整租·汤臣臻园 2室2厅 南",
    "community": "汤臣臻园",
    "area": "86.49",
    "rooms": "2室2厅",
    "direction": "南",
    "floor": "",
    "price": "3900",
    "tags": "",
    "source": "",
    "url": "https://sh.lianjia.com/zufang/SH2144651700596637696.html",
    "rent_type": "整租",
    "location": "奉贤-南桥-汤臣臻园",
    "scraped_at": "2026-04-23 17:36:53",
    "region": "nanqiao",
    "unit_price": 45.1,
    "lat": 30.92853,
    "lng": 121.480235
  },
  {
    "title": "整租·体育场路28号 2室1厅 南",
    "community": "体育场路28号",
    "area": "62.84",
    "rooms": "2室1厅",
    "direction": "南",
    "floor": "",
    "price": "1700",
    "tags": "",
    "source": "",
    "url": "https://sh.lianjia.com/zufang/SH2149810618658455552.html",
    "rent_type": "整租",
    "location": "奉贤-南桥-体育场路",
    "scraped_at": "2026-04-23 17:36:44",
    "region": "nanqiao",
    "unit_price": 27.1,
    "lat": 30.924416,
    "lng": 121.468867
  },
  {
    "title": "整租·光明九胤 3室2厅 南",
    "community": "光明九胤",
    "area": "92.00",
    "rooms": "3室2厅",
    "direction": "南",
    "floor": "",
    "price": "4000",
    "tags": "",
    "source": "",
    "url": "https://sh.lianjia.com/zufang/SH2151178080255737856.html",
    "rent_type": "整租",
    "location": "奉贤-南桥-光明九胤",
    "scraped_at": "2026-04-23 17:36:44",
    "region": "nanqiao",
    "unit_price": 43.5,
    "lat": 30.957308,
    "lng": 121.487858
  },
  {
    "title": "整租·古华新村南南区 3室1厅 南",
    "community": "古华新村南南区",
    "area": "79.00",
    "rooms": "3室1厅",
    "direction": "南",
    "floor": "",
    "price": "2200",
    "tags": "",
    "source": "",
    "url": "https://sh.lianjia.com/zufang/SH1939896945585684480.html",
    "rent_type": "整租",
    "location": "奉贤-南桥-古华新村南南区",
    "scraped_at": "2026-04-23 17:36:44",
    "region": "nanqiao",
    "unit_price": 27.8,
    "lat": 30.915843,
    "lng": 121.466698
  },
  {
    "title": "整租·南郊御墅 1室1厅 南",
    "community": "南郊御墅",
    "area": "56.20",
    "rooms": "1室1厅",
    "direction": "南",
    "floor": "",
    "price": "2300",
    "tags": "",
    "source": "",
    "url": "https://sh.lianjia.com/zufang/SH2151546645811036160.html",
    "rent_type": "整租",
    "location": "奉贤-南桥-南郊御墅",
    "scraped_at": "2026-04-23 17:36:44",
    "region": "nanqiao",
    "unit_price": 40.9,
    "lat": 30.926351,
    "lng": 121.479733
  },
  {
    "title": "整租·南郊御墅 2室1厅 南",
    "community": "南郊御墅",
    "area": "97.00",
    "rooms": "2室1厅",
    "direction": "南",
    "floor": "",
    "price": "3600",
    "tags": "",
    "source": "",
    "url": "https://sh.lianjia.com/zufang/SH2143016726818717696.html",
    "rent_type": "整租",
    "location": "奉贤-南桥-南郊御墅",
    "scraped_at": "2026-04-23 17:36:44",
    "region": "nanqiao",
    "unit_price": 37.1,
    "lat": 30.926351,
    "lng": 121.479733
  },
  {
    "title": "整租·育秀五区 3室2厅 南",
    "community": "育秀五区",
    "area": "129.05",
    "rooms": "3室2厅",
    "direction": "南",
    "floor": "",
    "price": "2800",
    "tags": "",
    "source": "",
    "url": "https://sh.lianjia.com/zufang/SH2141100962314452992.html",
    "rent_type": "整租",
    "location": "奉贤-南桥-育秀五区",
    "scraped_at": "2026-04-23 17:36:44",
    "region": "nanqiao",
    "unit_price": 21.7,
    "lat": 30.906598,
    "lng": 121.460369
  },
  {
    "title": "整租·悦达南郊华都 2室1厅 南",
    "community": "悦达南郊华都",
    "area": "57.50",
    "rooms": "2室1厅",
    "direction": "南",
    "floor": "",
    "price": "1700",
    "tags": "",
    "source": "",
    "url": "https://sh.lianjia.com/zufang/SH2149387914792927232.html",
    "rent_type": "整租",
    "location": "奉贤-南桥-悦达南郊华都",
    "scraped_at": "2026-04-23 17:36:57",
    "region": "nanqiao",
    "unit_price": 29.6,
    "lat": 30.972978,
    "lng": 121.466938
  },
  {
    "title": "整租·新民旺苑(二期) 3室2厅 南",
    "community": "新民旺苑(二期)",
    "area": "120.52",
    "rooms": "3室2厅",
    "direction": "南",
    "floor": "",
    "price": "2800",
    "tags": "",
    "source": "",
    "url": "https://sh.lianjia.com/zufang/SH2136690306463039488.html",
    "rent_type": "整租",
    "location": "奉贤-南桥-新民旺苑(二期)",
    "scraped_at": "2026-04-23 17:36:53",
    "region": "nanqiao",
    "unit_price": 23.2,
    "lat": 30.920023,
    "lng": 121.438933
  },
  {
    "title": "整租·恒龙尚品嘉苑 3室2厅 南",
    "community": "恒龙尚品嘉苑",
    "area": "90.10",
    "rooms": "3室2厅",
    "direction": "南",
    "floor": "",
    "price": "3300",
    "tags": "",
    "source": "",
    "url": "https://sh.lianjia.com/zufang/SH2144647754649960448.html",
    "rent_type": "整租",
    "location": "奉贤-南桥-恒龙尚品嘉苑",
    "scraped_at": "2026-04-23 17:36:57",
    "region": "nanqiao",
    "unit_price": 36.6,
    "lat": 30.935715,
    "lng": 121.455072
  },
  {
    "title": "整租·南郊一品 1室1厅 北",
    "community": "南郊一品",
    "area": "50.00",
    "rooms": "1室1厅",
    "direction": "北",
    "floor": "",
    "price": "2800",
    "tags": "",
    "source": "",
    "url": "https://sh.lianjia.com/zufang/SH2146847664069672960.html",
    "rent_type": "整租",
    "location": "奉贤-南桥-南郊一品",
    "scraped_at": "2026-04-23 17:36:44",
    "region": "nanqiao",
    "unit_price": 56.0,
    "lat": 30.925599,
    "lng": 121.492052
  },
  {
    "title": "整租·浦泾苑 1室1厅 南",
    "community": "浦泾苑",
    "area": "58.29",
    "rooms": "1室1厅",
    "direction": "南",
    "floor": "",
    "price": "1800",
    "tags": "",
    "source": "",
    "url": "https://sh.lianjia.com/zufang/SH2148761719676076032.html",
    "rent_type": "整租",
    "location": "奉贤-南桥-浦泾苑",
    "scraped_at": "2026-04-23 17:36:44",
    "region": "nanqiao",
    "unit_price": 30.9,
    "lat": 30.923439,
    "lng": 121.50399
  },
  {
    "title": "整租·恒盛湖畔豪庭南区 2室2厅 南",
    "community": "恒盛湖畔豪庭南区",
    "area": "89.00",
    "rooms": "2室2厅",
    "direction": "南",
    "floor": "",
    "price": "3800",
    "tags": "",
    "source": "",
    "url": "https://sh.lianjia.com/zufang/SH2148738081392427008.html",
    "rent_type": "整租",
    "location": "奉贤-南桥-恒盛湖畔豪庭南区",
    "scraped_at": "2026-04-23 17:36:44",
    "region": "nanqiao",
    "unit_price": 42.7,
    "lat": 30.927913,
    "lng": 121.490309
  },
  {
    "title": "整租·江海花园 3室2厅 南/西南",
    "community": "江海花园",
    "area": "94.00",
    "rooms": "3室2厅",
    "direction": "南/西南",
    "floor": "",
    "price": "2300",
    "tags": "",
    "source": "",
    "url": "https://sh.lianjia.com/zufang/SH2149822884812423168.html",
    "rent_type": "整租",
    "location": "奉贤-南桥-江海花园",
    "scraped_at": "2026-04-23 17:36:44",
    "region": "nanqiao",
    "unit_price": 24.5,
    "lat": 30.902771,
    "lng": 121.463083
  },
  {
    "title": "整租·卓越世纪中心(奉贤) 3室2厅 南",
    "community": "卓越世纪中心(奉贤)",
    "area": "65.00",
    "rooms": "3室2厅",
    "direction": "南",
    "floor": "",
    "price": "2600",
    "tags": "",
    "source": "",
    "url": "https://sh.lianjia.com/zufang/SH2146173354212589568.html",
    "rent_type": "整租",
    "location": "奉贤-南桥-卓越世纪中心(奉贤)",
    "scraped_at": "2026-04-23 17:38:23",
    "region": "nanqiao",
    "unit_price": 40.0,
    "lat": 30.91301,
    "lng": 121.490163
  },
  {
    "title": "整租·保利象屿公园悦府 3室2厅 南",
    "community": "保利象屿公园悦府",
    "area": "81.84",
    "rooms": "3室2厅",
    "direction": "南",
    "floor": "",
    "price": "3500",
    "tags": "",
    "source": "",
    "url": "https://sh.lianjia.com/zufang/SH2149856541086318592.html",
    "rent_type": "整租",
    "location": "奉贤-南桥-保利象屿公园悦府",
    "scraped_at": "2026-04-23 17:36:46",
    "region": "nanqiao",
    "unit_price": 42.8,
    "lat": 30.952391,
    "lng": 121.489296
  },
  {
    "title": "整租·人民北路81号 3室1厅 南",
    "community": "人民北路81号",
    "area": "79.50",
    "rooms": "3室1厅",
    "direction": "南",
    "floor": "",
    "price": "1900",
    "tags": "",
    "source": "",
    "url": "https://sh.lianjia.com/zufang/SH2137758487747231744.html",
    "rent_type": "整租",
    "location": "奉贤-南桥-人民北路",
    "scraped_at": "2026-04-23 17:38:19",
    "region": "nanqiao",
    "unit_price": 23.9,
    "lat": 30.924416,
    "lng": 121.468867
  },
  {
    "title": "整租·南郊御墅 2室1厅 南",
    "community": "南郊御墅",
    "area": "64.44",
    "rooms": "2室1厅",
    "direction": "南",
    "floor": "",
    "price": "2700",
    "tags": "",
    "source": "",
    "url": "https://sh.lianjia.com/zufang/SH2137548436600258560.html",
    "rent_type": "整租",
    "location": "奉贤-南桥-南郊御墅",
    "scraped_at": "2026-04-23 17:38:19",
    "region": "nanqiao",
    "unit_price": 41.9,
    "lat": 30.926351,
    "lng": 121.479733
  },
  {
    "title": "整租·酩悦都会 4室2厅 复式 南",
    "community": "酩悦都会",
    "area": "138.00",
    "rooms": "4室2厅",
    "direction": "",
    "floor": "",
    "price": "3000",
    "tags": "",
    "source": "",
    "url": "https://sh.lianjia.com/zufang/SH2087518630131531776.html",
    "rent_type": "整租",
    "location": "奉贤-南桥-酩悦都会",
    "scraped_at": "2026-04-23 17:36:57",
    "region": "nanqiao",
    "unit_price": 21.7,
    "lat": 30.899035,
    "lng": 121.508688
  },
  {
    "title": "整租·新建西路299号 3室2厅 南/北",
    "community": "新建西路299号",
    "area": "105.22",
    "rooms": "3室2厅",
    "direction": "南/北",
    "floor": "",
    "price": "2100",
    "tags": "",
    "source": "",
    "url": "https://sh.lianjia.com/zufang/SH2102747970666496000.html",
    "rent_type": "整租",
    "location": "奉贤-南桥-新建西路",
    "scraped_at": "2026-04-23 17:36:46",
    "region": "nanqiao",
    "unit_price": 20.0,
    "lat": 30.916638,
    "lng": 121.453693
  },
  {
    "title": "整租·解放新村 2室1厅 南",
    "community": "解放新村",
    "area": "60.84",
    "rooms": "2室1厅",
    "direction": "南",
    "floor": "",
    "price": "1900",
    "tags": "",
    "source": "",
    "url": "https://sh.lianjia.com/zufang/SH2140475410176016384.html",
    "rent_type": "整租",
    "location": "奉贤-南桥-解放新村",
    "scraped_at": "2026-04-23 17:36:53",
    "region": "nanqiao",
    "unit_price": 31.2,
    "lat": 30.914195,
    "lng": 121.450354
  },
  {
    "title": "整租·万科南桥传奇 3室2厅 南/北",
    "community": "万科南桥传奇",
    "area": "91.00",
    "rooms": "3室2厅",
    "direction": "南/北",
    "floor": "",
    "price": "3900",
    "tags": "",
    "source": "",
    "url": "https://sh.lianjia.com/zufang/SH2141538188441681920.html",
    "rent_type": "整租",
    "location": "奉贤-南桥-万科南桥传奇",
    "scraped_at": "2026-04-23 17:36:44",
    "region": "nanqiao",
    "unit_price": 42.9,
    "lat": 30.931083,
    "lng": 121.453999
  },
  {
    "title": "整租·育秀五区 3室1厅 南",
    "community": "育秀五区",
    "area": "90.27",
    "rooms": "3室1厅",
    "direction": "南",
    "floor": "",
    "price": "2100",
    "tags": "",
    "source": "",
    "url": "https://sh.lianjia.com/zufang/SH2151227907731619840.html",
    "rent_type": "整租",
    "location": "奉贤-南桥-育秀五区",
    "scraped_at": "2026-04-23 17:36:46",
    "region": "nanqiao",
    "unit_price": 23.3,
    "lat": 30.906598,
    "lng": 121.460369
  },
  {
    "title": "整租·育秀四区 2室2厅 南",
    "community": "育秀四区",
    "area": "90.00",
    "rooms": "2室2厅",
    "direction": "南",
    "floor": "",
    "price": "2200",
    "tags": "",
    "source": "",
    "url": "https://sh.lianjia.com/zufang/SH2148319304242692096.html",
    "rent_type": "整租",
    "location": "奉贤-南桥-育秀四区",
    "scraped_at": "2026-04-23 17:36:57",
    "region": "nanqiao",
    "unit_price": 24.4,
    "lat": 30.911971,
    "lng": 121.471208
  },
  {
    "title": "整租·育秀二区 3室1厅 南",
    "community": "育秀二区",
    "area": "87.00",
    "rooms": "3室1厅",
    "direction": "南",
    "floor": "",
    "price": "2000",
    "tags": "",
    "source": "",
    "url": "https://sh.lianjia.com/zufang/SH2130150574069383168.html",
    "rent_type": "整租",
    "location": "奉贤-南桥-育秀二区",
    "scraped_at": "2026-04-23 17:36:46",
    "region": "nanqiao",
    "unit_price": 23.0,
    "lat": 30.909948,
    "lng": 121.465048
  },
  {
    "title": "整租·金海苑北区 2室1厅 南",
    "community": "金海苑北区",
    "area": "68.00",
    "rooms": "2室1厅",
    "direction": "南",
    "floor": "",
    "price": "2300",
    "tags": "",
    "source": "",
    "url": "https://sh.lianjia.com/zufang/SH2148608625021550592.html",
    "rent_type": "整租",
    "location": "奉贤-南桥-金海苑北区",
    "scraped_at": "2026-04-23 17:36:46",
    "region": "nanqiao",
    "unit_price": 33.8,
    "lat": 30.91856,
    "lng": 121.498876
  },
  {
    "title": "整租·解放新村 2室1厅 南",
    "community": "解放新村",
    "area": "61.78",
    "rooms": "2室1厅",
    "direction": "南",
    "floor": "",
    "price": "1900",
    "tags": "",
    "source": "",
    "url": "https://sh.lianjia.com/zufang/SH2107370473791684608.html",
    "rent_type": "整租",
    "location": "奉贤-南桥-解放新村",
    "scraped_at": "2026-04-23 17:36:46",
    "region": "nanqiao",
    "unit_price": 30.8,
    "lat": 30.914195,
    "lng": 121.450354
  },
  {
    "title": "整租·西民旺苑 2室2厅 南",
    "community": "西民旺苑",
    "area": "90.32",
    "rooms": "2室2厅",
    "direction": "南",
    "floor": "",
    "price": "2800",
    "tags": "",
    "source": "",
    "url": "https://sh.lianjia.com/zufang/SH2087378516705280000.html",
    "rent_type": "整租",
    "location": "奉贤-南桥-西民旺苑",
    "scraped_at": "2026-04-23 17:36:57",
    "region": "nanqiao",
    "unit_price": 31.0,
    "lat": 30.920023,
    "lng": 121.438933
  },
  {
    "title": "整租·绿地南桥新苑 2室2厅 南",
    "community": "绿地南桥新苑",
    "area": "89.88",
    "rooms": "2室2厅",
    "direction": "南",
    "floor": "",
    "price": "3100",
    "tags": "",
    "source": "",
    "url": "https://sh.lianjia.com/zufang/SH2096519709364060160.html",
    "rent_type": "整租",
    "location": "奉贤-南桥-绿地南桥新苑",
    "scraped_at": "2026-04-23 17:36:46",
    "region": "nanqiao",
    "unit_price": 34.5,
    "lat": 30.926404,
    "lng": 121.46566
  },
  {
    "title": "整租·众旺苑 2室2厅 南",
    "community": "众旺苑",
    "area": "98.71",
    "rooms": "2室2厅",
    "direction": "南",
    "floor": "",
    "price": "3500",
    "tags": "",
    "source": "",
    "url": "https://sh.lianjia.com/zufang/SH2130613927623524352.html",
    "rent_type": "整租",
    "location": "奉贤-南桥-众旺苑",
    "scraped_at": "2026-04-23 17:36:46",
    "region": "nanqiao",
    "unit_price": 35.5,
    "lat": 30.91351,
    "lng": 121.442601
  },
  {
    "title": "整租·宝龙城市广场(奉贤) 1室1厅 北",
    "community": "宝龙城市广场(奉贤)",
    "area": "44.00",
    "rooms": "1室1厅",
    "direction": "北",
    "floor": "",
    "price": "2400",
    "tags": "",
    "source": "",
    "url": "https://sh.lianjia.com/zufang/SH2101912059246542848.html",
    "rent_type": "整租",
    "location": "奉贤-南桥-宝龙城市广场(奉贤)",
    "scraped_at": "2026-04-23 17:36:46",
    "region": "nanqiao",
    "unit_price": 54.5,
    "lat": 30.929094,
    "lng": 121.463175
  },
  {
    "title": "整租·绣南雅苑 3室2厅 南",
    "community": "绣南雅苑",
    "area": "102.00",
    "rooms": "3室2厅",
    "direction": "南",
    "floor": "",
    "price": "1800",
    "tags": "",
    "source": "",
    "url": "https://sh.lianjia.com/zufang/SH2129098563475472384.html",
    "rent_type": "整租",
    "location": "奉贤-南桥-绣南雅苑",
    "scraped_at": "2026-04-23 17:36:46",
    "region": "nanqiao",
    "unit_price": 17.6,
    "lat": 30.903896,
    "lng": 121.452536
  },
  {
    "title": "整租·悦丰新苑 2室2厅 南",
    "community": "悦丰新苑",
    "area": "92.82",
    "rooms": "2室2厅",
    "direction": "南",
    "floor": "",
    "price": "1600",
    "tags": "",
    "source": "",
    "url": "https://sh.lianjia.com/zufang/SH2130145357307314176.html",
    "rent_type": "整租",
    "location": "奉贤-南桥-悦丰新苑",
    "scraped_at": "2026-04-23 17:36:46",
    "region": "nanqiao",
    "unit_price": 17.2,
    "lat": 30.925316,
    "lng": 121.449465
  },
  {
    "title": "整租·江海新村 2室1厅 南",
    "community": "江海新村",
    "area": "80.83",
    "rooms": "2室1厅",
    "direction": "南",
    "floor": "",
    "price": "1700",
    "tags": "",
    "source": "",
    "url": "https://sh.lianjia.com/zufang/SH2100441719240654848.html",
    "rent_type": "整租",
    "location": "奉贤-南桥-江海新村",
    "scraped_at": "2026-04-23 17:36:46",
    "region": "nanqiao",
    "unit_price": 21.0,
    "lat": 30.905814,
    "lng": 121.455574
  },
  {
    "title": "整租·绿地南桥新苑 2室2厅 南",
    "community": "绿地南桥新苑",
    "area": "81.08",
    "rooms": "2室2厅",
    "direction": "南",
    "floor": "",
    "price": "2800",
    "tags": "",
    "source": "",
    "url": "https://sh.lianjia.com/zufang/SH2123053807985229824.html",
    "rent_type": "整租",
    "location": "奉贤-南桥-绿地南桥新苑",
    "scraped_at": "2026-04-23 17:36:46",
    "region": "nanqiao",
    "unit_price": 34.5,
    "lat": 30.926404,
    "lng": 121.46566
  },
  {
    "title": "整租·育秀九区 2室1厅 南",
    "community": "育秀九区",
    "area": "86.42",
    "rooms": "2室1厅",
    "direction": "南",
    "floor": "",
    "price": "2300",
    "tags": "",
    "source": "",
    "url": "https://sh.lianjia.com/zufang/SH2048315515922808832.html",
    "rent_type": "整租",
    "location": "奉贤-南桥-育秀九区",
    "scraped_at": "2026-04-23 17:36:46",
    "region": "nanqiao",
    "unit_price": 26.6,
    "lat": 30.907769,
    "lng": 121.469944
  },
  {
    "title": "整租·立新新村(奉贤) 3室2厅 南",
    "community": "立新新村(奉贤)",
    "area": "133.77",
    "rooms": "3室2厅",
    "direction": "南",
    "floor": "",
    "price": "2700",
    "tags": "",
    "source": "",
    "url": "https://sh.lianjia.com/zufang/SH2120018726408421376.html",
    "rent_type": "整租",
    "location": "奉贤-南桥-立新新村(奉贤)",
    "scraped_at": "2026-04-23 17:36:46",
    "region": "nanqiao",
    "unit_price": 20.2,
    "lat": 30.916352,
    "lng": 121.459791
  },
  {
    "title": "整租·望园晶典 2室2厅 南/北",
    "community": "望园晶典",
    "area": "70.00",
    "rooms": "2室2厅",
    "direction": "南/北",
    "floor": "",
    "price": "3200",
    "tags": "",
    "source": "",
    "url": "https://sh.lianjia.com/zufang/SH2129410786336964608.html",
    "rent_type": "整租",
    "location": "奉贤-南桥-望园晶典",
    "scraped_at": "2026-04-23 17:36:46",
    "region": "nanqiao",
    "unit_price": 45.7,
    "lat": 30.928051,
    "lng": 121.484681
  },
  {
    "title": "整租·玫瑰苑 3室2厅 复式 南",
    "community": "玫瑰苑",
    "area": "200.00",
    "rooms": "3室2厅",
    "direction": "",
    "floor": "",
    "price": "7000",
    "tags": "",
    "source": "",
    "url": "https://sh.lianjia.com/zufang/SH2150474107064418304.html",
    "rent_type": "整租",
    "location": "奉贤-南桥-玫瑰苑",
    "scraped_at": "2026-04-23 17:36:46",
    "region": "nanqiao",
    "unit_price": 35.0,
    "lat": 30.938154,
    "lng": 121.463715
  },
  {
    "title": "整租·宝龙城市广场(奉贤) 1室1厅 南",
    "community": "宝龙城市广场(奉贤)",
    "area": "31.82",
    "rooms": "1室1厅",
    "direction": "南",
    "floor": "",
    "price": "2400",
    "tags": "",
    "source": "",
    "url": "https://sh.lianjia.com/zufang/SH2150644242437898240.html",
    "rent_type": "整租",
    "location": "奉贤-南桥-宝龙城市广场(奉贤)",
    "scraped_at": "2026-04-23 17:36:46",
    "region": "nanqiao",
    "unit_price": 75.4,
    "lat": 30.929094,
    "lng": 121.463175
  },
  {
    "title": "整租·绣南雅苑 3室2厅 南",
    "community": "绣南雅苑",
    "area": "123.00",
    "rooms": "3室2厅",
    "direction": "南",
    "floor": "",
    "price": "4200",
    "tags": "",
    "source": "",
    "url": "https://sh.lianjia.com/zufang/SH2150830110662459392.html",
    "rent_type": "整租",
    "location": "奉贤-南桥-绣南雅苑",
    "scraped_at": "2026-04-23 17:36:46",
    "region": "nanqiao",
    "unit_price": 34.1,
    "lat": 30.903896,
    "lng": 121.452536
  },
  {
    "title": "整租·南郊御墅 2室1厅 南/北",
    "community": "南郊御墅",
    "area": "90.00",
    "rooms": "2室1厅",
    "direction": "南/北",
    "floor": "",
    "price": "2900",
    "tags": "",
    "source": "",
    "url": "https://sh.lianjia.com/zufang/SH2065405468049670144.html",
    "rent_type": "整租",
    "location": "奉贤-南桥-南郊御墅",
    "scraped_at": "2026-04-23 17:36:46",
    "region": "nanqiao",
    "unit_price": 32.2,
    "lat": 30.926351,
    "lng": 121.479733
  },
  {
    "title": "整租·五星花园别墅(奉贤) 4室2厅 南/北",
    "community": "五星花园别墅(奉贤)",
    "area": "305.00",
    "rooms": "4室2厅",
    "direction": "南/北",
    "floor": "",
    "price": "9000",
    "tags": "",
    "source": "",
    "url": "https://sh.lianjia.com/zufang/SH2065734236748382208.html",
    "rent_type": "整租",
    "location": "奉贤-南桥-五星花园别墅(奉贤)",
    "scraped_at": "2026-04-23 17:36:46",
    "region": "nanqiao",
    "unit_price": 29.5,
    "lat": 30.896397,
    "lng": 121.433539
  },
  {
    "title": "整租·贝港南区（第二居民区） 3室1厅 南",
    "community": "贝港南区（第二居民区）",
    "area": "80.77",
    "rooms": "3室1厅",
    "direction": "南",
    "floor": "",
    "price": "2200",
    "tags": "",
    "source": "",
    "url": "https://sh.lianjia.com/zufang/SH2101253979429142528.html",
    "rent_type": "整租",
    "location": "奉贤-南桥-贝港南区",
    "scraped_at": "2026-04-23 17:36:46",
    "region": "nanqiao",
    "unit_price": 27.2,
    "lat": 30.913223,
    "lng": 121.448293
  },
  {
    "title": "整租·贝港南区（六区，新村南区） 1室1厅 南",
    "community": "贝港南区（六区，新村南区）",
    "area": "47.85",
    "rooms": "1室1厅",
    "direction": "南",
    "floor": "",
    "price": "1600",
    "tags": "",
    "source": "",
    "url": "https://sh.lianjia.com/zufang/SH2109950045510959104.html",
    "rent_type": "整租",
    "location": "奉贤-南桥-贝港南区",
    "scraped_at": "2026-04-23 17:36:46",
    "region": "nanqiao",
    "unit_price": 33.4,
    "lat": 30.913223,
    "lng": 121.448293
  },
  {
    "title": "整租·恒盛湖畔豪庭南区 2室2厅 南",
    "community": "恒盛湖畔豪庭南区",
    "area": "87.98",
    "rooms": "2室2厅",
    "direction": "南",
    "floor": "",
    "price": "3300",
    "tags": "",
    "source": "",
    "url": "https://sh.lianjia.com/zufang/SH2118349804873449472.html",
    "rent_type": "整租",
    "location": "奉贤-南桥-恒盛湖畔豪庭南区",
    "scraped_at": "2026-04-23 17:38:08",
    "region": "nanqiao",
    "unit_price": 37.5,
    "lat": 30.927913,
    "lng": 121.490309
  },
  {
    "title": "整租·育秀五区 3室1厅 南",
    "community": "育秀五区",
    "area": "92.32",
    "rooms": "3室1厅",
    "direction": "南",
    "floor": "",
    "price": "2300",
    "tags": "",
    "source": "",
    "url": "https://sh.lianjia.com/zufang/SH2095018949493129216.html",
    "rent_type": "整租",
    "location": "奉贤-南桥-育秀五区",
    "scraped_at": "2026-04-23 17:36:57",
    "region": "nanqiao",
    "unit_price": 24.9,
    "lat": 30.906598,
    "lng": 121.460369
  },
  {
    "title": "整租·江海新村 2室1厅 南",
    "community": "江海新村",
    "area": "80.63",
    "rooms": "2室1厅",
    "direction": "南",
    "floor": "",
    "price": "1650",
    "tags": "",
    "source": "",
    "url": "https://sh.lianjia.com/zufang/SH2111650832964386816.html",
    "rent_type": "整租",
    "location": "奉贤-南桥-江海新村",
    "scraped_at": "2026-04-23 17:36:46",
    "region": "nanqiao",
    "unit_price": 20.5,
    "lat": 30.905814,
    "lng": 121.455574
  },
  {
    "title": "整租·南方国际广场 1室1厅 南",
    "community": "南方国际广场",
    "area": "46.46",
    "rooms": "1室1厅",
    "direction": "南",
    "floor": "",
    "price": "2200",
    "tags": "",
    "source": "",
    "url": "https://sh.lianjia.com/zufang/SH2078749441648492544.html",
    "rent_type": "整租",
    "location": "奉贤-南桥-南方国际广场",
    "scraped_at": "2026-04-23 17:36:57",
    "region": "nanqiao",
    "unit_price": 47.4,
    "lat": 30.915808,
    "lng": 121.486326
  },
  {
    "title": "整租·望园晶典 2室1厅 南/北",
    "community": "望园晶典",
    "area": "61.68",
    "rooms": "2室1厅",
    "direction": "南/北",
    "floor": "",
    "price": "2700",
    "tags": "",
    "source": "",
    "url": "https://sh.lianjia.com/zufang/SH2098628835539943424.html",
    "rent_type": "整租",
    "location": "奉贤-南桥-望园晶典",
    "scraped_at": "2026-04-23 17:36:50",
    "region": "nanqiao",
    "unit_price": 43.8,
    "lat": 30.928051,
    "lng": 121.484681
  },
  {
    "title": "整租·宝龙城市广场(奉贤) 1室1厅 西",
    "community": "宝龙城市广场(奉贤)",
    "area": "44.69",
    "rooms": "1室1厅",
    "direction": "西",
    "floor": "",
    "price": "2300",
    "tags": "",
    "source": "",
    "url": "https://sh.lianjia.com/zufang/SH2151639206160498688.html",
    "rent_type": "整租",
    "location": "奉贤-南桥-宝龙城市广场(奉贤)",
    "scraped_at": "2026-04-23 17:36:50",
    "region": "nanqiao",
    "unit_price": 51.5,
    "lat": 30.929094,
    "lng": 121.463175
  },
  {
    "title": "整租·育秀二区 2室1厅 南/北",
    "community": "育秀二区",
    "area": "83.00",
    "rooms": "2室1厅",
    "direction": "南/北",
    "floor": "",
    "price": "2300",
    "tags": "",
    "source": "",
    "url": "https://sh.lianjia.com/zufang/SH2091840361369436160.html",
    "rent_type": "整租",
    "location": "奉贤-南桥-育秀二区",
    "scraped_at": "2026-04-23 17:36:57",
    "region": "nanqiao",
    "unit_price": 27.7,
    "lat": 30.909948,
    "lng": 121.465048
  },
  {
    "title": "整租·育秀十一区 2室2厅 南",
    "community": "育秀十一区",
    "area": "91.00",
    "rooms": "2室2厅",
    "direction": "南",
    "floor": "",
    "price": "2300",
    "tags": "",
    "source": "",
    "url": "https://sh.lianjia.com/zufang/SH2122982287124463616.html",
    "rent_type": "整租",
    "location": "奉贤-南桥-育秀十一区",
    "scraped_at": "2026-04-23 17:38:08",
    "region": "nanqiao",
    "unit_price": 25.3,
    "lat": 30.908595,
    "lng": 121.472256
  },
  {
    "title": "整租·恒龙尚品嘉苑 2室2厅 南/北",
    "community": "恒龙尚品嘉苑",
    "area": "90.13",
    "rooms": "2室2厅",
    "direction": "南/北",
    "floor": "",
    "price": "1850",
    "tags": "",
    "source": "",
    "url": "https://sh.lianjia.com/zufang/SH2106720467250315264.html",
    "rent_type": "整租",
    "location": "奉贤-南桥-恒龙尚品嘉苑",
    "scraped_at": "2026-04-23 17:36:50",
    "region": "nanqiao",
    "unit_price": 20.5,
    "lat": 30.935715,
    "lng": 121.455072
  },
  {
    "title": "整租·新建中路558弄 2室1厅 南",
    "community": "新建中路558弄",
    "area": "47.09",
    "rooms": "2室1厅",
    "direction": "南",
    "floor": "",
    "price": "1600",
    "tags": "",
    "source": "",
    "url": "https://sh.lianjia.com/zufang/SH2124154449646583808.html",
    "rent_type": "整租",
    "location": "奉贤-南桥-新建中路",
    "scraped_at": "2026-04-23 17:38:08",
    "region": "nanqiao",
    "unit_price": 34.0,
    "lat": 30.916864,
    "lng": 121.457481
  },
  {
    "title": "整租·古华新村东区 2室1厅 南",
    "community": "古华新村东区",
    "area": "64.00",
    "rooms": "2室1厅",
    "direction": "南",
    "floor": "",
    "price": "1800",
    "tags": "",
    "source": "",
    "url": "https://sh.lianjia.com/zufang/SH2128077318168510464.html",
    "rent_type": "整租",
    "location": "奉贤-南桥-古华新村东区",
    "scraped_at": "2026-04-23 17:36:50",
    "region": "nanqiao",
    "unit_price": 28.1,
    "lat": 30.915843,
    "lng": 121.466698
  },
  {
    "title": "整租·万科南桥传奇 2室2厅 南",
    "community": "万科南桥传奇",
    "area": "84.00",
    "rooms": "2室2厅",
    "direction": "南",
    "floor": "",
    "price": "3800",
    "tags": "",
    "source": "",
    "url": "https://sh.lianjia.com/zufang/SH2128078317432078336.html",
    "rent_type": "整租",
    "location": "奉贤-南桥-万科南桥传奇",
    "scraped_at": "2026-04-23 17:36:50",
    "region": "nanqiao",
    "unit_price": 45.2,
    "lat": 30.931083,
    "lng": 121.453999
  },
  {
    "title": "整租·正阳世纪星城行知苑 3室2厅 南",
    "community": "正阳世纪星城行知苑",
    "area": "120.00",
    "rooms": "3室2厅",
    "direction": "南",
    "floor": "",
    "price": "3300",
    "tags": "",
    "source": "",
    "url": "https://sh.lianjia.com/zufang/SH2150541950929862656.html",
    "rent_type": "整租",
    "location": "奉贤-南桥-正阳世纪星城行知苑",
    "scraped_at": "2026-04-23 17:36:50",
    "region": "nanqiao",
    "unit_price": 27.5,
    "lat": 30.91275,
    "lng": 121.475122
  },
  {
    "title": "整租·正阳世纪星城丽骏湾 2室1厅 南",
    "community": "正阳世纪星城丽骏湾",
    "area": "91.08",
    "rooms": "2室1厅",
    "direction": "南",
    "floor": "",
    "price": "2400",
    "tags": "",
    "source": "",
    "url": "https://sh.lianjia.com/zufang/SH1900169467296481280.html",
    "rent_type": "整租",
    "location": "奉贤-南桥-正阳世纪星城丽骏湾",
    "scraped_at": "2026-04-23 17:36:50",
    "region": "nanqiao",
    "unit_price": 26.4,
    "lat": 30.909619,
    "lng": 121.477018
  },
  {
    "title": "整租·解放新村 1室0厅 南",
    "community": "解放新村",
    "area": "36.10",
    "rooms": "1室0厅",
    "direction": "南",
    "floor": "",
    "price": "1000",
    "tags": "",
    "source": "",
    "url": "https://sh.lianjia.com/zufang/SH2062905963983142912.html",
    "rent_type": "整租",
    "location": "奉贤-南桥-解放新村",
    "scraped_at": "2026-04-23 17:36:50",
    "region": "nanqiao",
    "unit_price": 27.7,
    "lat": 30.914195,
    "lng": 121.450354
  },
  {
    "title": "整租·绿地南桥新苑 3室1厅 南",
    "community": "绿地南桥新苑",
    "area": "116.43",
    "rooms": "3室1厅",
    "direction": "南",
    "floor": "",
    "price": "3500",
    "tags": "",
    "source": "",
    "url": "https://sh.lianjia.com/zufang/SH2034937292598018048.html",
    "rent_type": "整租",
    "location": "奉贤-南桥-绿地南桥新苑",
    "scraped_at": "2026-04-23 17:38:08",
    "region": "nanqiao",
    "unit_price": 30.1,
    "lat": 30.926404,
    "lng": 121.46566
  },
  {
    "title": "整租·解放新村 2室1厅 南",
    "community": "解放新村",
    "area": "80.28",
    "rooms": "2室1厅",
    "direction": "南",
    "floor": "",
    "price": "1800",
    "tags": "",
    "source": "",
    "url": "https://sh.lianjia.com/zufang/SH2088580359884111872.html",
    "rent_type": "整租",
    "location": "奉贤-南桥-解放新村",
    "scraped_at": "2026-04-23 17:36:57",
    "region": "nanqiao",
    "unit_price": 22.4,
    "lat": 30.914195,
    "lng": 121.450354
  },
  {
    "title": "整租·绿地翡翠公馆 2室1厅 南",
    "community": "绿地翡翠公馆",
    "area": "53.00",
    "rooms": "2室1厅",
    "direction": "南",
    "floor": "",
    "price": "1900",
    "tags": "",
    "source": "",
    "url": "https://sh.lianjia.com/zufang/SH2089620433111351296.html",
    "rent_type": "整租",
    "location": "奉贤-南桥-绿地翡翠公馆",
    "scraped_at": "2026-04-23 17:36:57",
    "region": "nanqiao",
    "unit_price": 35.8,
    "lat": 30.91831,
    "lng": 121.47183
  },
  {
    "title": "整租·树园新里 2室2厅 南",
    "community": "树园新里",
    "area": "100.83",
    "rooms": "2室2厅",
    "direction": "南",
    "floor": "",
    "price": "2500",
    "tags": "",
    "source": "",
    "url": "https://sh.lianjia.com/zufang/SH2088855203557146624.html",
    "rent_type": "整租",
    "location": "奉贤-南桥-树园新里",
    "scraped_at": "2026-04-23 17:36:57",
    "region": "nanqiao",
    "unit_price": 24.8,
    "lat": 30.924228,
    "lng": 121.471842
  },
  {
    "title": "整租·解放新村 1室1厅 南",
    "community": "解放新村",
    "area": "37.66",
    "rooms": "1室1厅",
    "direction": "南",
    "floor": "",
    "price": "1500",
    "tags": "",
    "source": "",
    "url": "https://sh.lianjia.com/zufang/SH2105535178293116928.html",
    "rent_type": "整租",
    "location": "奉贤-南桥-解放新村",
    "scraped_at": "2026-04-23 17:36:50",
    "region": "nanqiao",
    "unit_price": 39.8,
    "lat": 30.914195,
    "lng": 121.450354
  },
  {
    "title": "整租·南郊御墅 1室1厅 南",
    "community": "南郊御墅",
    "area": "65.73",
    "rooms": "1室1厅",
    "direction": "南",
    "floor": "",
    "price": "2500",
    "tags": "",
    "source": "",
    "url": "https://sh.lianjia.com/zufang/SH2108890367607701504.html",
    "rent_type": "整租",
    "location": "奉贤-南桥-南郊御墅",
    "scraped_at": "2026-04-23 17:36:50",
    "region": "nanqiao",
    "unit_price": 38.0,
    "lat": 30.926351,
    "lng": 121.479733
  },
  {
    "title": "整租·恒盛湖畔豪庭南区 2室1厅 南",
    "community": "恒盛湖畔豪庭南区",
    "area": "88.16",
    "rooms": "2室1厅",
    "direction": "南",
    "floor": "",
    "price": "1500",
    "tags": "",
    "source": "",
    "url": "https://sh.lianjia.com/zufang/SH2022299555487285248.html",
    "rent_type": "整租",
    "location": "奉贤-南桥-恒盛湖畔豪庭南区",
    "scraped_at": "2026-04-23 17:38:08",
    "region": "nanqiao",
    "unit_price": 17.0,
    "lat": 30.927913,
    "lng": 121.490309
  },
  {
    "title": "整租·绿地南桥新苑 2室1厅 南/北",
    "community": "绿地南桥新苑",
    "area": "89.40",
    "rooms": "2室1厅",
    "direction": "南/北",
    "floor": "",
    "price": "3200",
    "tags": "",
    "source": "",
    "url": "https://sh.lianjia.com/zufang/SH2116134366248697856.html",
    "rent_type": "整租",
    "location": "奉贤-南桥-绿地南桥新苑",
    "scraped_at": "2026-04-23 17:38:08",
    "region": "nanqiao",
    "unit_price": 35.8,
    "lat": 30.926404,
    "lng": 121.46566
  },
  {
    "title": "整租·聚贤煌都 3室2厅 南",
    "community": "聚贤煌都",
    "area": "125.00",
    "rooms": "3室2厅",
    "direction": "南",
    "floor": "",
    "price": "2500",
    "tags": "",
    "source": "",
    "url": "https://sh.lianjia.com/zufang/SH2148993079846109184.html",
    "rent_type": "整租",
    "location": "奉贤-南桥-聚贤煌都",
    "scraped_at": "2026-04-23 17:36:57",
    "region": "nanqiao",
    "unit_price": 20.0,
    "lat": 30.943624,
    "lng": 121.464403
  },
  {
    "title": "整租·卓越世纪中心(奉贤) 2室1厅 南",
    "community": "卓越世纪中心(奉贤)",
    "area": "87.00",
    "rooms": "2室1厅",
    "direction": "南",
    "floor": "",
    "price": "2100",
    "tags": "",
    "source": "",
    "url": "https://sh.lianjia.com/zufang/SH2123352363669389312.html",
    "rent_type": "整租",
    "location": "奉贤-南桥-卓越世纪中心(奉贤)",
    "scraped_at": "2026-04-23 17:38:08",
    "region": "nanqiao",
    "unit_price": 24.1,
    "lat": 30.91301,
    "lng": 121.490163
  },
  {
    "title": "整租·正阳世纪星城芳邻苑 3室1厅 南",
    "community": "正阳世纪星城芳邻苑",
    "area": "100.33",
    "rooms": "3室1厅",
    "direction": "南",
    "floor": "",
    "price": "3200",
    "tags": "",
    "source": "",
    "url": "https://sh.lianjia.com/zufang/SH2123639359398739968.html",
    "rent_type": "整租",
    "location": "奉贤-南桥-正阳世纪星城芳邻苑",
    "scraped_at": "2026-04-23 17:38:08",
    "region": "nanqiao",
    "unit_price": 31.9,
    "lat": 30.91418,
    "lng": 121.478357
  },
  {
    "title": "整租·正阳世纪星城居礼苑 3室2厅 南/北",
    "community": "正阳世纪星城居礼苑",
    "area": "112.00",
    "rooms": "3室2厅",
    "direction": "南/北",
    "floor": "",
    "price": "3900",
    "tags": "",
    "source": "",
    "url": "https://sh.lianjia.com/zufang/SH2119729674413146112.html",
    "rent_type": "整租",
    "location": "奉贤-南桥-正阳世纪星城居礼苑",
    "scraped_at": "2026-04-23 17:38:08",
    "region": "nanqiao",
    "unit_price": 34.8,
    "lat": 30.912363,
    "lng": 121.478839
  },
  {
    "title": "整租·横泾新村 2室2厅 南",
    "community": "横泾新村",
    "area": "65.00",
    "rooms": "2室2厅",
    "direction": "南",
    "floor": "",
    "price": "2000",
    "tags": "",
    "source": "",
    "url": "https://sh.lianjia.com/zufang/SH2149750743928668160.html",
    "rent_type": "整租",
    "location": "奉贤-南桥-横泾新村",
    "scraped_at": "2026-04-23 17:36:50",
    "region": "nanqiao",
    "unit_price": 30.8,
    "lat": 30.918793,
    "lng": 121.460201
  },
  {
    "title": "整租·桐南美麓 3室1厅 南",
    "community": "桐南美麓",
    "area": "87.70",
    "rooms": "3室1厅",
    "direction": "南",
    "floor": "",
    "price": "3300",
    "tags": "",
    "source": "",
    "url": "https://sh.lianjia.com/zufang/SH2149791296783384576.html",
    "rent_type": "整租",
    "location": "奉贤-南桥-桐南美麓",
    "scraped_at": "2026-04-23 17:36:50",
    "region": "nanqiao",
    "unit_price": 37.6,
    "lat": 30.954935,
    "lng": 121.489046
  },
  {
    "title": "整租·悦达南郊华都 1室1厅 南",
    "community": "悦达南郊华都",
    "area": "42.00",
    "rooms": "1室1厅",
    "direction": "南",
    "floor": "",
    "price": "1400",
    "tags": "",
    "source": "",
    "url": "https://sh.lianjia.com/zufang/SH2150558136719638528.html",
    "rent_type": "整租",
    "location": "奉贤-南桥-悦达南郊华都",
    "scraped_at": "2026-04-23 17:36:50",
    "region": "nanqiao",
    "unit_price": 33.3,
    "lat": 30.972978,
    "lng": 121.466938
  },
  {
    "title": "整租·南方国际广场 2室1厅 南",
    "community": "南方国际广场",
    "area": "71.00",
    "rooms": "2室1厅",
    "direction": "南",
    "floor": "",
    "price": "3000",
    "tags": "",
    "source": "",
    "url": "https://sh.lianjia.com/zufang/SH2150919435018305536.html",
    "rent_type": "整租",
    "location": "奉贤-南桥-南方国际广场",
    "scraped_at": "2026-04-23 17:36:50",
    "region": "nanqiao",
    "unit_price": 42.3,
    "lat": 30.915808,
    "lng": 121.486326
  },
  {
    "title": "整租·育秀六区 3室1厅 南",
    "community": "育秀六区",
    "area": "93.00",
    "rooms": "3室1厅",
    "direction": "南",
    "floor": "",
    "price": "2000",
    "tags": "",
    "source": "",
    "url": "https://sh.lianjia.com/zufang/SH2151679713519599616.html",
    "rent_type": "整租",
    "location": "奉贤-南桥-育秀六区",
    "scraped_at": "2026-04-23 17:36:50",
    "region": "nanqiao",
    "unit_price": 21.5,
    "lat": 30.906481,
    "lng": 121.463559
  },
  {
    "title": "整租·绿地观邸 2室1厅 南",
    "community": "绿地观邸",
    "area": "70.00",
    "rooms": "2室1厅",
    "direction": "南",
    "floor": "",
    "price": "2600",
    "tags": "",
    "source": "",
    "url": "https://sh.lianjia.com/zufang/SH2151603188367622144.html",
    "rent_type": "整租",
    "location": "奉贤-南桥-绿地观邸",
    "scraped_at": "2026-04-23 17:36:50",
    "region": "nanqiao",
    "unit_price": 37.1,
    "lat": 30.917403,
    "lng": 121.450774
  },
  {
    "title": "整租·解放新村 2室1厅 南",
    "community": "解放新村",
    "area": "90.00",
    "rooms": "2室1厅",
    "direction": "南",
    "floor": "",
    "price": "2100",
    "tags": "",
    "source": "",
    "url": "https://sh.lianjia.com/zufang/SH2151969637829443584.html",
    "rent_type": "整租",
    "location": "奉贤-南桥-解放新村",
    "scraped_at": "2026-04-23 17:36:50",
    "region": "nanqiao",
    "unit_price": 23.3,
    "lat": 30.914195,
    "lng": 121.450354
  },
  {
    "title": "整租·运河新村(南桥) 2室1厅 南",
    "community": "运河新村(南桥)",
    "area": "79.00",
    "rooms": "2室1厅",
    "direction": "南",
    "floor": "",
    "price": "2100",
    "tags": "",
    "source": "",
    "url": "https://sh.lianjia.com/zufang/SH2142896316798205952.html",
    "rent_type": "整租",
    "location": "奉贤-南桥-运河新村(南桥)",
    "scraped_at": "2026-04-23 17:36:57",
    "region": "nanqiao",
    "unit_price": 26.6,
    "lat": 30.919062,
    "lng": 121.461921
  },
  {
    "title": "整租·金海壹品 2室1厅 南",
    "community": "金海壹品",
    "area": "56.63",
    "rooms": "2室1厅",
    "direction": "南",
    "floor": "",
    "price": "2800",
    "tags": "",
    "source": "",
    "url": "https://sh.lianjia.com/zufang/SH2144100554173841408.html",
    "rent_type": "整租",
    "location": "奉贤-南桥-金海壹品",
    "scraped_at": "2026-04-23 17:36:57",
    "region": "nanqiao",
    "unit_price": 49.4,
    "lat": 30.916688,
    "lng": 121.497137
  },
  {
    "title": "整租·上江南璟荟名庭 3室2厅 南",
    "community": "上江南璟荟名庭",
    "area": "99.15",
    "rooms": "3室2厅",
    "direction": "南",
    "floor": "",
    "price": "2500",
    "tags": "",
    "source": "",
    "url": "https://sh.lianjia.com/zufang/SH2144271643181056000.html",
    "rent_type": "整租",
    "location": "奉贤-南桥-上江南璟荟名庭",
    "scraped_at": "2026-04-23 17:36:53",
    "region": "nanqiao",
    "unit_price": 25.2,
    "lat": 30.924416,
    "lng": 121.468867
  },