[
  {
    "title": "整租·控江路1200弄 1室1厅 南",
    "community": "控江路1200弄",
    "area": "39.77",
    "rooms": "1室1厅",
    "direction": "南",
    "floor": "",
    "price": "3500",
    "tags": "",
    "source": "",
    "url": "https://sh.lianjia.com/zufang/SH2156704317657055232.html",
    "rent_type": "整租",
    "location": "杨浦-控江路-控江路",
    "scraped_at": "2026-04-23 15:49:20",
    "region": "kongjianglu",
    "unit_price": 88.0,
    "lat": 31.278079,
    "lng": 121.526859
  },
  {
    "title": "整租·杨家浜小区 1室1厅 南",
    "community": "杨家浜小区",
    "area": "35.00",
    "rooms": "1室1厅",
    "direction": "南",
    "floor": "",
    "price": "3800",
    "tags": "",
    "source": "",
    "url": "https://sh.lianjia.com/zufang/SH2154489935539732480.html",
    "rent_type": "整租",
    "location": "杨浦-控江路-杨家浜小区",
    "scraped_at": "2026-04-23 15:48:58",
    "region": "kongjianglu",
    "unit_price": 108.6,
    "lat": 31.283812,
    "lng": 121.533966
  },
  {
    "title": "整租·凤城三村西区 1室1厅 南",
    "community": "凤城三村西区",
    "area": "40.02",
    "rooms": "1室1厅",
    "direction": "南",
    "floor": "",
    "price": "4000",
    "tags": "",
    "source": "",
    "url": "https://sh.lianjia.com/zufang/SH2147961836358598656.html",
    "rent_type": "整租",
    "location": "杨浦-控江路-凤城三村西区",
    "scraped_at": "2026-04-23 15:49:17",
    "region": "kongjianglu",
    "unit_price": 100.0,
    "lat": 31.282893,
    "lng": 121.522997
  },
  {
    "title": "独栋·创寓228 控江路店 店长主推/五角场直达/外窗带阳台/配套齐全/可短租可月付 1室1厅",
    "community": "创寓228 控江路店 店长主推/五角场直达/外窗带阳台/配套齐全/可短租可月付",
    "area": "36.62",
    "rooms": "1室1厅",
    "direction": "",
    "floor": "",
    "price": "5688",
    "tags": "",
    "source": "",
    "url": "https://sh.lianjia.com/apartment/84879.html",
    "rent_type": "独栋",
    "location": "",
    "scraped_at": "2026-04-23 15:49:02",
    "region": "kongjianglu",
    "unit_price": 155.3,
    "lat": 31.294006,
    "lng": 121.52478
  },
  {
    "title": "整租·凤城三村西区 1室1厅 南",
    "community": "凤城三村西区",
    "area": "47.52",
    "rooms": "1室1厅",
    "direction": "南",
    "floor": "",
    "price": "3900",
    "tags": "",
    "source": "",
    "url": "https://sh.lianjia.com/zufang/SH2001584043463802880.html",
    "rent_type": "整租",
    "location": "杨浦-控江路-凤城三村西区",
    "scraped_at": "2026-04-23 15:48:58",
    "region": "kongjianglu",
    "unit_price": 82.1,
    "lat": 31.282893,
    "lng": 121.522997
  },
  {
    "title": "整租·控江路1200弄 1室1厅 南",
    "community": "控江路1200弄",
    "area": "35.00",
    "rooms": "1室1厅",
    "direction": "南",
    "floor": "",
    "price": "2940",
    "tags": "",
    "source": "",
    "url": "https://sh.lianjia.com/zufang/SH2017923515851735040.html",
    "rent_type": "整租",
    "location": "杨浦-控江路-控江路",
    "scraped_at": "2026-04-23 15:48:58",
    "region": "kongjianglu",
    "unit_price": 84.0,
    "lat": 31.278079,
    "lng": 121.526859
  },
  {
    "title": "整租·控江路1200弄 1室1厅 南",
    "community": "控江路1200弄",
    "area": "38.22",
    "rooms": "1室1厅",
    "direction": "南",
    "floor": "",
    "price": "3500",
    "tags": "",
    "source": "",
    "url": "https://sh.lianjia.com/zufang/SH2153051118584725504.html",
    "rent_type": "整租",
    "location": "杨浦-控江路-控江路",
    "scraped_at": "2026-04-23 15:48:58",
    "region": "kongjianglu",
    "unit_price": 91.6,
    "lat": 31.278079,
    "lng": 121.526859
  },
  {
    "title": "整租·延吉东路137弄 1室1厅 南",
    "community": "延吉东路137弄",
    "area": "50.00",
    "rooms": "1室1厅",
    "direction": "南",
    "floor": "",
    "price": "3465",
    "tags": "",
    "source": "",
    "url": "https://sh.lianjia.com/zufang/SH2012111041311277056.html",
    "rent_type": "整租",
    "location": "杨浦-控江路-延吉东路",
    "scraped_at": "2026-04-23 15:48:58",
    "region": "kongjianglu",
    "unit_price": 69.3,
    "lat": 31.284143,
    "lng": 121.534458
  },
  {
    "title": "整租·杨家浜小区 1室1厅 南",
    "community": "杨家浜小区",
    "area": "37.07",
    "rooms": "1室1厅",
    "direction": "南",
    "floor": "",
    "price": "3780",
    "tags": "",
    "source": "",
    "url": "https://sh.lianjia.com/zufang/SH1971494182958661632.html",
    "rent_type": "整租",
    "location": "杨浦-控江路-杨家浜小区",
    "scraped_at": "2026-04-23 15:48:58",
    "region": "kongjianglu",
    "unit_price": 102.0,
    "lat": 31.283812,
    "lng": 121.533966
  },
  {
    "title": "整租·凤城路104弄 2室1厅 南/北",
    "community": "凤城路104弄",
    "area": "70.08",
    "rooms": "2室1厅",
    "direction": "南/北",
    "floor": "",
    "price": "5880",
    "tags": "",
    "source": "",
    "url": "https://sh.lianjia.com/zufang/SH2154804789047721984.html",
    "rent_type": "整租",
    "location": "杨浦-控江路-凤城路",
    "scraped_at": "2026-04-23 15:49:20",
    "region": "kongjianglu",
    "unit_price": 83.9,
    "lat": 31.278079,
    "lng": 121.526859
  },
  {
    "title": "整租·凤城三村东区 1室0厅 南",
    "community": "凤城三村东区",
    "area": "34.40",
    "rooms": "1室0厅",
    "direction": "南",
    "floor": "",
    "price": "3600",
    "tags": "",
    "source": "",
    "url": "https://sh.lianjia.com/zufang/SH1898009922306572288.html",
    "rent_type": "整租",
    "location": "杨浦-控江路-凤城三村东区",
    "scraped_at": "2026-04-23 15:48:58",
    "region": "kongjianglu",
    "unit_price": 104.7,
    "lat": 31.282893,
    "lng": 121.522997
  },
  {
    "title": "独栋·迁旺公寓 延吉中路店 精装一室一厅 独立厨卫 干湿分离 独居 情侣首选 1室1厅",
    "community": "迁旺公寓 延吉中路店 精装一室一厅 独立厨卫 干湿分离 独居 情侣首选",
    "area": "35.00",
    "rooms": "1室1厅",
    "direction": "",
    "floor": "",
    "price": "4980",
    "tags": "",
    "source": "",
    "url": "https://sh.lianjia.com/apartment/59974.html",
    "rent_type": "独栋",
    "location": "",
    "scraped_at": "2026-04-23 15:49:02",
    "region": "kongjianglu",
    "unit_price": 142.3,
    "lat": 31.284218,
    "lng": 121.532556
  },
  {
    "title": "整租·凤城六村 2室1厅 南/北",
    "community": "凤城六村",
    "area": "52.90",
    "rooms": "2室1厅",
    "direction": "南/北",
    "floor": "",
    "price": "5145",
    "tags": "",
    "source": "",
    "url": "https://sh.lianjia.com/zufang/SH1984174196053245952.html",
    "rent_type": "整租",
    "location": "杨浦-控江路-凤城六村",
    "scraped_at": "2026-04-23 15:48:58",
    "region": "kongjianglu",
    "unit_price": 97.3,
    "lat": 31.283633,
    "lng": 121.517425
  },
  {
    "title": "整租·韵都城 3室2厅 南",
    "community": "韵都城",
    "area": "129.70",
    "rooms": "3室2厅",
    "direction": "南",
    "floor": "",
    "price": "10000",
    "tags": "",
    "source": "",
    "url": "https://sh.lianjia.com/zufang/SH2148703066642186240.html",
    "rent_type": "整租",
    "location": "杨浦-控江路-韵都城",
    "scraped_at": "2026-04-23 15:48:58",
    "region": "kongjianglu",
    "unit_price": 77.1,
    "lat": 31.288828,
    "lng": 121.545712
  },
  {
    "title": "整租·控江路764弄 2室0厅 南",
    "community": "控江路764弄",
    "area": "48.36",
    "rooms": "2室0厅",
    "direction": "南",
    "floor": "",
    "price": "4725",
    "tags": "",
    "source": "",
    "url": "https://sh.lianjia.com/zufang/SH2004505767847133184.html",
    "rent_type": "整租",
    "location": "杨浦-控江路-控江路",
    "scraped_at": "2026-04-23 15:48:58",
    "region": "kongjianglu",
    "unit_price": 97.7,
    "lat": 31.278079,
    "lng": 121.526859
  },
  {
    "title": "整租·韵都城 2室1厅 南/北",
    "community": "韵都城",
    "area": "95.00",
    "rooms": "2室1厅",
    "direction": "南/北",
    "floor": "",
    "price": "8800",
    "tags": "",
    "source": "",
    "url": "https://sh.lianjia.com/zufang/SH2153338829510017024.html",
    "rent_type": "整租",
    "location": "杨浦-控江路-韵都城",
    "scraped_at": "2026-04-23 15:48:58",
    "region": "kongjianglu",
    "unit_price": 92.6,
    "lat": 31.288828,
    "lng": 121.545712
  },
  {
    "title": "整租·延吉东路5弄 1室0厅 南",
    "community": "延吉东路5弄",
    "area": "28.78",
    "rooms": "1室0厅",
    "direction": "南",
    "floor": "",
    "price": "3150",
    "tags": "",
    "source": "",
    "url": "https://sh.lianjia.com/zufang/SH1955851254320070656.html",
    "rent_type": "整租",
    "location": "杨浦-控江路-延吉东路",
    "scraped_at": "2026-04-23 15:48:58",
    "region": "kongjianglu",
    "unit_price": 109.5,
    "lat": 31.284143,
    "lng": 121.534458
  },
  {
    "title": "整租·图们新苑 1室1厅 南",
    "community": "图们新苑",
    "area": "50.50",
    "rooms": "1室1厅",
    "direction": "南",
    "floor": "",
    "price": "4095",
    "tags": "",
    "source": "",
    "url": "https://sh.lianjia.com/zufang/SH2088140779246583808.html",
    "rent_type": "整租",
    "location": "杨浦-控江路-图们新苑",
    "scraped_at": "2026-04-23 15:49:17",
    "region": "kongjianglu",
    "unit_price": 81.1,
    "lat": 31.291582,
    "lng": 121.547625
  },
  {
    "title": "整租·凤城四村 2室1厅 南",
    "community": "凤城四村",
    "area": "48.37",
    "rooms": "2室1厅",
    "direction": "南",
    "floor": "",
    "price": "4600",
    "tags": "",
    "source": "",
    "url": "https://sh.lianjia.com/zufang/SH2116137709964623872.html",
    "rent_type": "整租",
    "location": "杨浦-控江路-凤城四村",
    "scraped_at": "2026-04-23 15:48:58",
    "region": "kongjianglu",
    "unit_price": 95.1,
    "lat": 31.283821,
    "lng": 121.521487
  },
  {
    "title": "整租·延吉东路131弄 1室1厅 南",
    "community": "延吉东路131弄",
    "area": "37.79",
    "rooms": "1室1厅",
    "direction": "南",
    "floor": "",
    "price": "3600",
    "tags": "",
    "source": "",
    "url": "https://sh.lianjia.com/zufang/SH2145781550682210304.html",
    "rent_type": "整租",
    "location": "杨浦-控江路-延吉东路",
    "scraped_at": "2026-04-23 15:48:58",
    "region": "kongjianglu",
    "unit_price": 95.3,
    "lat": 31.284143,
    "lng": 121.534458
  },
  {
    "title": "整租·益晖新苑 2室1厅 南",
    "community": "益晖新苑",
    "area": "89.19",
    "rooms": "2室1厅",
    "direction": "南",
    "floor": "",
    "price": "6200",
    "tags": "",
    "source": "",
    "url": "https://sh.lianjia.com/zufang/SH2154218534228459520.html",
    "rent_type": "整租",
    "location": "杨浦-控江路-益晖新苑",
    "scraped_at": "2026-04-23 15:48:58",
    "region": "kongjianglu",
    "unit_price": 69.5,
    "lat": 31.290227,
    "lng": 121.544996
  },
  {
    "title": "整租·延吉东路131弄 2室1厅 南/北",
    "community": "延吉东路131弄",
    "area": "54.23",
    "rooms": "2室1厅",
    "direction": "南/北",
    "floor": "",
    "price": "4400",
    "tags": "",
    "source": "",
    "url": "https://sh.lianjia.com/zufang/SH2121567862177923072.html",
    "rent_type": "整租",
    "location": "杨浦-控江路-延吉东路",
    "scraped_at": "2026-04-23 15:48:58",
    "region": "kongjianglu",
    "unit_price": 81.1,
    "lat": 31.284143,
    "lng": 121.534458
  },
  {
    "title": "整租·凤城三村西区 1室1厅 南",
    "community": "凤城三村西区",
    "area": "40.11",
    "rooms": "1室1厅",
    "direction": "南",
    "floor": "",
    "price": "3800",
    "tags": "",
    "source": "",
    "url": "https://sh.lianjia.com/zufang/SH1873639138532524032.html",
    "rent_type": "整租",
    "location": "杨浦-控江路-凤城三村西区",
    "scraped_at": "2026-04-23 15:49:02",
    "region": "kongjianglu",
    "unit_price": 94.7,
    "lat": 31.282893,
    "lng": 121.522997
  },
  {
    "title": "整租·城市丽园 2室1厅 南",
    "community": "城市丽园",
    "area": "96.87",
    "rooms": "2室1厅",
    "direction": "南",
    "floor": "",
    "price": "8300",
    "tags": "",
    "source": "",
    "url": "https://sh.lianjia.com/zufang/SH2153744249911246848.html",
    "rent_type": "整租",
    "location": "杨浦-控江路-城市丽园",
    "scraped_at": "2026-04-23 15:49:02",
    "region": "kongjianglu",
    "unit_price": 85.7,
    "lat": 31.282441,
    "lng": 121.529339
  },
  {
    "title": "整租·控江路896弄 1室1厅 南",
    "community": "控江路896弄",
    "area": "35.31",
    "rooms": "1室1厅",
    "direction": "南",
    "floor": "",
    "price": "3300",
    "tags": "",
    "source": "",
    "url": "https://sh.lianjia.com/zufang/SH1737854446156644352.html",
    "rent_type": "整租",
    "location": "杨浦-控江路-控江路",
    "scraped_at": "2026-04-23 15:49:02",
    "region": "kongjianglu",
    "unit_price": 93.5,
    "lat": 31.278079,
    "lng": 121.526859
  },
  {
    "title": "独栋·爱笑青年公寓 黄兴路店 8号线.温馨阳光小复式 1室1厅",
    "community": "爱笑青年公寓 黄兴路店 8号线.温馨阳光小复式",
    "area": "36.00",
    "rooms": "1室1厅",
    "direction": "",
    "floor": "",
    "price": "3350",
    "tags": "",
    "source": "",
    "url": "https://sh.lianjia.com/apartment/82668.html",
    "rent_type": "独栋",
    "location": "",
    "scraped_at": "2026-04-23 15:49:02",
    "region": "kongjianglu",
    "unit_price": 93.1,
    "lat": 31.283594,
    "lng": 121.530288
  },
  {
    "title": "整租·敦化路2弄 1室0厅 南",
    "community": "敦化路2弄",
    "area": "34.87",
    "rooms": "1室0厅",
    "direction": "南",
    "floor": "",
    "price": "3800",
    "tags": "",
    "source": "",
    "url": "https://sh.lianjia.com/zufang/SH2083121822118707200.html",
    "rent_type": "整租",
    "location": "杨浦-控江路-敦化路",
    "scraped_at": "2026-04-23 15:49:04",
    "region": "kongjianglu",
    "unit_price": 109.0,
    "lat": 31.285207,
    "lng": 121.540683
  },
  {
    "title": "独栋·易乐公寓 凤城路店 互联宝地房补区.特惠 开间",
    "community": "易乐公寓 凤城路店 互联宝地房补区.特惠 开间",
    "area": "30.00",
    "rooms": "",
    "direction": "",
    "floor": "",
    "price": "3200",
    "tags": "",
    "source": "",
    "url": "https://sh.lianjia.com/apartment/44769.html",
    "rent_type": "独栋",
    "location": "",
    "scraped_at": "2026-04-23 15:49:02",
    "region": "kongjianglu",
    "unit_price": 106.7,
    "lat": 31.195827,
    "lng": 121.290673
  },
  {
    "title": "整租·控江七村 2室1厅 南",
    "community": "控江七村",
    "area": "55.49",
    "rooms": "2室1厅",
    "direction": "南",
    "floor": "",
    "price": "5250",
    "tags": "",
    "source": "",
    "url": "https://sh.lianjia.com/zufang/SH1923652213377335296.html",
    "rent_type": "整租",
    "location": "杨浦-控江路-控江七村",
    "scraped_at": "2026-04-23 15:49:04",
    "region": "kongjianglu",
    "unit_price": 94.6,
    "lat": 31.282917,
    "lng": 121.532166
  },
  {
    "title": "整租·凤城三村东区 1室0厅 南",
    "community": "凤城三村东区",
    "area": "31.58",
    "rooms": "1室0厅",
    "direction": "南",
    "floor": "",
    "price": "3500",
    "tags": "",
    "source": "",
    "url": "https://sh.lianjia.com/zufang/SH2152719986479595520.html",
    "rent_type": "整租",
    "location": "杨浦-控江路-凤城三村东区",
    "scraped_at": "2026-04-23 15:49:02",
    "region": "kongjianglu",
    "unit_price": 110.8,
    "lat": 31.282893,
    "lng": 121.522997
  },
  {
    "title": "整租·凤城二村 1室1厅 南",
    "community": "凤城二村",
    "area": "31.04",
    "rooms": "1室1厅",
    "direction": "南",
    "floor": "",
    "price": "3100",
    "tags": "",
    "source": "",
    "url": "https://sh.lianjia.com/zufang/SH1888549123703963648.html",
    "rent_type": "整租",
    "location": "杨浦-控江路-凤城二村",
    "scraped_at": "2026-04-23 15:49:02",
    "region": "kongjianglu",
    "unit_price": 99.9,
    "lat": 31.279052,
    "lng": 121.518986
  },
  {
    "title": "整租·凤城三村东区 1室1厅 南",
    "community": "凤城三村东区",
    "area": "26.41",
    "rooms": "1室1厅",
    "direction": "南",
    "floor": "",
    "price": "3570",
    "tags": "",
    "source": "",
    "url": "https://sh.lianjia.com/zufang/SH1981698031497510912.html",
    "rent_type": "整租",
    "location": "杨浦-控江路-凤城三村东区",
    "scraped_at": "2026-04-23 15:49:04",
    "region": "kongjianglu",
    "unit_price": 135.2,
    "lat": 31.282893,
    "lng": 121.522997
  },
  {
    "title": "整租·控江二村 1室0厅 南",
    "community": "控江二村",
    "area": "35.02",
    "rooms": "1室0厅",
    "direction": "南",
    "floor": "",
    "price": "3150",
    "tags": "",
    "source": "",
    "url": "https://sh.lianjia.com/zufang/SH1956012105232547840.html",
    "rent_type": "整租",
    "location": "杨浦-控江路-控江二村",
    "scraped_at": "2026-04-23 15:49:04",
    "region": "kongjianglu",
    "unit_price": 89.9,
    "lat": 31.279656,
    "lng": 121.525932
  },
  {
    "title": "整租·凤城三村东区 1室1厅 南/北",
    "community": "凤城三村东区",
    "area": "30.00",
    "rooms": "1室1厅",
    "direction": "南/北",
    "floor": "",
    "price": "3600",
    "tags": "",
    "source": "",
    "url": "https://sh.lianjia.com/zufang/SH1763490632468267008.html",
    "rent_type": "整租",
    "location": "杨浦-控江路-凤城三村东区",
    "scraped_at": "2026-04-23 15:49:02",
    "region": "kongjianglu",
    "unit_price": 120.0,
    "lat": 31.282893,
    "lng": 121.522997
  },
  {
    "title": "整租·凤城二村 2室2厅 南",
    "community": "凤城二村",
    "area": "87.92",
    "rooms": "2室2厅",
    "direction": "南",
    "floor": "",
    "price": "6000",
    "tags": "",
    "source": "",
    "url": "https://sh.lianjia.com/zufang/SH1880990012904833024.html",
    "rent_type": "整租",
    "location": "杨浦-控江路-凤城二村",
    "scraped_at": "2026-04-23 15:49:02",
    "region": "kongjianglu",
    "unit_price": 68.2,
    "lat": 31.279052,
    "lng": 121.518986
  },
  {
    "title": "整租·黄兴路1019弄 2室1厅 南",
    "community": "黄兴路1019弄",
    "area": "49.84",
    "rooms": "2室1厅",
    "direction": "南",
    "floor": "",
    "price": "4400",
    "tags": "",
    "source": "",
    "url": "https://sh.lianjia.com/zufang/SH2155508612187815936.html",
    "rent_type": "整租",
    "location": "杨浦-控江路-黄兴路",
    "scraped_at": "2026-04-23 15:49:02",
    "region": "kongjianglu",
    "unit_price": 88.3,
    "lat": 31.294803,
    "lng": 121.515978
  },
  {
    "title": "整租·控江路1200弄 1室1厅 南",
    "community": "控江路1200弄",
    "area": "30.00",
    "rooms": "1室1厅",
    "direction": "南",
    "floor": "",
    "price": "3400",
    "tags": "",
    "source": "",
    "url": "https://sh.lianjia.com/zufang/SH1907364777928163328.html",
    "rent_type": "整租",
    "location": "杨浦-控江路-控江路",
    "scraped_at": "2026-04-23 15:49:04",
    "region": "kongjianglu",
    "unit_price": 113.3,
    "lat": 31.278079,
    "lng": 121.526859
  },
  {
    "title": "整租·凤城三村东区 1室1厅 南",
    "community": "凤城三村东区",
    "area": "39.60",
    "rooms": "1室1厅",
    "direction": "南",
    "floor": "",
    "price": "3800",
    "tags": "",
    "source": "",
    "url": "https://sh.lianjia.com/zufang/SH2150139105109868544.html",
    "rent_type": "整租",
    "location": "杨浦-控江路-凤城三村东区",
    "scraped_at": "2026-04-23 15:49:02",
    "region": "kongjianglu",
    "unit_price": 96.0,
    "lat": 31.282893,
    "lng": 121.522997
  },
  {
    "title": "整租·延吉东路1弄 2室1厅 南",
    "community": "延吉东路1弄",
    "area": "53.53",
    "rooms": "2室1厅",
    "direction": "南",
    "floor": "",
    "price": "3885",
    "tags": "",
    "source": "",
    "url": "https://sh.lianjia.com/zufang/SH1991090956148932608.html",
    "rent_type": "整租",
    "location": "杨浦-控江路-延吉东路",
    "scraped_at": "2026-04-23 15:49:02",
    "region": "kongjianglu",
    "unit_price": 72.6,
    "lat": 31.284143,
    "lng": 121.534458
  },
  {
    "title": "整租·控江路1200弄 2室1厅 南",
    "community": "控江路1200弄",
    "area": "97.99",
    "rooms": "2室1厅",
    "direction": "南",
    "floor": "",
    "price": "7930",
    "tags": "",
    "source": "",
    "url": "https://sh.lianjia.com/zufang/SH1813272606879514624.html",
    "rent_type": "整租",
    "location": "杨浦-控江路-控江路",
    "scraped_at": "2026-04-23 15:49:04",
    "region": "kongjianglu",
    "unit_price": 80.9,
    "lat": 31.278079,
    "lng": 121.526859
  },
  {
    "title": "整租·延吉东路131弄 1室0厅 南",
    "community": "延吉东路131弄",
    "area": "31.71",
    "rooms": "1室0厅",
    "direction": "南",
    "floor": "",
    "price": "3675",
    "tags": "",
    "source": "",
    "url": "https://sh.lianjia.com/zufang/SH2009266828550864896.html",
    "rent_type": "整租",
    "location": "杨浦-控江路-延吉东路",
    "scraped_at": "2026-04-23 15:49:04",
    "region": "kongjianglu",
    "unit_price": 115.9,
    "lat": 31.284143,
    "lng": 121.534458
  },
  {
    "title": "整租·控江路1200弄 1室0厅 南",
    "community": "控江路1200弄",
    "area": "38.00",
    "rooms": "1室0厅",
    "direction": "南",
    "floor": "",
    "price": "4300",
    "tags": "",
    "source": "",
    "url": "https://sh.lianjia.com/zufang/SH2146902715567964160.html",
    "rent_type": "整租",
    "location": "杨浦-控江路-控江路",
    "scraped_at": "2026-04-23 15:49:02",
    "region": "kongjianglu",
    "unit_price": 113.2,
    "lat": 31.278079,
    "lng": 121.526859
  },
  {
    "title": "整租·凤城二村 1室0厅 南",
    "community": "凤城二村",
    "area": "33.82",
    "rooms": "1室0厅",
    "direction": "南",
    "floor": "",
    "price": "3400",
    "tags": "",
    "source": "",
    "url": "https://sh.lianjia.com/zufang/SH2142554363300675584.html",
    "rent_type": "整租",
    "location": "杨浦-控江路-凤城二村",
    "scraped_at": "2026-04-23 15:49:02",
    "region": "kongjianglu",
    "unit_price": 100.5,
    "lat": 31.279052,
    "lng": 121.518986
  },
  {
    "title": "整租·杨家浜小区 2室1厅 南",
    "community": "杨家浜小区",
    "area": "51.78",
    "rooms": "2室1厅",
    "direction": "南",
    "floor": "",
    "price": "6000",
    "tags": "",
    "source": "",
    "url": "https://sh.lianjia.com/zufang/SH2153834135678877696.html",
    "rent_type": "整租",
    "location": "杨浦-控江路-杨家浜小区",
    "scraped_at": "2026-04-23 15:49:02",
    "region": "kongjianglu",
    "unit_price": 115.9,
    "lat": 31.283812,
    "lng": 121.533966
  },
  {
    "title": "整租·双阳路503号 1室1厅 南",
    "community": "双阳路503号",
    "area": "32.88",
    "rooms": "1室1厅",
    "direction": "南",
    "floor": "",
    "price": "4000",
    "tags": "",
    "source": "",
    "url": "https://sh.lianjia.com/zufang/SH2145793967743041536.html",
    "rent_type": "整租",
    "location": "杨浦-控江路-双阳路",
    "scraped_at": "2026-04-23 15:49:02",
    "region": "kongjianglu",
    "unit_price": 121.7,
    "lat": 31.273813,
    "lng": 121.535457
  },
  {
    "title": "整租·凤城三村东区 1室1厅 北",
    "community": "凤城三村东区",
    "area": "29.00",
    "rooms": "1室1厅",
    "direction": "北",
    "floor": "",
    "price": "3000",
    "tags": "",
    "source": "",
    "url": "https://sh.lianjia.com/zufang/SH2006398192324706304.html",
    "rent_type": "整租",
    "location": "杨浦-控江路-凤城三村东区",
    "scraped_at": "2026-04-23 15:49:04",
    "region": "kongjianglu",
    "unit_price": 103.4,
    "lat": 31.282893,
    "lng": 121.522997
  },
  {
    "title": "整租·控江路652弄 2室1厅 南",
    "community": "控江路652弄",
    "area": "61.32",
    "rooms": "2室1厅",
    "direction": "南",
    "floor": "",
    "price": "5500",
    "tags": "",
    "source": "",
    "url": "https://sh.lianjia.com/zufang/SH2141589184312246272.html",
    "rent_type": "整租",
    "location": "杨浦-控江路-控江路",
    "scraped_at": "2026-04-23 15:49:04",
    "region": "kongjianglu",
    "unit_price": 89.7,
    "lat": 31.278079,
    "lng": 121.526859
  },
  {
    "title": "整租·延吉东路315弄 1室1厅 北",
    "community": "延吉东路315弄",
    "area": "26.44",
    "rooms": "1室1厅",
    "direction": "北",
    "floor": "",
    "price": "3330",
    "tags": "",
    "source": "",
    "url": "https://sh.lianjia.com/zufang/SH1952357061614370816.html",
    "rent_type": "整租",
    "location": "杨浦-控江路-延吉东路",
    "scraped_at": "2026-04-23 15:49:04",
    "region": "kongjianglu",
    "unit_price": 125.9,
    "lat": 31.284143,
    "lng": 121.534458
  },
  {
    "title": "整租·凤城路104弄 1室1厅 南",
    "community": "凤城路104弄",
    "area": "30.09",
    "rooms": "1室1厅",
    "direction": "南",
    "floor": "",
    "price": "3675",
    "tags": "",
    "source": "",
    "url": "https://sh.lianjia.com/zufang/SH2042950351195209728.html",
    "rent_type": "整租",
    "location": "杨浦-控江路-凤城路",
    "scraped_at": "2026-04-23 15:49:17",
    "region": "kongjianglu",
    "unit_price": 122.1,
    "lat": 31.278079,
    "lng": 121.526859
  },
  {
    "title": "整租·大运盛城 2室1厅 南/北",
    "community": "大运盛城",
    "area": "94.92",
    "rooms": "2室1厅",
    "direction": "南/北",
    "floor": "",
    "price": "7600",
    "tags": "",
    "source": "",
    "url": "https://sh.lianjia.com/zufang/SH2130901065132933120.html",
    "rent_type": "整租",
    "location": "杨浦-控江路-大运盛城",
    "scraped_at": "2026-04-23 15:49:04",
    "region": "kongjianglu",
    "unit_price": 80.1,
    "lat": 31.284611,
    "lng": 121.520424
  },
  {
    "title": "整租·凤城三村东区 2室1厅 南",
    "community": "凤城三村东区",
    "area": "56.28",
    "rooms": "2室1厅",
    "direction": "南",
    "floor": "",
    "price": "4730",
    "tags": "",
    "source": "",
    "url": "https://sh.lianjia.com/zufang/SH2143406109136781312.html",
    "rent_type": "整租",
    "location": "杨浦-控江路-凤城三村东区",
    "scraped_at": "2026-04-23 15:49:04",
    "region": "kongjianglu",
    "unit_price": 84.0,
    "lat": 31.282893,
    "lng": 121.522997
  },
  {
    "title": "整租·延吉东路115弄 1室1厅 南",
    "community": "延吉东路115弄",
    "area": "40.03",
    "rooms": "1室1厅",
    "direction": "南",
    "floor": "",
    "price": "3518",
    "tags": "",
    "source": "",
    "url": "https://sh.lianjia.com/zufang/SH2031239268281614336.html",
    "rent_type": "整租",
    "location": "杨浦-控江路-延吉东路",
    "scraped_at": "2026-04-23 15:49:17",
    "region": "kongjianglu",
    "unit_price": 87.9,
    "lat": 31.284143,
    "lng": 121.534458
  },
  {
    "title": "整租·安图路2弄 1室1厅 南",
    "community": "安图路2弄",
    "area": "42.32",
    "rooms": "1室1厅",
    "direction": "南",
    "floor": "",
    "price": "4130",
    "tags": "",
    "source": "",
    "url": "https://sh.lianjia.com/zufang/SH1851672472638717952.html",
    "rent_type": "整租",
    "location": "杨浦-控江路-安图路",
    "scraped_at": "2026-04-23 15:49:04",
    "region": "kongjianglu",
    "unit_price": 97.6,
    "lat": 31.286533,
    "lng": 121.546131
  },
  {
    "title": "整租·凤城三村东区 2室1厅 南",
    "community": "凤城三村东区",
    "area": "52.16",
    "rooms": "2室1厅",
    "direction": "南",
    "floor": "",
    "price": "4690",
    "tags": "",
    "source": "",
    "url": "https://sh.lianjia.com/zufang/SH1793932129181106176.html",
    "rent_type": "整租",
    "location": "杨浦-控江路-凤城三村东区",
    "scraped_at": "2026-04-23 15:49:04",
    "region": "kongjianglu",
    "unit_price": 89.9,
    "lat": 31.282893,
    "lng": 121.522997
  },
  {
    "title": "整租·凤城三村东区 1室1厅 北",
    "community": "凤城三村东区",
    "area": "25.99",
    "rooms": "1室1厅",
    "direction": "北",
    "floor": "",
    "price": "3590",
    "tags": "",
    "source": "",
    "url": "https://sh.lianjia.com/zufang/SH1860663852316753920.html",
    "rent_type": "整租",
    "location": "杨浦-控江路-凤城三村东区",
    "scraped_at": "2026-04-23 15:49:04",
    "region": "kongjianglu",
    "unit_price": 138.1,
    "lat": 31.282893,
    "lng": 121.522997
  },
  {
    "title": "整租·大运盛城 2室2厅 南",
    "community": "大运盛城",
    "area": "86.53",
    "rooms": "2室2厅",
    "direction": "南",
    "floor": "",
    "price": "8800",
    "tags": "",
    "source": "",
    "url": "https://sh.lianjia.com/zufang/SH2137505604422336512.html",
    "rent_type": "整租",
    "location": "杨浦-控江路-大运盛城",
    "scraped_at": "2026-04-23 15:49:04",
    "region": "kongjianglu",
    "unit_price": 101.7,
    "lat": 31.284611,
    "lng": 121.520424
  },
  {
    "title": "整租·凤城三村东区 1室1厅 北",
    "community": "凤城三村东区",
    "area": "27.52",
    "rooms": "1室1厅",
    "direction": "北",
    "floor": "",
    "price": "3330",
    "tags": "",
    "source": "",
    "url": "https://sh.lianjia.com/zufang/SH1804234459545862144.html",
    "rent_type": "整租",
    "location": "杨浦-控江路-凤城三村东区",
    "scraped_at": "2026-04-23 15:49:04",
    "region": "kongjianglu",
    "unit_price": 121.0,
    "lat": 31.282893,
    "lng": 121.522997
  },
  {
    "title": "整租·凤城三村西区 1室1厅 南",
    "community": "凤城三村西区",
    "area": "38.04",
    "rooms": "1室1厅",
    "direction": "南",
    "floor": "",
    "price": "3780",
    "tags": "",
    "source": "",
    "url": "https://sh.lianjia.com/zufang/SH2153784354621358080.html",
    "rent_type": "整租",
    "location": "杨浦-控江路-凤城三村西区",
    "scraped_at": "2026-04-23 15:49:17",
    "region": "kongjianglu",
    "unit_price": 99.4,
    "lat": 31.282893,
    "lng": 121.522997
  },
  {
    "title": "整租·凤城三村西区 1室0厅 南",
    "community": "凤城三村西区",
    "area": "40.24",
    "rooms": "1室0厅",
    "direction": "南",
    "floor": "",
    "price": "3800",
    "tags": "",
    "source": "",
    "url": "https://sh.lianjia.com/zufang/SH2116523767399186432.html",
    "rent_type": "整租",
    "location": "杨浦-控江路-凤城三村西区",
    "scraped_at": "2026-04-23 15:49:04",
    "region": "kongjianglu",
    "unit_price": 94.4,
    "lat": 31.282893,
    "lng": 121.522997
  },
  {
    "title": "整租·凤城四村 1室1厅 南",
    "community": "凤城四村",
    "area": "36.55",
    "rooms": "1室1厅",
    "direction": "南",
    "floor": "",
    "price": "4290",
    "tags": "",
    "source": "",
    "url": "https://sh.lianjia.com/zufang/SH1844771941232148480.html",
    "rent_type": "整租",
    "location": "杨浦-控江路-凤城四村",
    "scraped_at": "2026-04-23 15:49:04",
    "region": "kongjianglu",
    "unit_price": 117.4,
    "lat": 31.283821,
    "lng": 121.521487
  },
  {
    "title": "整租·黄兴路1019弄 3室1厅 南",
    "community": "黄兴路1019弄",
    "area": "69.47",
    "rooms": "3室1厅",
    "direction": "南",
    "floor": "",
    "price": "5600",
    "tags": "",
    "source": "",
    "url": "https://sh.lianjia.com/zufang/SH2150105561100713984.html",
    "rent_type": "整租",
    "location": "杨浦-控江路-黄兴路",
    "scraped_at": "2026-04-23 15:49:17",
    "region": "kongjianglu",
    "unit_price": 80.6,
    "lat": 31.294803,
    "lng": 121.515978
  },
  {
    "title": "整租·延吉一村 1室1厅 南",
    "community": "延吉一村",
    "area": "32.83",
    "rooms": "1室1厅",
    "direction": "南",
    "floor": "",
    "price": "4829",
    "tags": "",
    "source": "",
    "url": "https://sh.lianjia.com/zufang/SH2048282807024746496.html",
    "rent_type": "整租",
    "location": "杨浦-控江路-延吉一村",
    "scraped_at": "2026-04-23 15:49:04",
    "region": "kongjianglu",
    "unit_price": 147.1,
    "lat": 31.284135,
    "lng": 121.536815
  },
  {
    "title": "整租·延吉东路555弄 1室0厅 南",
    "community": "延吉东路555弄",
    "area": "41.24",
    "rooms": "1室0厅",
    "direction": "南",
    "floor": "",
    "price": "3045",
    "tags": "",
    "source": "",
    "url": "https://sh.lianjia.com/zufang/SH1932809137540825088.html",
    "rent_type": "整租",
    "location": "杨浦-控江路-延吉东路",
    "scraped_at": "2026-04-23 15:49:04",
    "region": "kongjianglu",
    "unit_price": 73.8,
    "lat": 31.284143,
    "lng": 121.534458
  },
  {
    "title": "整租·凤城六村 2室1厅 南/北",
    "community": "凤城六村",
    "area": "66.20",
    "rooms": "2室1厅",
    "direction": "南/北",
    "floor": "",
    "price": "5500",
    "tags": "",
    "source": "",
    "url": "https://sh.lianjia.com/zufang/SH2141516730415972352.html",
    "rent_type": "整租",
    "location": "杨浦-控江路-凤城六村",
    "scraped_at": "2026-04-23 15:49:04",
    "region": "kongjianglu",
    "unit_price": 83.1,
    "lat": 31.283633,
    "lng": 121.517425
  },
  {
    "title": "整租·新凤城 2室2厅 南",
    "community": "新凤城",
    "area": "98.12",
    "rooms": "2室2厅",
    "direction": "南",
    "floor": "",
    "price": "9800",
    "tags": "",
    "source": "",
    "url": "https://sh.lianjia.com/zufang/SH2151878922604642304.html",
    "rent_type": "整租",
    "location": "杨浦-控江路-新凤城",
    "scraped_at": "2026-04-23 15:49:04",
    "region": "kongjianglu",
    "unit_price": 99.9,
    "lat": 31.276412,
    "lng": 121.521524
  },
  {
    "title": "整租·延吉东路137弄 2室1厅 南/北",
    "community": "延吉东路137弄",
    "area": "55.89",
    "rooms": "2室1厅",
    "direction": "南/北",
    "floor": "",
    "price": "5200",
    "tags": "",
    "source": "",
    "url": "https://sh.lianjia.com/zufang/SH2155159035207221248.html",
    "rent_type": "整租",
    "location": "杨浦-控江路-延吉东路",
    "scraped_at": "2026-04-23 15:49:04",
    "region": "kongjianglu",
    "unit_price": 93.0,
    "lat": 31.284143,
    "lng": 121.534458
  },
  {
    "title": "整租·凤城五村 2室1厅 南",
    "community": "凤城五村",
    "area": "51.95",
    "rooms": "2室1厅",
    "direction": "南",
    "floor": "",
    "price": "4700",
    "tags": "",
    "source": "",
    "url": "https://sh.lianjia.com/zufang/SH2144711526865436672.html",
    "rent_type": "整租",
    "location": "杨浦-控江路-凤城五村",
    "scraped_at": "2026-04-23 15:49:04",
    "region": "kongjianglu",
    "unit_price": 90.5,
    "lat": 31.282573,
    "lng": 121.518465
  },
  {
    "title": "整租·凤城三村东区 1室0厅 南",
    "community": "凤城三村东区",
    "area": "34.20",
    "rooms": "1室0厅",
    "direction": "南",
    "floor": "",
    "price": "3750",
    "tags": "",
    "source": "",
    "url": "https://sh.lianjia.com/zufang/SH2150833361734598656.html",
    "rent_type": "整租",
    "location": "杨浦-控江路-凤城三村东区",
    "scraped_at": "2026-04-23 15:49:08",
    "region": "kongjianglu",
    "unit_price": 109.6,
    "lat": 31.282893,
    "lng": 121.522997
  },
  {
    "title": "整租·凤城六村 3室1厅 南",
    "community": "凤城六村",
    "area": "90.25",
    "rooms": "3室1厅",
    "direction": "南",
    "floor": "",
    "price": "6800",
    "tags": "",
    "source": "",
    "url": "https://sh.lianjia.com/zufang/SH2121119749906628608.html",
    "rent_type": "整租",
    "location": "杨浦-控江路-凤城六村",
    "scraped_at": "2026-04-23 15:49:08",
    "region": "kongjianglu",
    "unit_price": 75.3,
    "lat": 31.283633,
    "lng": 121.517425
  },
  {
    "title": "整租·延吉东路131弄 1室1厅 南",
    "community": "延吉东路131弄",
    "area": "32.65",
    "rooms": "1室1厅",
    "direction": "南",
    "floor": "",
    "price": "3200",
    "tags": "",
    "source": "",
    "url": "https://sh.lianjia.com/zufang/SH2115687851105452032.html",
    "rent_type": "整租",
    "location": "杨浦-控江路-延吉东路",
    "scraped_at": "2026-04-23 15:49:08",
    "region": "kongjianglu",
    "unit_price": 98.0,
    "lat": 31.284143,
    "lng": 121.534458
  },
  {
    "title": "整租·凤城一村 2室1厅 南",
    "community": "凤城一村",
    "area": "63.42",
    "rooms": "2室1厅",
    "direction": "南",
    "floor": "",
    "price": "5800",
    "tags": "",
    "source": "",
    "url": "https://sh.lianjia.com/zufang/SH2142485138066374656.html",
    "rent_type": "整租",
    "location": "杨浦-控江路-凤城一村",
    "scraped_at": "2026-04-23 15:49:08",
    "region": "kongjianglu",
    "unit_price": 91.5,
    "lat": 31.276517,
    "lng": 121.518578
  },
  {
    "title": "整租·控江路1436号 1室1厅 南",
    "community": "控江路1436号",
    "area": "41.50",
    "rooms": "1室1厅",
    "direction": "南",
    "floor": "",
    "price": "4200",
    "tags": "",
    "source": "",
    "url": "https://sh.lianjia.com/zufang/SH2140051461013241856.html",
    "rent_type": "整租",
    "location": "杨浦-控江路-控江路",
    "scraped_at": "2026-04-23 15:49:08",
    "region": "kongjianglu",
    "unit_price": 101.2,
    "lat": 31.278079,
    "lng": 121.526859
  },
  {
    "title": "整租·凤城六村 2室1厅 南",
    "community": "凤城六村",
    "area": "73.06",
    "rooms": "2室1厅",
    "direction": "南",
    "floor": "",
    "price": "6000",
    "tags": "",
    "source": "",
    "url": "https://sh.lianjia.com/zufang/SH2138507090405097472.html",
    "rent_type": "整租",
    "location": "杨浦-控江路-凤城六村",
    "scraped_at": "2026-04-23 15:49:08",
    "region": "kongjianglu",
    "unit_price": 82.1,
    "lat": 31.283633,
    "lng": 121.517425
  },
  {
    "title": "整租·大运盛城 3室2厅 南",
    "community": "大运盛城",
    "area": "135.00",
    "rooms": "3室2厅",
    "direction": "南",
    "floor": "",
    "price": "12000",
    "tags": "",
    "source": "",
    "url": "https://sh.lianjia.com/zufang/SH2147972528012787712.html",
    "rent_type": "整租",
    "location": "杨浦-控江路-大运盛城",
    "scraped_at": "2026-04-23 15:49:08",
    "region": "kongjianglu",
    "unit_price": 88.9,
    "lat": 31.284611,
    "lng": 121.520424
  },
  {
    "title": "整租·凤城三村西区 1室1厅 南",
    "community": "凤城三村西区",
    "area": "35.16",
    "rooms": "1室1厅",
    "direction": "南",
    "floor": "",
    "price": "3500",
    "tags": "",
    "source": "",
    "url": "https://sh.lianjia.com/zufang/SH2120742966371811328.html",
    "rent_type": "整租",
    "location": "杨浦-控江路-凤城三村西区",
    "scraped_at": "2026-04-23 15:49:08",
    "region": "kongjianglu",
    "unit_price": 99.5,
    "lat": 31.282893,
    "lng": 121.522997
  },
  {
    "title": "整租·延吉东路131弄 2室1厅 南",
    "community": "延吉东路131弄",
    "area": "52.48",
    "rooms": "2室1厅",
    "direction": "南",
    "floor": "",
    "price": "5000",
    "tags": "",
    "source": "",
    "url": "https://sh.lianjia.com/zufang/SH2147602365375578112.html",
    "rent_type": "整租",
    "location": "杨浦-控江路-延吉东路",
    "scraped_at": "2026-04-23 15:49:08",
    "region": "kongjianglu",
    "unit_price": 95.3,
    "lat": 31.284143,
    "lng": 121.534458
  },
  {
    "title": "整租·控江二村 1室1厅 南",
    "community": "控江二村",
    "area": "38.89",
    "rooms": "1室1厅",
    "direction": "南",
    "floor": "",
    "price": "4200",
    "tags": "",
    "source": "",
    "url": "https://sh.lianjia.com/zufang/SH2149057219142877184.html",
    "rent_type": "整租",
    "location": "杨浦-控江路-控江二村",
    "scraped_at": "2026-04-23 15:49:08",
    "region": "kongjianglu",
    "unit_price": 108.0,
    "lat": 31.279656,
    "lng": 121.525932
  },
  {
    "title": "整租·双阳路501号 1室1厅 南",
    "community": "双阳路501号",
    "area": "44.00",
    "rooms": "1室1厅",
    "direction": "南",
    "floor": "",
    "price": "4000",
    "tags": "",
    "source": "",
    "url": "https://sh.lianjia.com/zufang/SH2146893856140951552.html",
    "rent_type": "整租",
    "location": "杨浦-控江路-双阳路",
    "scraped_at": "2026-04-23 15:49:08",
    "region": "kongjianglu",
    "unit_price": 90.9,
    "lat": 31.273813,
    "lng": 121.535457
  },
  {
    "title": "整租·凤城三村东区 1室0厅 南",
    "community": "凤城三村东区",
    "area": "29.51",
    "rooms": "1室0厅",
    "direction": "南",
    "floor": "",
    "price": "3200",
    "tags": "",
    "source": "",
    "url": "https://sh.lianjia.com/zufang/SH2139298296416436224.html",
    "rent_type": "整租",
    "location": "杨浦-控江路-凤城三村东区",
    "scraped_at": "2026-04-23 15:49:08",
    "region": "kongjianglu",
    "unit_price": 108.4,
    "lat": 31.282893,
    "lng": 121.522997
  },
  {
    "title": "整租·新凤城 1室2厅 南",
    "community": "新凤城",
    "area": "60.30",
    "rooms": "1室2厅",
    "direction": "南",
    "floor": "",
    "price": "6800",
    "tags": "",
    "source": "",
    "url": "https://sh.lianjia.com/zufang/SH2154089831502708736.html",
    "rent_type": "整租",
    "location": "杨浦-控江路-新凤城",
    "scraped_at": "2026-04-23 15:49:08",
    "region": "kongjianglu",
    "unit_price": 112.8,
    "lat": 31.276412,
    "lng": 121.521524
  },
  {
    "title": "整租·凤城二村 1室1厅 南",
    "community": "凤城二村",
    "area": "41.19",
    "rooms": "1室1厅",
    "direction": "南",
    "floor": "",
    "price": "3800",
    "tags": "",
    "source": "",
    "url": "https://sh.lianjia.com/zufang/SH2131606840037867520.html",
    "rent_type": "整租",
    "location": "杨浦-控江路-凤城二村",
    "scraped_at": "2026-04-23 15:49:08",
    "region": "kongjianglu",
    "unit_price": 92.3,
    "lat": 31.279052,
    "lng": 121.518986
  },
  {
    "title": "整租·东方名园 2室2厅 南",
    "community": "东方名园",
    "area": "103.66",
    "rooms": "2室2厅",
    "direction": "南",
    "floor": "",
    "price": "11500",
    "tags": "",
    "source": "",
    "url": "https://sh.lianjia.com/zufang/SH2123979996480405504.html",
    "rent_type": "整租",
    "location": "杨浦-控江路-东方名园",
    "scraped_at": "2026-04-23 15:49:08",
    "region": "kongjianglu",
    "unit_price": 110.9,
    "lat": 31.280739,
    "lng": 121.525343
  },
  {
    "title": "整租·控江七村 2室1厅 南",
    "community": "控江七村",
    "area": "48.00",
    "rooms": "2室1厅",
    "direction": "南",
    "floor": "",
    "price": "4000",
    "tags": "",
    "source": "",
    "url": "https://sh.lianjia.com/zufang/SH2137915445011808256.html",
    "rent_type": "整租",
    "location": "杨浦-控江路-控江七村",
    "scraped_at": "2026-04-23 15:49:08",
    "region": "kongjianglu",
    "unit_price": 83.3,
    "lat": 31.282917,
    "lng": 121.532166
  },
  {
    "title": "整租·新凤城 5室3厅 东南/南",
    "community": "新凤城",
    "area": "205.67",
    "rooms": "5室3厅",
    "direction": "东南/南",
    "floor": "",
    "price": "25000",
    "tags": "",
    "source": "",
    "url": "https://sh.lianjia.com/zufang/SH2024769317907726336.html",
    "rent_type": "整租",
    "location": "杨浦-控江路-新凤城",
    "scraped_at": "2026-04-23 15:49:08",
    "region": "kongjianglu",
    "unit_price": 121.6,
    "lat": 31.276412,
    "lng": 121.521524
  },
  {
    "title": "整租·双阳路503号 1室0厅 南",
    "community": "双阳路503号",
    "area": "32.88",
    "rooms": "1室0厅",
    "direction": "南",
    "floor": "",
    "price": "3800",
    "tags": "",
    "source": "",
    "url": "https://sh.lianjia.com/zufang/SH2156721837222920192.html",
    "rent_type": "整租",
    "location": "杨浦-控江路-双阳路",
    "scraped_at": "2026-04-23 15:49:08",
    "region": "kongjianglu",
    "unit_price": 115.6,
    "lat": 31.273813,
    "lng": 121.535457
  },
  {
    "title": "整租·益晖新苑 2室1厅 南",
    "community": "益晖新苑",
    "area": "70.00",
    "rooms": "2室1厅",
    "direction": "南",
    "floor": "",
    "price": "8200",
    "tags": "",
    "source": "",
    "url": "https://sh.lianjia.com/zufang/SH2123056689828593664.html",
    "rent_type": "整租",
    "location": "杨浦-控江路-益晖新苑",
    "scraped_at": "2026-04-23 15:49:08",
    "region": "kongjianglu",
    "unit_price": 117.1,
    "lat": 31.290227,
    "lng": 121.544996
  },
  {
    "title": "整租·凤城三村东区 1室1厅 北",
    "community": "凤城三村东区",
    "area": "22.46",
    "rooms": "1室1厅",
    "direction": "北",
    "floor": "",
    "price": "3100",
    "tags": "",
    "source": "",
    "url": "https://sh.lianjia.com/zufang/SH2151177357958840320.html",
    "rent_type": "整租",
    "location": "杨浦-控江路-凤城三村东区",
    "scraped_at": "2026-04-23 15:49:08",
    "region": "kongjianglu",
    "unit_price": 138.0,
    "lat": 31.282893,
    "lng": 121.522997
  },
  {
    "title": "整租·大运盛城 1室2厅 东/南",
    "community": "大运盛城",
    "area": "66.99",
    "rooms": "1室2厅",
    "direction": "东/南",
    "floor": "",
    "price": "7000",
    "tags": "",
    "source": "",
    "url": "https://sh.lianjia.com/zufang/SH2127270352856809472.html",
    "rent_type": "整租",
    "location": "杨浦-控江路-大运盛城",
    "scraped_at": "2026-04-23 15:49:08",
    "region": "kongjianglu",
    "unit_price": 104.5,
    "lat": 31.284611,
    "lng": 121.520424
  },
  {
    "title": "整租·杨浦公寓 2室2厅 南",
    "community": "杨浦公寓",
    "area": "107.85",
    "rooms": "2室2厅",
    "direction": "南",
    "floor": "",
    "price": "11000",
    "tags": "",
    "source": "",
    "url": "https://sh.lianjia.com/zufang/SH2053777579319492608.html",
    "rent_type": "整租",
    "location": "杨浦-控江路-杨浦公寓",
    "scraped_at": "2026-04-23 15:49:08",
    "region": "kongjianglu",
    "unit_price": 102.0,
    "lat": 31.281235,
    "lng": 121.531413
  },
  {
    "title": "整租·杨家浜小区 1室0厅 南",
    "community": "杨家浜小区",
    "area": "31.36",
    "rooms": "1室0厅",
    "direction": "南",
    "floor": "",
    "price": "3500",
    "tags": "",
    "source": "",
    "url": "https://sh.lianjia.com/zufang/SH2138199836820766720.html",
    "rent_type": "整租",
    "location": "杨浦-控江路-杨家浜小区",
    "scraped_at": "2026-04-23 15:49:08",
    "region": "kongjianglu",
    "unit_price": 111.6,
    "lat": 31.283812,
    "lng": 121.533966
  },
  {
    "title": "整租·延吉东路125弄 1室1厅 南",
    "community": "延吉东路125弄",
    "area": "32.54",
    "rooms": "1室1厅",
    "direction": "南",
    "floor": "",
    "price": "3350",
    "tags": "",
    "source": "",
    "url": "https://sh.lianjia.com/zufang/SH2140302642688032768.html",
    "rent_type": "整租",
    "location": "杨浦-控江路-延吉东路",
    "scraped_at": "2026-04-23 15:49:08",
    "region": "kongjianglu",
    "unit_price": 103.0,
    "lat": 31.284143,
    "lng": 121.534458
  },
  {
    "title": "整租·凤城三村东区 3室0厅 南",
    "community": "凤城三村东区",
    "area": "65.29",
    "rooms": "3室0厅",
    "direction": "南",
    "floor": "",
    "price": "6000",
    "tags": "",
    "source": "",
    "url": "https://sh.lianjia.com/zufang/SH2143591405421854720.html",
    "rent_type": "整租",
    "location": "杨浦-控江路-凤城三村东区",
    "scraped_at": "2026-04-23 15:49:08",
    "region": "kongjianglu",
    "unit_price": 91.9,
    "lat": 31.282893,
    "lng": 121.522997
  },
  {
    "title": "整租·凤六新苑 3室1厅 南",
    "community": "凤六新苑",
    "area": "100.78",
    "rooms": "3室1厅",
    "direction": "南",
    "floor": "",
    "price": "7500",
    "tags": "",
    "source": "",
    "url": "https://sh.lianjia.com/zufang/SH2148052365280804864.html",
    "rent_type": "整租",
    "location": "杨浦-控江路-凤六新苑",
    "scraped_at": "2026-04-23 15:49:08",
    "region": "kongjianglu",
    "unit_price": 74.4,
    "lat": 31.284469,
    "lng": 121.51669
  },
  {
    "title": "整租·黄兴路1039弄 1室1厅 南",
    "community": "黄兴路1039弄",
    "area": "26.00",
    "rooms": "1室1厅",
    "direction": "南",
    "floor": "",
    "price": "3200",
    "tags": "",
    "source": "",
    "url": "https://sh.lianjia.com/zufang/SH2148338452628766720.html",
    "rent_type": "整租",
    "location": "杨浦-控江路-黄兴路",
    "scraped_at": "2026-04-23 15:49:08",
    "region": "kongjianglu",
    "unit_price": 123.1,
    "lat": 31.294803,
    "lng": 121.515978
  },
  {
    "title": "整租·杨家浜小区 3室1厅 南/北",
    "community": "杨家浜小区",
    "area": "86.01",
    "rooms": "3室1厅",
    "direction": "南/北",
    "floor": "",
    "price": "8000",
    "tags": "",
    "source": "",
    "url": "https://sh.lianjia.com/zufang/SH2142908545589313536.html",
    "rent_type": "整租",
    "location": "杨浦-控江路-杨家浜小区",
    "scraped_at": "2026-04-23 15:49:08",
    "region": "kongjianglu",
    "unit_price": 93.0,
    "lat": 31.283812,
    "lng": 121.533966
  },
  {
    "title": "整租·凤城一村 1室1厅 南",
    "community": "凤城一村",
    "area": "41.00",
    "rooms": "1室1厅",
    "direction": "南",
    "floor": "",
    "price": "5000",
    "tags": "",
    "source": "",
    "url": "https://sh.lianjia.com/zufang/SH2154444593662263296.html",
    "rent_type": "整租",
    "location": "杨浦-控江路-凤城一村",
    "scraped_at": "2026-04-23 15:49:08",
    "region": "kongjianglu",
    "unit_price": 122.0,
    "lat": 31.276517,
    "lng": 121.518578
  },
  {
    "title": "整租·凤城二村 2室0厅 南",
    "community": "凤城二村",
    "area": "51.21",
    "rooms": "2室0厅",
    "direction": "南",
    "floor": "",
    "price": "6500",
    "tags": "",
    "source": "",
    "url": "https://sh.lianjia.com/zufang/SH2139601113614123008.html",
    "rent_type": "整租",
    "location": "杨浦-控江路-凤城二村",
    "scraped_at": "2026-04-23 15:49:11",
    "region": "kongjianglu",
    "unit_price": 126.9,
    "lat": 31.279052,
    "lng": 121.518986
  },
  {
    "title": "整租·控江路1200弄 1室0厅 南",
    "community": "控江路1200弄",
    "area": "22.00",
    "rooms": "1室0厅",
    "direction": "南",
    "floor": "",
    "price": "3100",
    "tags": "",
    "source": "",
    "url": "https://sh.lianjia.com/zufang/SH2111439642556366848.html",
    "rent_type": "整租",
    "location": "杨浦-控江路-控江路",
    "scraped_at": "2026-04-23 15:49:11",
    "region": "kongjianglu",
    "unit_price": 140.9,
    "lat": 31.278079,
    "lng": 121.526859
  },
  {
    "title": "整租·控江路1200弄 1室1厅 南",
    "community": "控江路1200弄",
    "area": "35.97",
    "rooms": "1室1厅",
    "direction": "南",
    "floor": "",
    "price": "4200",
    "tags": "",
    "source": "",
    "url": "https://sh.lianjia.com/zufang/SH2151621428082900992.html",
    "rent_type": "整租",
    "location": "杨浦-控江路-控江路",
    "scraped_at": "2026-04-23 15:49:11",
    "region": "kongjianglu",
    "unit_price": 116.8,
    "lat": 31.278079,
    "lng": 121.526859
  },
  {
    "title": "整租·韵都城 2室2厅 南/北",
    "community": "韵都城",
    "area": "95.63",
    "rooms": "2室2厅",
    "direction": "南/北",
    "floor": "",
    "price": "9000",
    "tags": "",
    "source": "",
    "url": "https://sh.lianjia.com/zufang/SH2154780776984477696.html",
    "rent_type": "整租",
    "location": "杨浦-控江路-韵都城",
    "scraped_at": "2026-04-23 15:49:11",
    "region": "kongjianglu",
    "unit_price": 94.1,
    "lat": 31.288828,
    "lng": 121.545712
  },
  {
    "title": "整租·黄兴路619弄 3室0厅 南",
    "community": "黄兴路619弄",
    "area": "46.17",
    "rooms": "3室0厅",
    "direction": "南",
    "floor": "",
    "price": "4800",
    "tags": "",
    "source": "",
    "url": "https://sh.lianjia.com/zufang/SH2150869328545710080.html",
    "rent_type": "整租",
    "location": "杨浦-控江路-黄兴路",
    "scraped_at": "2026-04-23 15:49:11",
    "region": "kongjianglu",
    "unit_price": 104.0,
    "lat": 31.294803,
    "lng": 121.515978
  },
  {
    "title": "整租·控江七村 1室0厅 南",
    "community": "控江七村",
    "area": "29.04",
    "rooms": "1室0厅",
    "direction": "南",
    "floor": "",
    "price": "3600",
    "tags": "",
    "source": "",
    "url": "https://sh.lianjia.com/zufang/SH2109854464671219712.html",
    "rent_type": "整租",
    "location": "杨浦-控江路-控江七村",
    "scraped_at": "2026-04-23 15:49:11",
    "region": "kongjianglu",
    "unit_price": 124.0,
    "lat": 31.282917,
    "lng": 121.532166
  },
  {
    "title": "整租·紫罗兰家苑 1室1厅 南",
    "community": "紫罗兰家苑",
    "area": "71.87",
    "rooms": "1室1厅",
    "direction": "南",
    "floor": "",
    "price": "5000",
    "tags": "",
    "source": "",
    "url": "https://sh.lianjia.com/zufang/SH2154089510256771072.html",
    "rent_type": "整租",
    "location": "杨浦-控江路-紫罗兰家苑",
    "scraped_at": "2026-04-23 15:49:11",
    "region": "kongjianglu",
    "unit_price": 69.6,
    "lat": 31.281626,
    "lng": 121.527399
  },
  {
    "title": "整租·控江路896弄 1室0厅 南",
    "community": "控江路896弄",
    "area": "41.35",
    "rooms": "1室0厅",
    "direction": "南",
    "floor": "",
    "price": "4000",
    "tags": "",
    "source": "",
    "url": "https://sh.lianjia.com/zufang/SH2113936519080181760.html",
    "rent_type": "整租",
    "location": "杨浦-控江路-控江路",
    "scraped_at": "2026-04-23 15:49:11",
    "region": "kongjianglu",
    "unit_price": 96.7,
    "lat": 31.278079,
    "lng": 121.526859
  },
  {
    "title": "整租·图们小区 2室1厅 南",
    "community": "图们小区",
    "area": "77.40",
    "rooms": "2室1厅",
    "direction": "南",
    "floor": "",
    "price": "5500",
    "tags": "",
    "source": "",
    "url": "https://sh.lianjia.com/zufang/SH2150826284706430976.html",
    "rent_type": "整租",
    "location": "杨浦-控江路-图们小区",
    "scraped_at": "2026-04-23 15:49:11",
    "region": "kongjianglu",
    "unit_price": 71.1,
    "lat": 31.292772,
    "lng": 121.547122
  },
  {
    "title": "整租·控江路652弄 1室1厅 南",
    "community": "控江路652弄",
    "area": "35.18",
    "rooms": "1室1厅",
    "direction": "南",
    "floor": "",
    "price": "4000",
    "tags": "",
    "source": "",
    "url": "https://sh.lianjia.com/zufang/SH2148974988919570432.html",
    "rent_type": "整租",
    "location": "杨浦-控江路-控江路",
    "scraped_at": "2026-04-23 15:49:11",
    "region": "kongjianglu",
    "unit_price": 113.7,
    "lat": 31.278079,
    "lng": 121.526859
  },
  {
    "title": "整租·延吉一村 2室0厅 南",
    "community": "延吉一村",
    "area": "42.79",
    "rooms": "2室0厅",
    "direction": "南",
    "floor": "",
    "price": "5800",
    "tags": "",
    "source": "",
    "url": "https://sh.lianjia.com/zufang/SH2089664008297644032.html",
    "rent_type": "整租",
    "location": "杨浦-控江路-延吉一村",
    "scraped_at": "2026-04-23 15:49:11",
    "region": "kongjianglu",
    "unit_price": 135.5,
    "lat": 31.284135,
    "lng": 121.536815
  },
  {
    "title": "整租·凤城六村 3室1厅 南/北",
    "community": "凤城六村",
    "area": "89.90",
    "rooms": "3室1厅",
    "direction": "南/北",
    "floor": "",
    "price": "8000",
    "tags": "",
    "source": "",
    "url": "https://sh.lianjia.com/zufang/SH2116153281318223872.html",
    "rent_type": "整租",
    "location": "杨浦-控江路-凤城六村",
    "scraped_at": "2026-04-23 15:49:11",
    "region": "kongjianglu",
    "unit_price": 89.0,
    "lat": 31.283633,
    "lng": 121.517425
  },
  {
    "title": "整租·靖宇南路5弄 1室1厅 南",
    "community": "靖宇南路5弄",
    "area": "30.76",
    "rooms": "1室1厅",
    "direction": "南",
    "floor": "",
    "price": "3900",
    "tags": "",
    "source": "",
    "url": "https://sh.lianjia.com/zufang/SH2156223554109046784.html",
    "rent_type": "整租",
    "location": "杨浦-控江路-靖宇南路",
    "scraped_at": "2026-04-23 15:49:11",
    "region": "kongjianglu",
    "unit_price": 126.8,
    "lat": 31.278079,
    "lng": 121.526859
  },
  {
    "title": "整租·凤城二村 1室1厅 南",
    "community": "凤城二村",
    "area": "30.00",
    "rooms": "1室1厅",
    "direction": "南",
    "floor": "",
    "price": "3000",
    "tags": "",
    "source": "",
    "url": "https://sh.lianjia.com/zufang/SH2154141122031517696.html",
    "rent_type": "整租",
    "location": "杨浦-控江路-凤城二村",
    "scraped_at": "2026-04-23 15:49:11",
    "region": "kongjianglu",
    "unit_price": 100.0,
    "lat": 31.279052,
    "lng": 121.518986
  },
  {
    "title": "整租·凤城六村 1室1厅 南",
    "community": "凤城六村",
    "area": "41.19",
    "rooms": "1室1厅",
    "direction": "南",
    "floor": "",
    "price": "3800",
    "tags": "",
    "source": "",
    "url": "https://sh.lianjia.com/zufang/SH2139347997786374144.html",
    "rent_type": "整租",
    "location": "杨浦-控江路-凤城六村",
    "scraped_at": "2026-04-23 15:49:11",
    "region": "kongjianglu",
    "unit_price": 92.3,
    "lat": 31.283633,
    "lng": 121.517425
  },
  {
    "title": "整租·凤城二村 1室1厅 南",
    "community": "凤城二村",
    "area": "34.00",
    "rooms": "1室1厅",
    "direction": "南",
    "floor": "",
    "price": "3800",
    "tags": "",
    "source": "",
    "url": "https://sh.lianjia.com/zufang/SH2140460593037967360.html",
    "rent_type": "整租",
    "location": "杨浦-控江路-凤城二村",
    "scraped_at": "2026-04-23 15:49:11",
    "region": "kongjianglu",
    "unit_price": 111.8,
    "lat": 31.279052,
    "lng": 121.518986
  },
  {
    "title": "整租·控江路1200弄 1室0厅 北",
    "community": "控江路1200弄",
    "area": "22.21",
    "rooms": "1室0厅",
    "direction": "北",
    "floor": "",
    "price": "3500",
    "tags": "",
    "source": "",
    "url": "https://sh.lianjia.com/zufang/SH2102621726192959488.html",
    "rent_type": "整租",
    "location": "杨浦-控江路-控江路",
    "scraped_at": "2026-04-23 15:49:11",
    "region": "kongjianglu",
    "unit_price": 157.6,
    "lat": 31.278079,
    "lng": 121.526859
  },
  {
    "title": "整租·凤城三村东区 1室0厅 南",
    "community": "凤城三村东区",
    "area": "34.21",
    "rooms": "1室0厅",
    "direction": "南",
    "floor": "",
    "price": "2500",
    "tags": "",
    "source": "",
    "url": "https://sh.lianjia.com/zufang/SH2102620534272425984.html",
    "rent_type": "整租",
    "location": "杨浦-控江路-凤城三村东区",
    "scraped_at": "2026-04-23 15:49:11",
    "region": "kongjianglu",
    "unit_price": 73.1,
    "lat": 31.282893,
    "lng": 121.522997
  },
  {
    "title": "整租·凤城三村东区 1室0厅 南",
    "community": "凤城三村东区",
    "area": "29.51",
    "rooms": "1室0厅",
    "direction": "南",
    "floor": "",
    "price": "3300",
    "tags": "",
    "source": "",
    "url": "https://sh.lianjia.com/zufang/SH2150846278529974272.html",
    "rent_type": "整租",
    "location": "杨浦-控江路-凤城三村东区",
    "scraped_at": "2026-04-23 15:49:11",
    "region": "kongjianglu",
    "unit_price": 111.8,
    "lat": 31.282893,
    "lng": 121.522997
  },
  {
    "title": "整租·黄兴路619弄 1室1厅 南",
    "community": "黄兴路619弄",
    "area": "35.49",
    "rooms": "1室1厅",
    "direction": "南",
    "floor": "",
    "price": "3800",
    "tags": "",
    "source": "",
    "url": "https://sh.lianjia.com/zufang/SH2145416683550932992.html",
    "rent_type": "整租",
    "location": "杨浦-控江路-黄兴路",
    "scraped_at": "2026-04-23 15:49:11",
    "region": "kongjianglu",
    "unit_price": 107.1,
    "lat": 31.294803,
    "lng": 121.515978
  },
  {
    "title": "整租·延吉东路315弄 1室1厅 北",
    "community": "延吉东路315弄",
    "area": "26.44",
    "rooms": "1室1厅",
    "direction": "北",
    "floor": "",
    "price": "3100",
    "tags": "",
    "source": "",
    "url": "https://sh.lianjia.com/zufang/SH2150435096446894080.html",
    "rent_type": "整租",
    "location": "杨浦-控江路-延吉东路",
    "scraped_at": "2026-04-23 15:49:11",
    "region": "kongjianglu",
    "unit_price": 117.2,
    "lat": 31.284143,
    "lng": 121.534458
  },
  {
    "title": "整租·凤城二村 1室0厅 南",
    "community": "凤城二村",
    "area": "30.85",
    "rooms": "1室0厅",
    "direction": "南",
    "floor": "",
    "price": "2800",
    "tags": "",
    "source": "",
    "url": "https://sh.lianjia.com/zufang/SH2152686105537806336.html",
    "rent_type": "整租",
    "location": "杨浦-控江路-凤城二村",
    "scraped_at": "2026-04-23 15:49:11",
    "region": "kongjianglu",
    "unit_price": 90.8,
    "lat": 31.279052,
    "lng": 121.518986
  },
  {
    "title": "整租·杨家浜小区 3室1厅 南",
    "community": "杨家浜小区",
    "area": "51.78",
    "rooms": "3室1厅",
    "direction": "南",
    "floor": "",
    "price": "6800",
    "tags": "",
    "source": "",
    "url": "https://sh.lianjia.com/zufang/SH2153070633775267840.html",
    "rent_type": "整租",
    "location": "杨浦-控江路-杨家浜小区",
    "scraped_at": "2026-04-23 15:49:11",
    "region": "kongjianglu",
    "unit_price": 131.3,
    "lat": 31.283812,
    "lng": 121.533966
  },
  {
    "title": "整租·杨家浜小区 1室0厅 北",
    "community": "杨家浜小区",
    "area": "24.25",
    "rooms": "1室0厅",
    "direction": "北",
    "floor": "",
    "price": "3000",
    "tags": "",
    "source": "",
    "url": "https://sh.lianjia.com/zufang/SH2140357639777812480.html",
    "rent_type": "整租",
    "location": "杨浦-控江路-杨家浜小区",
    "scraped_at": "2026-04-23 15:49:11",
    "region": "kongjianglu",
    "unit_price": 123.7,
    "lat": 31.283812,
    "lng": 121.533966
  },
  {
    "title": "整租·凤城二村 1室1厅 东",
    "community": "凤城二村",
    "area": "36.35",
    "rooms": "1室1厅",
    "direction": "东",
    "floor": "",
    "price": "3700",
    "tags": "",
    "source": "",
    "url": "https://sh.lianjia.com/zufang/SH2157048874374529024.html",
    "rent_type": "整租",
    "location": "杨浦-控江路-凤城二村",
    "scraped_at": "2026-04-23 15:49:11",
    "region": "kongjianglu",
    "unit_price": 101.8,
    "lat": 31.279052,
    "lng": 121.518986
  },
  {
    "title": "整租·凤城三村东区 2室1厅 南",
    "community": "凤城三村东区",
    "area": "60.78",
    "rooms": "2室1厅",
    "direction": "南",
    "floor": "",
    "price": "5500",
    "tags": "",
    "source": "",
    "url": "https://sh.lianjia.com/zufang/SH2145122837919170560.html",
    "rent_type": "整租",
    "location": "杨浦-控江路-凤城三村东区",
    "scraped_at": "2026-04-23 15:49:11",
    "region": "kongjianglu",
    "unit_price": 90.5,
    "lat": 31.282893,
    "lng": 121.522997
  },
  {
    "title": "整租·安图路2弄 1室1厅 南",
    "community": "安图路2弄",
    "area": "44.36",
    "rooms": "1室1厅",
    "direction": "南",
    "floor": "",
    "price": "3800",
    "tags": "",
    "source": "",
    "url": "https://sh.lianjia.com/zufang/SH2096462637570195456.html",
    "rent_type": "整租",
    "location": "杨浦-控江路-安图路",
    "scraped_at": "2026-04-23 15:49:11",
    "region": "kongjianglu",
    "unit_price": 85.7,
    "lat": 31.286533,
    "lng": 121.546131
  },
  {
    "title": "整租·凤城三村东区 1室1厅 南",
    "community": "凤城三村东区",
    "area": "43.06",
    "rooms": "1室1厅",
    "direction": "南",
    "floor": "",
    "price": "3500",
    "tags": "",
    "source": "",
    "url": "https://sh.lianjia.com/zufang/SH2144022476688982016.html",
    "rent_type": "整租",
    "location": "杨浦-控江路-凤城三村东区",
    "scraped_at": "2026-04-23 15:49:11",
    "region": "kongjianglu",
    "unit_price": 81.3,
    "lat": 31.282893,
    "lng": 121.522997
  },
  {
    "title": "整租·控江路1200弄 2室0厅 南",
    "community": "控江路1200弄",
    "area": "32.76",
    "rooms": "2室0厅",
    "direction": "南",
    "floor": "",
    "price": "4000",
    "tags": "",
    "source": "",
    "url": "https://sh.lianjia.com/zufang/SH2145897314852536320.html",
    "rent_type": "整租",
    "location": "杨浦-控江路-控江路",
    "scraped_at": "2026-04-23 15:49:11",
    "region": "kongjianglu",
    "unit_price": 122.1,
    "lat": 31.278079,
    "lng": 121.526859
  },
  {
    "title": "整租·延吉东路131弄 2室0厅 南",
    "community": "延吉东路131弄",
    "area": "33.84",
    "rooms": "2室0厅",
    "direction": "南",
    "floor": "",
    "price": "3990",
    "tags": "",
    "source": "",
    "url": "https://sh.lianjia.com/zufang/SH2154090347288854528.html",
    "rent_type": "整租",
    "location": "杨浦-控江路-延吉东路",
    "scraped_at": "2026-04-23 15:49:14",
    "region": "kongjianglu",
    "unit_price": 117.9,
    "lat": 31.284143,
    "lng": 121.534458
  },
  {
    "title": "整租·凤城二村 1室0厅 北",
    "community": "凤城二村",
    "area": "30.05",
    "rooms": "1室0厅",
    "direction": "北",
    "floor": "",
    "price": "2900",
    "tags": "",
    "source": "",
    "url": "https://sh.lianjia.com/zufang/SH2121145020638560256.html",
    "rent_type": "整租",
    "location": "杨浦-控江路-凤城二村",
    "scraped_at": "2026-04-23 15:49:14",
    "region": "kongjianglu",
    "unit_price": 96.5,
    "lat": 31.279052,
    "lng": 121.518986
  },
  {
    "title": "整租·控江二村 1室0厅 南",
    "community": "控江二村",
    "area": "35.34",
    "rooms": "1室0厅",
    "direction": "南",
    "floor": "",
    "price": "3200",
    "tags": "",
    "source": "",
    "url": "https://sh.lianjia.com/zufang/SH2105146781292560384.html",
    "rent_type": "整租",
    "location": "杨浦-控江路-控江二村",
    "scraped_at": "2026-04-23 15:49:14",
    "region": "kongjianglu",
    "unit_price": 90.5,
    "lat": 31.279656,
    "lng": 121.525932
  },
  {
    "title": "整租·凤城二村 1室0厅 南",
    "community": "凤城二村",
    "area": "33.82",
    "rooms": "1室0厅",
    "direction": "南",
    "floor": "",
    "price": "4000",
    "tags": "",
    "source": "",
    "url": "https://sh.lianjia.com/zufang/SH2138252200168652800.html",
    "rent_type": "整租",
    "location": "杨浦-控江路-凤城二村",
    "scraped_at": "2026-04-23 15:49:14",
    "region": "kongjianglu",
    "unit_price": 118.3,
    "lat": 31.279052,
    "lng": 121.518986
  },
  {
    "title": "整租·凤城二村 1室1厅 南",
    "community": "凤城二村",
    "area": "31.35",
    "rooms": "1室1厅",
    "direction": "南",
    "floor": "",
    "price": "2800",
    "tags": "",
    "source": "",
    "url": "https://sh.lianjia.com/zufang/SH2154444699471970304.html",
    "rent_type": "整租",
    "location": "杨浦-控江路-凤城二村",
    "scraped_at": "2026-04-23 15:49:14",
    "region": "kongjianglu",
    "unit_price": 89.3,
    "lat": 31.279052,
    "lng": 121.518986
  },
  {
    "title": "整租·延吉东路555弄 1室1厅 南/西/北",
    "community": "延吉东路555弄",
    "area": "48.57",
    "rooms": "1室1厅",
    "direction": "南/西/北",
    "floor": "",
    "price": "2970",
    "tags": "",
    "source": "",
    "url": "https://sh.lianjia.com/zufang/SH2116033556168835072.html",
    "rent_type": "整租",
    "location": "杨浦-控江路-延吉东路",
    "scraped_at": "2026-04-23 15:49:14",
    "region": "kongjianglu",
    "unit_price": 61.1,
    "lat": 31.284143,
    "lng": 121.534458
  },
  {
    "title": "整租·控江七村 1室1厅 南",
    "community": "控江七村",
    "area": "39.00",
    "rooms": "1室1厅",
    "direction": "南",
    "floor": "",
    "price": "3800",
    "tags": "",
    "source": "",
    "url": "https://sh.lianjia.com/zufang/SH2105843658891722752.html",
    "rent_type": "整租",
    "location": "杨浦-控江路-控江七村",
    "scraped_at": "2026-04-23 15:49:14",
    "region": "kongjianglu",
    "unit_price": 97.4,
    "lat": 31.282917,
    "lng": 121.532166
  },
  {
    "title": "整租·靖宇南路5弄 1室1厅 南",
    "community": "靖宇南路5弄",
    "area": "34.20",
    "rooms": "1室1厅",
    "direction": "南",
    "floor": "",
    "price": "3300",
    "tags": "",
    "source": "",
    "url": "https://sh.lianjia.com/zufang/SH2144354469331075072.html",
    "rent_type": "整租",
    "location": "杨浦-控江路-靖宇南路",
    "scraped_at": "2026-04-23 15:49:14",
    "region": "kongjianglu",
    "unit_price": 96.5,
    "lat": 31.278079,
    "lng": 121.526859
  },
  {
    "title": "整租·益晖新苑 1室1厅 南",
    "community": "益晖新苑",
    "area": "52.70",
    "rooms": "1室1厅",
    "direction": "南",
    "floor": "",
    "price": "5900",
    "tags": "",
    "source": "",
    "url": "https://sh.lianjia.com/zufang/SH2149761845076951040.html",
    "rent_type": "整租",
    "location": "杨浦-控江路-益晖新苑",
    "scraped_at": "2026-04-23 15:49:14",
    "region": "kongjianglu",
    "unit_price": 112.0,
    "lat": 31.290227,
    "lng": 121.544996
  },
  {
    "title": "整租·杨家浜小区 1室0厅 南",
    "community": "杨家浜小区",
    "area": "31.35",
    "rooms": "1室0厅",
    "direction": "南",
    "floor": "",
    "price": "3000",
    "tags": "",
    "source": "",
    "url": "https://sh.lianjia.com/zufang/SH2046450020953096192.html",
    "rent_type": "整租",
    "location": "杨浦-控江路-杨家浜小区",
    "scraped_at": "2026-04-23 15:49:14",
    "region": "kongjianglu",
    "unit_price": 95.7,
    "lat": 31.283812,
    "lng": 121.533966
  },
  {
    "title": "整租·控江一村 2室1厅 南/北",
    "community": "控江一村",
    "area": "63.20",
    "rooms": "2室1厅",
    "direction": "南/北",
    "floor": "",
    "price": "5800",
    "tags": "",
    "source": "",
    "url": "https://sh.lianjia.com/zufang/SH2050159289904922624.html",
    "rent_type": "整租",
    "location": "杨浦-控江路-控江一村",
    "scraped_at": "2026-04-23 15:49:14",
    "region": "kongjianglu",
    "unit_price": 91.8,
    "lat": 31.280677,
    "lng": 121.529913
  },
  {
    "title": "整租·延吉东路555弄 2室2厅 南",
    "community": "延吉东路555弄",
    "area": "36.07",
    "rooms": "2室2厅",
    "direction": "南",
    "floor": "",
    "price": "4400",
    "tags": "",
    "source": "",
    "url": "https://sh.lianjia.com/zufang/SH2153013457845223424.html",
    "rent_type": "整租",
    "location": "杨浦-控江路-延吉东路",
    "scraped_at": "2026-04-23 15:49:14",
    "region": "kongjianglu",
    "unit_price": 122.0,
    "lat": 31.284143,
    "lng": 121.534458
  },
  {
    "title": "整租·凤城六村 2室2厅 南/北",
    "community": "凤城六村",
    "area": "73.06",
    "rooms": "2室2厅",
    "direction": "南/北",
    "floor": "",
    "price": "6000",
    "tags": "",
    "source": "",
    "url": "https://sh.lianjia.com/zufang/SH2113835718492028928.html",
    "rent_type": "整租",
    "location": "杨浦-控江路-凤城六村",
    "scraped_at": "2026-04-23 15:49:14",
    "region": "kongjianglu",
    "unit_price": 82.1,
    "lat": 31.283633,
    "lng": 121.517425
  },
  {
    "title": "整租·凤城三村东区 1室0厅 北",
    "community": "凤城三村东区",
    "area": "29.92",
    "rooms": "1室0厅",
    "direction": "北",
    "floor": "",
    "price": "2800",
    "tags": "",
    "source": "",
    "url": "https://sh.lianjia.com/zufang/SH1917813116096217088.html",
    "rent_type": "整租",
    "location": "杨浦-控江路-凤城三村东区",
    "scraped_at": "2026-04-23 15:49:14",
    "region": "kongjianglu",
    "unit_price": 93.6,
    "lat": 31.282893,
    "lng": 121.522997
  },
  {
    "title": "整租·隆昌路718弄 1室1厅 南",
    "community": "隆昌路718弄",
    "area": "29.00",
    "rooms": "1室1厅",
    "direction": "南",
    "floor": "",
    "price": "2800",
    "tags": "",
    "source": "",
    "url": "https://sh.lianjia.com/zufang/SH2144470670757593088.html",
    "rent_type": "整租",
    "location": "杨浦-控江路-隆昌路",
    "scraped_at": "2026-04-23 15:49:14",
    "region": "kongjianglu",
    "unit_price": 96.6,
    "lat": 31.277915,
    "lng": 121.527656
  },
  {
    "title": "整租·凤城二村 1室1厅 南",
    "community": "凤城二村",
    "area": "34.44",
    "rooms": "1室1厅",
    "direction": "南",
    "floor": "",
    "price": "4500",
    "tags": "",
    "source": "",
    "url": "https://sh.lianjia.com/zufang/SH2157118417239277568.html",
    "rent_type": "整租",
    "location": "杨浦-控江路-凤城二村",
    "scraped_at": "2026-04-23 15:49:14",
    "region": "kongjianglu",
    "unit_price": 130.7,
    "lat": 31.279052,
    "lng": 121.518986
  },
  {
    "title": "整租·控江二村 1室0厅 南",
    "community": "控江二村",
    "area": "34.68",
    "rooms": "1室0厅",
    "direction": "南",
    "floor": "",
    "price": "3500",
    "tags": "",
    "source": "",
    "url": "https://sh.lianjia.com/zufang/SH2149513509270978560.html",
    "rent_type": "整租",
    "location": "杨浦-控江路-控江二村",
    "scraped_at": "2026-04-23 15:49:14",
    "region": "kongjianglu",
    "unit_price": 100.9,
    "lat": 31.279656,
    "lng": 121.525932
  },
  {
    "title": "整租·凤城二村 1室1厅 南",
    "community": "凤城二村",
    "area": "35.06",
    "rooms": "1室1厅",
    "direction": "南",
    "floor": "",
    "price": "3500",
    "tags": "",
    "source": "",
    "url": "https://sh.lianjia.com/zufang/SH2152252050748997632.html",
    "rent_type": "整租",
    "location": "杨浦-控江路-凤城二村",
    "scraped_at": "2026-04-23 15:49:14",
    "region": "kongjianglu",
    "unit_price": 99.8,
    "lat": 31.279052,
    "lng": 121.518986
  },
  {
    "title": "整租·控江二村 1室1厅 南",
    "community": "控江二村",
    "area": "36.00",
    "rooms": "1室1厅",
    "direction": "南",
    "floor": "",
    "price": "3700",
    "tags": "",
    "source": "",
    "url": "https://sh.lianjia.com/zufang/SH2152439014076973056.html",
    "rent_type": "整租",
    "location": "杨浦-控江路-控江二村",
    "scraped_at": "2026-04-23 15:49:14",
    "region": "kongjianglu",
    "unit_price": 102.8,
    "lat": 31.279656,
    "lng": 121.525932
  },
  {
    "title": "整租·城市丽园 2室2厅 南",
    "community": "城市丽园",
    "area": "119.00",
    "rooms": "2室2厅",
    "direction": "南",
    "floor": "",
    "price": "11700",
    "tags": "",
    "source": "",
    "url": "https://sh.lianjia.com/zufang/SH2152630000782671872.html",
    "rent_type": "整租",
    "location": "杨浦-控江路-城市丽园",
    "scraped_at": "2026-04-23 15:49:14",
    "region": "kongjianglu",
    "unit_price": 98.3,
    "lat": 31.282441,
    "lng": 121.529339
  },
  {
    "title": "整租·控江二村 1室0厅 南",
    "community": "控江二村",
    "area": "26.60",
    "rooms": "1室0厅",
    "direction": "南",
    "floor": "",
    "price": "3000",
    "tags": "",
    "source": "",
    "url": "https://sh.lianjia.com/zufang/SH2154782422443491328.html",
    "rent_type": "整租",
    "location": "杨浦-控江路-控江二村",
    "scraped_at": "2026-04-23 15:49:14",
    "region": "kongjianglu",
    "unit_price": 112.8,
    "lat": 31.279656,
    "lng": 121.525932
  },
  {
    "title": "整租·控江路764弄 2室1厅 南",
    "community": "控江路764弄",
    "area": "52.00",
    "rooms": "2室1厅",
    "direction": "南",
    "floor": "",
    "price": "4000",
    "tags": "",
    "source": "",
    "url": "https://sh.lianjia.com/zufang/SH2154093642757701632.html",
    "rent_type": "整租",
    "location": "杨浦-控江路-控江路",
    "scraped_at": "2026-04-23 15:49:14",
    "region": "kongjianglu",
    "unit_price": 76.9,
    "lat": 31.278079,
    "lng": 121.526859
  },
  {
    "title": "整租·凤城三村东区 1室1厅 南",
    "community": "凤城三村东区",
    "area": "50.00",
    "rooms": "1室1厅",
    "direction": "南",
    "floor": "",
    "price": "4600",
    "tags": "",
    "source": "",
    "url": "https://sh.lianjia.com/zufang/SH2156081498137034752.html",
    "rent_type": "整租",
    "location": "杨浦-控江路-凤城三村东区",
    "scraped_at": "2026-04-23 15:49:14",
    "region": "kongjianglu",
    "unit_price": 92.0,
    "lat": 31.282893,
    "lng": 121.522997
  },
  {
    "title": "整租·凤城三村东区 1室1厅 南",
    "community": "凤城三村东区",
    "area": "42.84",
    "rooms": "1室1厅",
    "direction": "南",
    "floor": "",
    "price": "3300",
    "tags": "",
    "source": "",
    "url": "https://sh.lianjia.com/zufang/SH2156350047917178880.html",
    "rent_type": "整租",
    "location": "杨浦-控江路-凤城三村东区",
    "scraped_at": "2026-04-23 15:49:14",
    "region": "kongjianglu",
    "unit_price": 77.0,
    "lat": 31.282893,
    "lng": 121.522997
  },
  {
    "title": "整租·控江路896弄 1室1厅 南",
    "community": "控江路896弄",
    "area": "41.00",
    "rooms": "1室1厅",
    "direction": "南",
    "floor": "",
    "price": "3800",
    "tags": "",
    "source": "",
    "url": "https://sh.lianjia.com/zufang/SH2156670019797254144.html",
    "rent_type": "整租",
    "location": "杨浦-控江路-控江路",
    "scraped_at": "2026-04-23 15:49:14",
    "region": "kongjianglu",
    "unit_price": 92.7,
    "lat": 31.278079,
    "lng": 121.526859
  },
  {
    "title": "整租·敦化路4弄 1室0厅 南",
    "community": "敦化路4弄",
    "area": "30.64",
    "rooms": "1室0厅",
    "direction": "南",
    "floor": "",
    "price": "3000",
    "tags": "",
    "source": "",
    "url": "https://sh.lianjia.com/zufang/SH2156676204583714816.html",
    "rent_type": "整租",
    "location": "杨浦-控江路-敦化路",
    "scraped_at": "2026-04-23 15:49:14",
    "region": "kongjianglu",
    "unit_price": 97.9,
    "lat": 31.285207,
    "lng": 121.540683
  },
  {
    "title": "整租·凤城六村 2室1厅 南",
    "community": "凤城六村",
    "area": "68.62",
    "rooms": "2室1厅",
    "direction": "南",
    "floor": "",
    "price": "6500",
    "tags": "",
    "source": "",
    "url": "https://sh.lianjia.com/zufang/SH2154895524476485632.html",
    "rent_type": "整租",
    "location": "杨浦-控江路-凤城六村",
    "scraped_at": "2026-04-23 15:49:14",
    "region": "kongjianglu",
    "unit_price": 94.7,
    "lat": 31.283633,
    "lng": 121.517425
  },
  {
    "title": "整租·凤城二村 1室1厅 南/北",
    "community": "凤城二村",
    "area": "35.00",
    "rooms": "1室1厅",
    "direction": "南/北",
    "floor": "",
    "price": "3500",
    "tags": "",
    "source": "",
    "url": "https://sh.lianjia.com/zufang/SH2156418145160527872.html",
    "rent_type": "整租",
    "location": "杨浦-控江路-凤城二村",
    "scraped_at": "2026-04-23 15:49:14",
    "region": "kongjianglu",
    "unit_price": 100.0,
    "lat": 31.279052,
    "lng": 121.518986
  },
  {
    "title": "整租·凤城二村 1室1厅 南",
    "community": "凤城二村",
    "area": "36.22",
    "rooms": "1室1厅",
    "direction": "南",
    "floor": "",
    "price": "3600",
    "tags": "",
    "source": "",
    "url": "https://sh.lianjia.com/zufang/SH2116761115043037184.html",
    "rent_type": "整租",
    "location": "杨浦-控江路-凤城二村",
    "scraped_at": "2026-04-23 15:49:14",
    "region": "kongjianglu",
    "unit_price": 99.4,
    "lat": 31.279052,
    "lng": 121.518986
  },
  {
    "title": "整租·凤城五村 1室1厅 南",
    "community": "凤城五村",
    "area": "42.67",
    "rooms": "1室1厅",
    "direction": "南",
    "floor": "",
    "price": "4500",
    "tags": "",
    "source": "",
    "url": "https://sh.lianjia.com/zufang/SH2155621588064534528.html",
    "rent_type": "整租",
    "location": "杨浦-控江路-凤城五村",
    "scraped_at": "2026-04-23 15:49:14",
    "region": "kongjianglu",
    "unit_price": 105.5,
    "lat": 31.282573,
    "lng": 121.518465
  },
  {
    "title": "整租·凤城三村东区 1室0厅 南",
    "community": "凤城三村东区",
    "area": "31.68",
    "rooms": "1室0厅",
    "direction": "南",
    "floor": "",
    "price": "3300",
    "tags": "",
    "source": "",
    "url": "https://sh.lianjia.com/zufang/SH2150817977094635520.html",
    "rent_type": "整租",
    "location": "杨浦-控江路-凤城三村东区",
    "scraped_at": "2026-04-23 15:49:17",
    "region": "kongjianglu",
    "unit_price": 104.2,
    "lat": 31.282893,
    "lng": 121.522997
  },
  {
    "title": "整租·凤城三村东区 1室1厅 南",
    "community": "凤城三村东区",
    "area": "32.10",
    "rooms": "1室1厅",
    "direction": "南",
    "floor": "",
    "price": "3100",
    "tags": "",
    "source": "",
    "url": "https://sh.lianjia.com/zufang/SH2151641590177726464.html",
    "rent_type": "整租",
    "location": "杨浦-控江路-凤城三村东区",
    "scraped_at": "2026-04-23 15:49:17",
    "region": "kongjianglu",
    "unit_price": 96.6,
    "lat": 31.282893,
    "lng": 121.522997
  },
  {
    "title": "整租·凤城二村 1室1厅 南",
    "community": "凤城二村",
    "area": "33.48",
    "rooms": "1室1厅",
    "direction": "南",
    "floor": "",
    "price": "3100",
    "tags": "",
    "source": "",
    "url": "https://sh.lianjia.com/zufang/SH2151691240402321408.html",
    "rent_type": "整租",
    "location": "杨浦-控江路-凤城二村",
    "scraped_at": "2026-04-23 15:49:17",
    "region": "kongjianglu",
    "unit_price": 92.6,
    "lat": 31.279052,
    "lng": 121.518986
  },
  {
    "title": "整租·黄兴路1039弄 1室0厅 南",
    "community": "黄兴路1039弄",
    "area": "29.70",
    "rooms": "1室0厅",
    "direction": "南",
    "floor": "",
    "price": "3518",
    "tags": "",
    "source": "",
    "url": "https://sh.lianjia.com/zufang/SH2153419663369830400.html",
    "rent_type": "整租",
    "location": "杨浦-控江路-黄兴路",
    "scraped_at": "2026-04-23 15:49:17",
    "region": "kongjianglu",
    "unit_price": 118.5,
    "lat": 31.294803,
    "lng": 121.515978
  },
  {
    "title": "整租·杨家浜小区 2室1厅 南/北",
    "community": "杨家浜小区",
    "area": "51.12",
    "rooms": "2室1厅",
    "direction": "南/北",
    "floor": "",
    "price": "4300",
    "tags": "",
    "source": "",
    "url": "https://sh.lianjia.com/zufang/SH2145892034517401600.html",
    "rent_type": "整租",
    "location": "杨浦-控江路-杨家浜小区",
    "scraped_at": "2026-04-23 15:49:17",
    "region": "kongjianglu",
    "unit_price": 84.1,
    "lat": 31.283812,
    "lng": 121.533966
  },
  {
    "title": "整租·杨家浜小区 1室1厅 南",
    "community": "杨家浜小区",
    "area": "40.00",
    "rooms": "1室1厅",
    "direction": "南",
    "floor": "",
    "price": "4000",
    "tags": "",
    "source": "",
    "url": "https://sh.lianjia.com/zufang/SH2147309129192964096.html",
    "rent_type": "整租",
    "location": "杨浦-控江路-杨家浜小区",
    "scraped_at": "2026-04-23 15:49:17",
    "region": "kongjianglu",
    "unit_price": 100.0,
    "lat": 31.283812,
    "lng": 121.533966
  },
  {
    "title": "整租·凤城三村东区 2室1厅 南",
    "community": "凤城三村东区",
    "area": "46.87",
    "rooms": "2室1厅",
    "direction": "南",
    "floor": "",
    "price": "5000",
    "tags": "",
    "source": "",
    "url": "https://sh.lianjia.com/zufang/SH2148369184810074112.html",
    "rent_type": "整租",
    "location": "杨浦-控江路-凤城三村东区",
    "scraped_at": "2026-04-23 15:49:17",
    "region": "kongjianglu",
    "unit_price": 106.7,
    "lat": 31.282893,
    "lng": 121.522997
  },
  {
    "title": "整租·控江二村 1室1厅 南",
    "community": "控江二村",
    "area": "41.19",
    "rooms": "1室1厅",
    "direction": "南",
    "floor": "",
    "price": "3675",
    "tags": "",
    "source": "",
    "url": "https://sh.lianjia.com/zufang/SH2061024566557278208.html",
    "rent_type": "整租",
    "location": "杨浦-控江路-控江二村",
    "scraped_at": "2026-04-23 15:49:17",
    "region": "kongjianglu",
    "unit_price": 89.2,
    "lat": 31.279656,
    "lng": 121.525932
  },
  {
    "title": "整租·凤城二村 1室1厅 南",
    "community": "凤城二村",
    "area": "32.30",
    "rooms": "1室1厅",
    "direction": "南",
    "floor": "",
    "price": "3675",
    "tags": "",
    "source": "",
    "url": "https://sh.lianjia.com/zufang/SH2155923658936156160.html",
    "rent_type": "整租",
    "location": "杨浦-控江路-凤城二村",
    "scraped_at": "2026-04-23 15:49:17",
    "region": "kongjianglu",
    "unit_price": 113.8,
    "lat": 31.279052,
    "lng": 121.518986
  },
  {
    "title": "整租·延吉一村 1室1厅 南",
    "community": "延吉一村",
    "area": "33.75",
    "rooms": "1室1厅",
    "direction": "南",
    "floor": "",
    "price": "3150",
    "tags": "",
    "source": "",
    "url": "https://sh.lianjia.com/zufang/SH2156008308157186048.html",
    "rent_type": "整租",
    "location": "杨浦-控江路-延吉一村",
    "scraped_at": "2026-04-23 15:49:17",
    "region": "kongjianglu",
    "unit_price": 93.3,
    "lat": 31.284135,
    "lng": 121.536815
  },
  {
    "title": "整租·控江路1200弄 1室1厅 南",
    "community": "控江路1200弄",
    "area": "38.20",
    "rooms": "1室1厅",
    "direction": "南",
    "floor": "",
    "price": "3450",
    "tags": "",
    "source": "",
    "url": "https://sh.lianjia.com/zufang/SH2156055461843959808.html",
    "rent_type": "整租",
    "location": "杨浦-控江路-控江路",
    "scraped_at": "2026-04-23 15:49:17",
    "region": "kongjianglu",
    "unit_price": 90.3,
    "lat": 31.278079,
    "lng": 121.526859
  },
  {
    "title": "整租·控江路1200弄 1室1厅 南",
    "community": "控江路1200弄",
    "area": "32.66",
    "rooms": "1室1厅",
    "direction": "南",
    "floor": "",
    "price": "3255",
    "tags": "",
    "source": "",
    "url": "https://sh.lianjia.com/zufang/SH2017184675675504640.html",
    "rent_type": "整租",
    "location": "杨浦-控江路-控江路",
    "scraped_at": "2026-04-23 15:49:17",
    "region": "kongjianglu",
    "unit_price": 99.7,
    "lat": 31.278079,
    "lng": 121.526859
  },
  {
    "title": "整租·凤城三村东区 1室0厅 南",
    "community": "凤城三村东区",
    "area": "28.00",
    "rooms": "1室0厅",
    "direction": "南",
    "floor": "",
    "price": "2835",
    "tags": "",
    "source": "",
    "url": "https://sh.lianjia.com/zufang/SH2021514944301760512.html",
    "rent_type": "整租",
    "location": "杨浦-控江路-凤城三村东区",
    "scraped_at": "2026-04-23 15:49:17",
    "region": "kongjianglu",
    "unit_price": 101.2,
    "lat": 31.282893,
    "lng": 121.522997
  },
  {
    "title": "整租·凤城二村 2室1厅 东/西/北",
    "community": "凤城二村",
    "area": "57.36",
    "rooms": "2室1厅",
    "direction": "东/西/北",
    "floor": "",
    "price": "4515",
    "tags": "",
    "source": "",
    "url": "https://sh.lianjia.com/zufang/SH2067154624585924608.html",
    "rent_type": "整租",
    "location": "杨浦-控江路-凤城二村",
    "scraped_at": "2026-04-23 15:49:17",
    "region": "kongjianglu",
    "unit_price": 78.7,
    "lat": 31.279052,
    "lng": 121.518986
  },
  {
    "title": "整租·凤城三村东区 2室1厅 南",
    "community": "凤城三村东区",
    "area": "55.00",
    "rooms": "2室1厅",
    "direction": "南",
    "floor": "",
    "price": "5250",
    "tags": "",
    "source": "",
    "url": "https://sh.lianjia.com/zufang/SH2026310194790662144.html",
    "rent_type": "整租",
    "location": "杨浦-控江路-凤城三村东区",
    "scraped_at": "2026-04-23 15:49:17",
    "region": "kongjianglu",
    "unit_price": 95.5,
    "lat": 31.282893,
    "lng": 121.522997
  },
  {
    "title": "整租·凤城二村 1室0厅 北",
    "community": "凤城二村",
    "area": "29.19",
    "rooms": "1室0厅",
    "direction": "北",
    "floor": "",
    "price": "3150",
    "tags": "",
    "source": "",
    "url": "https://sh.lianjia.com/zufang/SH2154103869473292288.html",
    "rent_type": "整租",
    "location": "杨浦-控江路-凤城二村",
    "scraped_at": "2026-04-23 15:49:17",
    "region": "kongjianglu",
    "unit_price": 107.9,
    "lat": 31.279052,
    "lng": 121.518986
  },
  {
    "title": "整租·双阳大楼 1室1厅 西南",
    "community": "双阳大楼",
    "area": "53.40",
    "rooms": "1室1厅",
    "direction": "西南",
    "floor": "",
    "price": "5100",
    "tags": "",
    "source": "",
    "url": "https://sh.lianjia.com/zufang/SH2149068254302175232.html",
    "rent_type": "整租",
    "location": "杨浦-控江路-双阳大楼",
    "scraped_at": "2026-04-23 15:49:17",
    "region": "kongjianglu",
    "unit_price": 95.5,
    "lat": 31.28166,
    "lng": 121.532296
  },
  {
    "title": "整租·凤城三村西区 1室1厅 南",
    "community": "凤城三村西区",
    "area": "48.07",
    "rooms": "1室1厅",
    "direction": "南",
    "floor": "",
    "price": "4620",
    "tags": "",
    "source": "",
    "url": "https://sh.lianjia.com/zufang/SH2047903553166508032.html",
    "rent_type": "整租",
    "location": "杨浦-控江路-凤城三村西区",
    "scraped_at": "2026-04-23 15:49:17",
    "region": "kongjianglu",
    "unit_price": 96.1,
    "lat": 31.282893,
    "lng": 121.522997
  },
  {
    "title": "整租·杨家浜小区 1室1厅 南",
    "community": "杨家浜小区",
    "area": "43.51",
    "rooms": "1室1厅",
    "direction": "南",
    "floor": "",
    "price": "3990",
    "tags": "",
    "source": "",
    "url": "https://sh.lianjia.com/zufang/SH2049507197536174080.html",
    "rent_type": "整租",
    "location": "杨浦-控江路-杨家浜小区",
    "scraped_at": "2026-04-23 15:49:17",
    "region": "kongjianglu",
    "unit_price": 91.7,
    "lat": 31.283812,
    "lng": 121.533966
  },
  {
    "title": "整租·凤城三村东区 1室0厅 北",
    "community": "凤城三村东区",
    "area": "25.99",
    "rooms": "1室0厅",
    "direction": "北",
    "floor": "",
    "price": "3000",
    "tags": "",
    "source": "",
    "url": "https://sh.lianjia.com/zufang/SH2150924253761896448.html",
    "rent_type": "整租",
    "location": "杨浦-控江路-凤城三村东区",
    "scraped_at": "2026-04-23 15:49:17",
    "region": "kongjianglu",
    "unit_price": 115.4,
    "lat": 31.282893,
    "lng": 121.522997
  },
  {
    "title": "整租·凤城二村 1室1厅 南",
    "community": "凤城二村",
    "area": "42.21",
    "rooms": "1室1厅",
    "direction": "南",
    "floor": "",
    "price": "3100",
    "tags": "",
    "source": "",
    "url": "https://sh.lianjia.com/zufang/SH2142201167663333376.html",
    "rent_type": "整租",
    "location": "杨浦-控江路-凤城二村",
    "scraped_at": "2026-04-23 15:49:17",
    "region": "kongjianglu",
    "unit_price": 73.4,
    "lat": 31.279052,
    "lng": 121.518986
  },
  {
    "title": "整租·控江路652弄 1室1厅 南",
    "community": "控江路652弄",
    "area": "42.84",
    "rooms": "1室1厅",
    "direction": "南",
    "floor": "",
    "price": "4000",
    "tags": "",
    "source": "",
    "url": "https://sh.lianjia.com/zufang/SH2142196433707597824.html",
    "rent_type": "整租",
    "location": "杨浦-控江路-控江路",
    "scraped_at": "2026-04-23 15:49:17",
    "region": "kongjianglu",
    "unit_price": 93.4,
    "lat": 31.278079,
    "lng": 121.526859
  },
  {
    "title": "整租·凤城三村西区 1室1厅 南",
    "community": "凤城三村西区",
    "area": "48.58",
    "rooms": "1室1厅",
    "direction": "南",
    "floor": "",
    "price": "3900",
    "tags": "",
    "source": "",
    "url": "https://sh.lianjia.com/zufang/SH2140696802100248576.html",
    "rent_type": "整租",
    "location": "杨浦-控江路-凤城三村西区",
    "scraped_at": "2026-04-23 15:49:17",
    "region": "kongjianglu",
    "unit_price": 80.3,
    "lat": 31.282893,
    "lng": 121.522997
  },
  {
    "title": "整租·靖宇南路5弄 2室1厅 南",
    "community": "靖宇南路5弄",
    "area": "52.19",
    "rooms": "2室1厅",
    "direction": "南",
    "floor": "",
    "price": "3990",
    "tags": "",
    "source": "",
    "url": "https://sh.lianjia.com/zufang/SH2125584614381584384.html",
    "rent_type": "整租",
    "location": "杨浦-控江路-靖宇南路",
    "scraped_at": "2026-04-23 15:49:17",
    "region": "kongjianglu",
    "unit_price": 76.5,
    "lat": 31.278079,
    "lng": 121.526859
  },
  {
    "title": "整租·凤城一村 1室1厅 南",
    "community": "凤城一村",
    "area": "42.70",
    "rooms": "1室1厅",
    "direction": "南",
    "floor": "",
    "price": "3700",
    "tags": "",
    "source": "",
    "url": "https://sh.lianjia.com/zufang/SH2125608592596795392.html",
    "rent_type": "整租",
    "location": "杨浦-控江路-凤城一村",
    "scraped_at": "2026-04-23 15:49:20",
    "region": "kongjianglu",
    "unit_price": 86.7,
    "lat": 31.276517,
    "lng": 121.518578
  },
  {
    "title": "整租·控江路764弄 1室1厅 南",
    "community": "控江路764弄",
    "area": "50.48",
    "rooms": "1室1厅",
    "direction": "南",
    "floor": "",
    "price": "3308",
    "tags": "",
    "source": "",
    "url": "https://sh.lianjia.com/zufang/SH2125878209764392960.html",
    "rent_type": "整租",
    "location": "杨浦-控江路-控江路",
    "scraped_at": "2026-04-23 15:49:20",
    "region": "kongjianglu",
    "unit_price": 65.5,
    "lat": 31.278079,
    "lng": 121.526859
  },
  {
    "title": "整租·杨家浜小区 1室1厅 南",
    "community": "杨家浜小区",
    "area": "36.00",
    "rooms": "1室1厅",
    "direction": "南",
    "floor": "",
    "price": "3255",
    "tags": "",
    "source": "",
    "url": "https://sh.lianjia.com/zufang/SH2119704401621811200.html",
    "rent_type": "整租",
    "location": "杨浦-控江路-杨家浜小区",
    "scraped_at": "2026-04-23 15:49:20",
    "region": "kongjianglu",
    "unit_price": 90.4,
    "lat": 31.283812,
    "lng": 121.533966
  },
  {
    "title": "整租·凤城一村 1室0厅 东",
    "community": "凤城一村",
    "area": "35.87",
    "rooms": "1室0厅",
    "direction": "东",
    "floor": "",
    "price": "3675",
    "tags": "",
    "source": "",
    "url": "https://sh.lianjia.com/zufang/SH2154880721892671488.html",
    "rent_type": "整租",
    "location": "杨浦-控江路-凤城一村",
    "scraped_at": "2026-04-23 15:49:20",
    "region": "kongjianglu",
    "unit_price": 102.5,
    "lat": 31.276517,
    "lng": 121.518578
  },
  {
    "title": "整租·杨家浜小区 1室0厅 南",
    "community": "杨家浜小区",
    "area": "37.00",
    "rooms": "1室0厅",
    "direction": "南",
    "floor": "",
    "price": "3200",
    "tags": "",
    "source": "",
    "url": "https://sh.lianjia.com/zufang/SH2157026921462890496.html",
    "rent_type": "整租",
    "location": "杨浦-控江路-杨家浜小区",
    "scraped_at": "2026-04-23 15:49:20",
    "region": "kongjianglu",
    "unit_price": 86.5,
    "lat": 31.283812,
    "lng": 121.533966
  }
]