[
  {
    "title": "整租·新虹桥时代公馆 1室1厅 西南",
    "community": "新虹桥时代公馆",
    "area": "58.00",
    "rooms": "1室1厅",
    "direction": "西南",
    "floor": "",
    "price": "1500",
    "tags": "",
    "source": "",
    "url": "https://sh.lianjia.com/zufang/SH2149865518264221696.html",
    "rent_type": "整租",
    "location": "嘉定-安亭-新虹桥时代公馆",
    "scraped_at": "2026-04-23 17:08:42",
    "region": "anting",
    "unit_price": 25.9,
    "lat": 31.31699,
    "lng": 121.22688
  },
  {
    "title": "整租·新虹桥时代公馆 1室1厅 北",
    "community": "新虹桥时代公馆",
    "area": "58.21",
    "rooms": "1室1厅",
    "direction": "北",
    "floor": "",
    "price": "1300",
    "tags": "",
    "source": "",
    "url": "https://sh.lianjia.com/zufang/SH2148641111319511040.html",
    "rent_type": "整租",
    "location": "嘉定-安亭-新虹桥时代公馆",
    "scraped_at": "2026-04-23 17:07:25",
    "region": "anting",
    "unit_price": 22.3,
    "lat": 31.31699,
    "lng": 121.22688
  },
  {
    "title": "整租·新虹桥时代公馆 1室1厅 西南",
    "community": "新虹桥时代公馆",
    "area": "58.00",
    "rooms": "1室1厅",
    "direction": "西南",
    "floor": "",
    "price": "1500",
    "tags": "",
    "source": "",
    "url": "https://sh.lianjia.com/zufang/SH2149861511101677568.html",
    "rent_type": "整租",
    "location": "嘉定-安亭-新虹桥时代公馆",
    "scraped_at": "2026-04-23 17:08:42",
    "region": "anting",
    "unit_price": 25.9,
    "lat": 31.31699,
    "lng": 121.22688
  },
  {
    "title": "独栋·方隅服务公寓 上海安亭方隅服务公寓 【上汽员工专享】全景落地窗阳光房，宠物友好，车企专属长租折扣，押一付一 1室1厅",
    "community": "方隅服务公寓 上海安亭方隅服务公寓 【上汽员工专享】全景落地窗阳光房，宠物友好，车企专属长租折扣，押一付一",
    "area": "43.00",
    "rooms": "1室1厅",
    "direction": "",
    "floor": "",
    "price": "4100",
    "tags": "",
    "source": "",
    "url": "https://sh.lianjia.com/apartment/80336.html",
    "rent_type": "独栋",
    "location": "",
    "scraped_at": "2026-04-23 17:07:32",
    "region": "anting",
    "unit_price": 95.3,
    "lat": 31.252176,
    "lng": 121.474903
  },
  {
    "title": "整租·新虹桥时代公馆 1室1厅 西南",
    "community": "新虹桥时代公馆",
    "area": "58.00",
    "rooms": "1室1厅",
    "direction": "西南",
    "floor": "",
    "price": "1500",
    "tags": "",
    "source": "",
    "url": "https://sh.lianjia.com/zufang/SH2149867658911154176.html",
    "rent_type": "整租",
    "location": "嘉定-安亭-新虹桥时代公馆",
    "scraped_at": "2026-04-23 17:08:42",
    "region": "anting",
    "unit_price": 25.9,
    "lat": 31.31699,
    "lng": 121.22688
  },
  {
    "title": "独栋·安亭5-2公寓 安诚路店 落地大窗视线好、能源免费、押一付一、可办居住证、上汽专属 开间",
    "community": "安亭5-2公寓 安诚路店 落地大窗视线好、能源免费、押一付一、可办居住证、上汽专属 开间",
    "area": "54.42",
    "rooms": "",
    "direction": "",
    "floor": "",
    "price": "1990",
    "tags": "",
    "source": "",
    "url": "https://sh.lianjia.com/apartment/85460.html",
    "rent_type": "独栋",
    "location": "",
    "scraped_at": "2026-04-23 17:07:32",
    "region": "anting",
    "unit_price": 36.6,
    "lat": 31.20272,
    "lng": 121.447261
  },
  {
    "title": "整租·玉兰四村 3室2厅 南",
    "community": "玉兰四村",
    "area": "127.08",
    "rooms": "3室2厅",
    "direction": "南",
    "floor": "",
    "price": "3000",
    "tags": "",
    "source": "",
    "url": "https://sh.lianjia.com/zufang/SH2146228098843017216.html",
    "rent_type": "整租",
    "location": "嘉定-安亭-玉兰四村",
    "scraped_at": "2026-04-23 17:07:25",
    "region": "anting",
    "unit_price": 23.6,
    "lat": 31.297364,
    "lng": 121.166104
  },
  {
    "title": "整租·路劲上海派+嘉悦澜庭 2室1厅 南",
    "community": "路劲上海派+嘉悦澜庭",
    "area": "65.00",
    "rooms": "2室1厅",
    "direction": "南",
    "floor": "",
    "price": "3300",
    "tags": "",
    "source": "",
    "url": "https://sh.lianjia.com/zufang/SH2152672599052648448.html",
    "rent_type": "整租",
    "location": "嘉定-安亭-路劲上海派",
    "scraped_at": "2026-04-23 17:07:35",
    "region": "anting",
    "unit_price": 50.8,
    "lat": 31.292597,
    "lng": 121.198247
  },
  {
    "title": "整租·新城尚上城（商住） 1室1厅 南",
    "community": "新城尚上城（商住）",
    "area": "59.00",
    "rooms": "1室1厅",
    "direction": "南",
    "floor": "",
    "price": "2500",
    "tags": "",
    "source": "",
    "url": "https://sh.lianjia.com/zufang/SH2107035792386818048.html",
    "rent_type": "整租",
    "location": "嘉定-安亭-新城尚上城",
    "scraped_at": "2026-04-23 17:07:25",
    "region": "anting",
    "unit_price": 42.4,
    "lat": 31.284302,
    "lng": 121.181041
  },
  {
    "title": "独栋·隽寓 安亭店 公寓直租 出差实习好房 独立卫生间 民用水电 月付 3个月起租 开间",
    "community": "隽寓 安亭店 公寓直租 出差实习好房 独立卫生间 民用水电 月付 3个月起租 开间",
    "area": "25.00",
    "rooms": "",
    "direction": "",
    "floor": "",
    "price": "1739",
    "tags": "",
    "source": "",
    "url": "https://sh.lianjia.com/apartment/41735.html",
    "rent_type": "独栋",
    "location": "",
    "scraped_at": "2026-04-23 17:07:25",
    "region": "anting",
    "unit_price": 69.6,
    "lat": 31.294922,
    "lng": 121.19299
  },
  {
    "title": "整租·万科西郊都会 4室2厅 南",
    "community": "万科西郊都会",
    "area": "120.51",
    "rooms": "4室2厅",
    "direction": "南",
    "floor": "",
    "price": "5500",
    "tags": "",
    "source": "",
    "url": "https://sh.lianjia.com/zufang/SH1889545702401376256.html",
    "rent_type": "整租",
    "location": "嘉定-安亭-万科西郊都会",
    "scraped_at": "2026-04-23 17:08:42",
    "region": "anting",
    "unit_price": 45.6,
    "lat": 31.272136,
    "lng": 121.195721
  },
  {
    "title": "整租·新城尚上城（商住） 1室1厅 北",
    "community": "新城尚上城（商住）",
    "area": "45.00",
    "rooms": "1室1厅",
    "direction": "北",
    "floor": "",
    "price": "2300",
    "tags": "",
    "source": "",
    "url": "https://sh.lianjia.com/zufang/SH2115353529475399680.html",
    "rent_type": "整租",
    "location": "嘉定-安亭-新城尚上城",
    "scraped_at": "2026-04-23 17:07:25",
    "region": "anting",
    "unit_price": 51.1,
    "lat": 31.284302,
    "lng": 121.181041
  },
  {
    "title": "整租·新虹桥时代公馆 1室1厅 西南",
    "community": "新虹桥时代公馆",
    "area": "58.00",
    "rooms": "1室1厅",
    "direction": "西南",
    "floor": "",
    "price": "1500",
    "tags": "",
    "source": "",
    "url": "https://sh.lianjia.com/zufang/SH2149866646494248960.html",
    "rent_type": "整租",
    "location": "嘉定-安亭-新虹桥时代公馆",
    "scraped_at": "2026-04-23 17:08:42",
    "region": "anting",
    "unit_price": 25.9,
    "lat": 31.31699,
    "lng": 121.22688
  },
  {
    "title": "整租·新虹桥时代公馆 1室1厅 西南",
    "community": "新虹桥时代公馆",
    "area": "58.00",
    "rooms": "1室1厅",
    "direction": "西南",
    "floor": "",
    "price": "1600",
    "tags": "",
    "source": "",
    "url": "https://sh.lianjia.com/zufang/SH2150455295250268160.html",
    "rent_type": "整租",
    "location": "嘉定-安亭-新虹桥时代公馆",
    "scraped_at": "2026-04-23 17:08:42",
    "region": "anting",
    "unit_price": 27.6,
    "lat": 31.31699,
    "lng": 121.22688
  },
  {
    "title": "整租·莱英悦都 1室1厅 南",
    "community": "莱英悦都",
    "area": "47.00",
    "rooms": "1室1厅",
    "direction": "南",
    "floor": "",
    "price": "2300",
    "tags": "",
    "source": "",
    "url": "https://sh.lianjia.com/zufang/SH2153060780147212288.html",
    "rent_type": "整租",
    "location": "嘉定-安亭-莱英悦都",
    "scraped_at": "2026-04-23 17:07:35",
    "region": "anting",
    "unit_price": 48.9,
    "lat": 31.280616,
    "lng": 121.212052
  },
  {
    "title": "整租·古北萃庭(公寓) 3室2厅 南/北",
    "community": "古北萃庭(公寓)",
    "area": "143.80",
    "rooms": "3室2厅",
    "direction": "南/北",
    "floor": "",
    "price": "4000",
    "tags": "",
    "source": "",
    "url": "https://sh.lianjia.com/zufang/SH2152322074297761792.html",
    "rent_type": "整租",
    "location": "嘉定-安亭-古北萃庭(公寓)",
    "scraped_at": "2026-04-23 17:08:42",
    "region": "anting",
    "unit_price": 27.8,
    "lat": 31.268988,
    "lng": 121.169924
  },
  {
    "title": "整租·大华·梧桐樾 3室1厅 南",
    "community": "大华·梧桐樾",
    "area": "102.00",
    "rooms": "3室1厅",
    "direction": "南",
    "floor": "",
    "price": "4500",
    "tags": "",
    "source": "",
    "url": "https://sh.lianjia.com/zufang/SH2153039001911558144.html",
    "rent_type": "整租",
    "location": "嘉定-安亭-大华",
    "scraped_at": "2026-04-23 17:07:35",
    "region": "anting",
    "unit_price": 44.1,
    "lat": 31.269066,
    "lng": 121.170986
  },
  {
    "title": "独栋·方隅服务公寓 上海安亭方隅服务公寓二店 【车企员工特惠】超大一居 近11号线 班车直达创新港 租期灵活 1室1厅",
    "community": "方隅服务公寓 上海安亭方隅服务公寓二店 【车企员工特惠】超大一居 近11号线 班车直达创新港 租期灵活",
    "area": "47.00",
    "rooms": "1室1厅",
    "direction": "",
    "floor": "",
    "price": "4256",
    "tags": "",
    "source": "",
    "url": "https://sh.lianjia.com/apartment/82841.html",
    "rent_type": "独栋",
    "location": "",
    "scraped_at": "2026-04-23 17:07:28",
    "region": "anting",
    "unit_price": 90.6,
    "lat": 31.212653,
    "lng": 121.284557
  },
  {
    "title": "整租·紫荆二村 3室1厅 南",
    "community": "紫荆二村",
    "area": "88.99",
    "rooms": "3室1厅",
    "direction": "南",
    "floor": "",
    "price": "2600",
    "tags": "",
    "source": "",
    "url": "https://sh.lianjia.com/zufang/SH2153850150110363648.html",
    "rent_type": "整租",
    "location": "嘉定-安亭-紫荆二村",
    "scraped_at": "2026-04-23 17:08:42",
    "region": "anting",
    "unit_price": 29.2,
    "lat": 31.290541,
    "lng": 121.165634
  },
  {
    "title": "整租·旭辉·公元 2室2厅 南",
    "community": "旭辉·公元",
    "area": "69.76",
    "rooms": "2室2厅",
    "direction": "南",
    "floor": "",
    "price": "3518",
    "tags": "",
    "source": "",
    "url": "https://sh.lianjia.com/zufang/SH2154174669450641408.html",
    "rent_type": "整租",
    "location": "嘉定-安亭-旭辉",
    "scraped_at": "2026-04-23 17:08:42",
    "region": "anting",
    "unit_price": 50.4,
    "lat": 31.305102,
    "lng": 121.179248
  },
  {
    "title": "独栋·国寓公寓 曹安店 可短租 可月付 近创新港 近同济大学 开间",
    "community": "国寓公寓 曹安店 可短租 可月付 近创新港 近同济大学 开间",
    "area": "15.00",
    "rooms": "",
    "direction": "",
    "floor": "",
    "price": "1980",
    "tags": "",
    "source": "",
    "url": "https://sh.lianjia.com/apartment/2428.html",
    "rent_type": "独栋",
    "location": "",
    "scraped_at": "2026-04-23 17:07:32",
    "region": "anting",
    "unit_price": 132.0,
    "lat": 31.044945,
    "lng": 121.608575
  },
  {
    "title": "整租·绿地新里米兰公寓 2室2厅 南",
    "community": "绿地新里米兰公寓",
    "area": "78.00",
    "rooms": "2室2厅",
    "direction": "南",
    "floor": "",
    "price": "3100",
    "tags": "",
    "source": "",
    "url": "https://sh.lianjia.com/zufang/SH2153142374610501632.html",
    "rent_type": "整租",
    "location": "嘉定-安亭-绿地新里米兰公寓",
    "scraped_at": "2026-04-23 17:07:32",
    "region": "anting",
    "unit_price": 39.7,
    "lat": 31.293872,
    "lng": 121.198672
  },
  {
    "title": "整租·旭辉·公元 2室1厅 南",
    "community": "旭辉·公元",
    "area": "70.00",
    "rooms": "2室1厅",
    "direction": "南",
    "floor": "",
    "price": "3000",
    "tags": "",
    "source": "",
    "url": "https://sh.lianjia.com/zufang/SH2153427425684357120.html",
    "rent_type": "整租",
    "location": "嘉定-安亭-旭辉",
    "scraped_at": "2026-04-23 17:07:32",
    "region": "anting",
    "unit_price": 42.9,
    "lat": 31.305102,
    "lng": 121.179248
  },
  {
    "title": "整租·正荣·悦珑府 2室1厅 南/北",
    "community": "正荣·悦珑府",
    "area": "75.71",
    "rooms": "2室1厅",
    "direction": "南/北",
    "floor": "",
    "price": "3500",
    "tags": "",
    "source": "",
    "url": "https://sh.lianjia.com/zufang/SH2153698232092327936.html",
    "rent_type": "整租",
    "location": "嘉定-安亭-正荣",
    "scraped_at": "2026-04-23 17:07:25",
    "region": "anting",
    "unit_price": 46.2,
    "lat": 31.269066,
    "lng": 121.170986
  },
  {
    "title": "整租·安亭新镇赋苑 2室2厅 南",
    "community": "安亭新镇赋苑",
    "area": "98.65",
    "rooms": "2室2厅",
    "direction": "南",
    "floor": "",
    "price": "3300",
    "tags": "",
    "source": "",
    "url": "https://sh.lianjia.com/zufang/SH2153699953287888896.html",
    "rent_type": "整租",
    "location": "嘉定-安亭-安亭新镇赋苑",
    "scraped_at": "2026-04-23 17:07:25",
    "region": "anting",
    "unit_price": 33.5,
    "lat": 31.267438,
    "lng": 121.171799
  },
  {
    "title": "整租·大众春盛苑 2室2厅 南",
    "community": "大众春盛苑",
    "area": "75.34",
    "rooms": "2室2厅",
    "direction": "南",
    "floor": "",
    "price": "2700",
    "tags": "",
    "source": "",
    "url": "https://sh.lianjia.com/zufang/SH2149050497535836160.html",
    "rent_type": "整租",
    "location": "嘉定-安亭-大众春盛苑",
    "scraped_at": "2026-04-23 17:07:28",
    "region": "anting",
    "unit_price": 35.8,
    "lat": 31.271117,
    "lng": 121.207502
  },
  {
    "title": "整租·黄渡春城美好嘉苑 2室2厅 南",
    "community": "黄渡春城美好嘉苑",
    "area": "76.39",
    "rooms": "2室2厅",
    "direction": "南",
    "floor": "",
    "price": "3800",
    "tags": "",
    "source": "",
    "url": "https://sh.lianjia.com/zufang/SH2128107205570854912.html",
    "rent_type": "整租",
    "location": "嘉定-安亭-黄渡春城美好嘉苑",
    "scraped_at": "2026-04-23 17:07:28",
    "region": "anting",
    "unit_price": 49.7,
    "lat": 31.284815,
    "lng": 121.233562
  },
  {
    "title": "整租·安亭瑞仕华庭 3室2厅 南/北",
    "community": "安亭瑞仕华庭",
    "area": "155.09",
    "rooms": "3室2厅",
    "direction": "南/北",
    "floor": "",
    "price": "5600",
    "tags": "",
    "source": "",
    "url": "https://sh.lianjia.com/zufang/SH2149469036797231104.html",
    "rent_type": "整租",
    "location": "嘉定-安亭-安亭瑞仕华庭",
    "scraped_at": "2026-04-23 17:08:42",
    "region": "anting",
    "unit_price": 36.1,
    "lat": 31.276021,
    "lng": 121.191891
  },
  {
    "title": "整租·大众春盛苑 3室2厅 南",
    "community": "大众春盛苑",
    "area": "112.02",
    "rooms": "3室2厅",
    "direction": "南",
    "floor": "",
    "price": "3100",
    "tags": "",
    "source": "",
    "url": "https://sh.lianjia.com/zufang/SH2156423587865559040.html",
    "rent_type": "整租",
    "location": "嘉定-安亭-大众春盛苑",
    "scraped_at": "2026-04-23 17:08:42",
    "region": "anting",
    "unit_price": 27.7,
    "lat": 31.271117,
    "lng": 121.207502
  },
  {
    "title": "整租·安亭中央公园 2室1厅 南",
    "community": "安亭中央公园",
    "area": "90.60",
    "rooms": "2室1厅",
    "direction": "南",
    "floor": "",
    "price": "3100",
    "tags": "",
    "source": "",
    "url": "https://sh.lianjia.com/zufang/SH1858383384921767936.html",
    "rent_type": "整租",
    "location": "嘉定-安亭-安亭中央公园",
    "scraped_at": "2026-04-23 17:08:36",
    "region": "anting",
    "unit_price": 34.2,
    "lat": 31.290875,
    "lng": 121.157001
  },
  {
    "title": "整租·西上海晶庭 1室1厅 南",
    "community": "西上海晶庭",
    "area": "57.00",
    "rooms": "1室1厅",
    "direction": "南",
    "floor": "",
    "price": "2600",
    "tags": "",
    "source": "",
    "url": "https://sh.lianjia.com/zufang/SH2129195276311724032.html",
    "rent_type": "整租",
    "location": "嘉定-安亭-西上海晶庭",
    "scraped_at": "2026-04-23 17:07:28",
    "region": "anting",
    "unit_price": 45.6,
    "lat": 31.287056,
    "lng": 121.203185
  },
  {
    "title": "整租·安亭瑞仕锦庭 2室1厅 南",
    "community": "安亭瑞仕锦庭",
    "area": "89.26",
    "rooms": "2室1厅",
    "direction": "南",
    "floor": "",
    "price": "3570",
    "tags": "",
    "source": "",
    "url": "https://sh.lianjia.com/zufang/SH1878446758007144448.html",
    "rent_type": "整租",
    "location": "嘉定-安亭-安亭瑞仕锦庭",
    "scraped_at": "2026-04-23 17:08:42",
    "region": "anting",
    "unit_price": 40.0,
    "lat": 31.275758,
    "lng": 121.186029
  },
  {
    "title": "独栋·乐璟生活社区 乐璟协通生活社区 安亭高性价比一居室 可短租 可月付 宠物友好 开间",
    "community": "乐璟生活社区 乐璟协通生活社区 安亭高性价比一居室 可短租 可月付 宠物友好 开间",
    "area": "30.00",
    "rooms": "",
    "direction": "",
    "floor": "",
    "price": "1558",
    "tags": "",
    "source": "",
    "url": "https://sh.lianjia.com/apartment/36946.html",
    "rent_type": "独栋",
    "location": "",
    "scraped_at": "2026-04-23 17:07:28",
    "region": "anting",
    "unit_price": 51.9,
    "lat": 31.27933,
    "lng": 121.198025
  },
  {
    "title": "整租·旭辉·公元 3室1厅 南",
    "community": "旭辉·公元",
    "area": "88.87",
    "rooms": "3室1厅",
    "direction": "南",
    "floor": "",
    "price": "3800",
    "tags": "",
    "source": "",
    "url": "https://sh.lianjia.com/zufang/SH1877620548083646464.html",
    "rent_type": "整租",
    "location": "嘉定-安亭-旭辉",
    "scraped_at": "2026-04-23 17:08:36",
    "region": "anting",
    "unit_price": 42.8,
    "lat": 31.305102,
    "lng": 121.179248
  },
  {
    "title": "整租·嘉亭菁苑 2室2厅 南",
    "community": "嘉亭菁苑",
    "area": "100.36",
    "rooms": "2室2厅",
    "direction": "南",
    "floor": "",
    "price": "4300",
    "tags": "",
    "source": "",
    "url": "https://sh.lianjia.com/zufang/SH1905531142258294784.html",
    "rent_type": "整租",
    "location": "嘉定-安亭-嘉亭菁苑",
    "scraped_at": "2026-04-23 17:08:36",
    "region": "anting",
    "unit_price": 42.8,
    "lat": 31.287225,
    "lng": 121.160505
  },
  {
    "title": "独栋·乐璟生活社区 汽车城生活社区 近创新港、同济大学，实习生限时特价好房，独立卫浴、民用水电、免费办理居住证 1室1厅",
    "community": "乐璟生活社区 汽车城生活社区 近创新港、同济大学，实习生限时特价好房，独立卫浴、民用水电、免费办理居住证",
    "area": "25.00",
    "rooms": "1室1厅",
    "direction": "",
    "floor": "",
    "price": "1765",
    "tags": "",
    "source": "",
    "url": "https://sh.lianjia.com/apartment/36944.html",
    "rent_type": "独栋",
    "location": "",
    "scraped_at": "2026-04-23 17:07:32",
    "region": "anting",
    "unit_price": 70.6,
    "lat": 31.044945,
    "lng": 121.608575
  },
  {
    "title": "整租·底特律财富天地 1室1厅 北",
    "community": "底特律财富天地",
    "area": "60.38",
    "rooms": "1室1厅",
    "direction": "北",
    "floor": "",
    "price": "2310",
    "tags": "",
    "source": "",
    "url": "https://sh.lianjia.com/zufang/SH1932431172269244416.html",
    "rent_type": "整租",
    "location": "嘉定-安亭-底特律财富天地",
    "scraped_at": "2026-04-23 17:08:36",
    "region": "anting",
    "unit_price": 38.3,
    "lat": 31.290041,
    "lng": 121.161513
  },
  {
    "title": "独栋·柚米 安亭旭辉公元柚米寓 保租房安亭阳光阳台房，可办居住证，停车方便，民水民电 1室1厅",
    "community": "柚米 安亭旭辉公元柚米寓 保租房安亭阳光阳台房，可办居住证，停车方便，民水民电",
    "area": "26.00",
    "rooms": "1室1厅",
    "direction": "",
    "floor": "",
    "price": "1830",
    "tags": "",
    "source": "",
    "url": "https://sh.lianjia.com/apartment/54731.html",
    "rent_type": "独栋",
    "location": "",
    "scraped_at": "2026-04-23 17:07:32",
    "region": "anting",
    "unit_price": 70.4,
    "lat": 31.140876,
    "lng": 121.316985
  },
  {
    "title": "整租·V6时代新源商务楼 1室1厅 南",
    "community": "V6时代新源商务楼",
    "area": "54.95",
    "rooms": "1室1厅",
    "direction": "南",
    "floor": "",
    "price": "1800",
    "tags": "",
    "source": "",
    "url": "https://sh.lianjia.com/zufang/SH1946218268293332992.html",
    "rent_type": "整租",
    "location": "嘉定-安亭",
    "scraped_at": "2026-04-23 17:08:42",
    "region": "anting",
    "unit_price": 32.8,
    "lat": 31.29096,
    "lng": 121.164267
  },
  {
    "title": "整租·安亭中央公园 2室1厅 南",
    "community": "安亭中央公园",
    "area": "108.00",
    "rooms": "2室1厅",
    "direction": "南",
    "floor": "",
    "price": "2800",
    "tags": "",
    "source": "",
    "url": "https://sh.lianjia.com/zufang/SH2129222668556173312.html",
    "rent_type": "整租",
    "location": "嘉定-安亭-安亭中央公园",
    "scraped_at": "2026-04-23 17:07:28",
    "region": "anting",
    "unit_price": 25.9,
    "lat": 31.290875,
    "lng": 121.157001
  },
  {
    "title": "整租·大华·梧桐樾 3室2厅 南/北",
    "community": "大华·梧桐樾",
    "area": "92.00",
    "rooms": "3室2厅",
    "direction": "南/北",
    "floor": "",
    "price": "4400",
    "tags": "",
    "source": "",
    "url": "https://sh.lianjia.com/zufang/SH2153476445354065920.html",
    "rent_type": "整租",
    "location": "嘉定-安亭-大华",
    "scraped_at": "2026-04-23 17:08:42",
    "region": "anting",
    "unit_price": 47.8,
    "lat": 31.269066,
    "lng": 121.170986
  },
  {
    "title": "整租·紫荆三村 3室2厅 南/北",
    "community": "紫荆三村",
    "area": "118.50",
    "rooms": "3室2厅",
    "direction": "南/北",
    "floor": "",
    "price": "3300",
    "tags": "",
    "source": "",
    "url": "https://sh.lianjia.com/zufang/SH2127036413282091008.html",
    "rent_type": "整租",
    "location": "嘉定-安亭-紫荆三村",
    "scraped_at": "2026-04-23 17:07:28",
    "region": "anting",
    "unit_price": 27.8,
    "lat": 31.293102,
    "lng": 121.167053
  },
  {
    "title": "整租·V6时代新源商务楼 1室1厅 西",
    "community": "V6时代新源商务楼",
    "area": "50.00",
    "rooms": "1室1厅",
    "direction": "西",
    "floor": "",
    "price": "2300",
    "tags": "",
    "source": "",
    "url": "https://sh.lianjia.com/zufang/SH1885647198822072320.html",
    "rent_type": "整租",
    "location": "嘉定-安亭",
    "scraped_at": "2026-04-23 17:08:36",
    "region": "anting",
    "unit_price": 46.0,
    "lat": 31.29096,
    "lng": 121.164267
  },
  {
    "title": "独栋·保利和寓 昌吉东路青年社区 4月特惠！11号线昌吉东路站地铁口朝南两居 可办居住证！ 2室1厅",
    "community": "保利和寓 昌吉东路青年社区 4月特惠！11号线昌吉东路站地铁口朝南两居 可办居住证！",
    "area": "65.00",
    "rooms": "2室1厅",
    "direction": "",
    "floor": "",
    "price": "3650",
    "tags": "",
    "source": "",
    "url": "https://sh.lianjia.com/apartment/52165.html",
    "rent_type": "独栋",
    "location": "",
    "scraped_at": "2026-04-23 17:07:35",
    "region": "anting",
    "unit_price": 56.2,
    "lat": 31.206932,
    "lng": 121.433617
  },
  {
    "title": "整租·红梅小区(嘉定) 2室1厅 南",
    "community": "红梅小区(嘉定)",
    "area": "54.98",
    "rooms": "2室1厅",
    "direction": "南",
    "floor": "",
    "price": "2000",
    "tags": "",
    "source": "",
    "url": "https://sh.lianjia.com/zufang/SH1844631479900962816.html",
    "rent_type": "整租",
    "location": "嘉定-安亭-红梅小区(嘉定)",
    "scraped_at": "2026-04-23 17:08:36",
    "region": "anting",
    "unit_price": 36.4,
    "lat": 31.294042,
    "lng": 121.159222
  },
  {
    "title": "整租·协通公寓 4室3厅 复式 南",
    "community": "协通公寓",
    "area": "217.28",
    "rooms": "4室3厅",
    "direction": "",
    "floor": "",
    "price": "5000",
    "tags": "",
    "source": "",
    "url": "https://sh.lianjia.com/zufang/SH2148976024203821056.html",
    "rent_type": "整租",
    "location": "嘉定-安亭-协通公寓",
    "scraped_at": "2026-04-23 17:07:28",
    "region": "anting",
    "unit_price": 23.0,
    "lat": 31.29642,
    "lng": 121.152782
  },
  {
    "title": "整租·恒大名都 2室1厅 南",
    "community": "恒大名都",
    "area": "74.74",
    "rooms": "2室1厅",
    "direction": "南",
    "floor": "",
    "price": "3800",
    "tags": "",
    "source": "",
    "url": "https://sh.lianjia.com/zufang/SH2149818296227069952.html",
    "rent_type": "整租",
    "location": "嘉定-安亭-恒大名都",
    "scraped_at": "2026-04-23 17:07:28",
    "region": "anting",
    "unit_price": 50.8,
    "lat": 31.292322,
    "lng": 121.192537
  },
  {
    "title": "整租·路劲上海派君悦华庭 2室1厅 东南/南",
    "community": "路劲上海派君悦华庭",
    "area": "109.51",
    "rooms": "2室1厅",
    "direction": "东南/南",
    "floor": "",
    "price": "3500",
    "tags": "",
    "source": "",
    "url": "https://sh.lianjia.com/zufang/SH2149803834967326720.html",
    "rent_type": "整租",
    "location": "嘉定-安亭-路劲上海派君悦华庭",
    "scraped_at": "2026-04-23 17:07:28",
    "region": "anting",
    "unit_price": 32.0,
    "lat": 31.291,
    "lng": 121.195176
  },
  {
    "title": "整租·承安翡翠公馆 2室1厅 南",
    "community": "承安翡翠公馆",
    "area": "82.57",
    "rooms": "2室1厅",
    "direction": "南",
    "floor": "",
    "price": "3600",
    "tags": "",
    "source": "",
    "url": "https://sh.lianjia.com/zufang/SH2150171373719257088.html",
    "rent_type": "整租",
    "location": "嘉定-安亭-承安翡翠公馆",
    "scraped_at": "2026-04-23 17:07:28",
    "region": "anting",
    "unit_price": 43.6,
    "lat": 31.300559,
    "lng": 121.162172
  },
  {
    "title": "整租·嘉宝新力梦之晴华庭 3室2厅 南",
    "community": "嘉宝新力梦之晴华庭",
    "area": "97.55",
    "rooms": "3室2厅",
    "direction": "南",
    "floor": "",
    "price": "4300",
    "tags": "",
    "source": "",
    "url": "https://sh.lianjia.com/zufang/SH1682342359150362624.html",
    "rent_type": "整租",
    "location": "嘉定-安亭-嘉宝新力梦之晴华庭",
    "scraped_at": "2026-04-23 17:08:36",
    "region": "anting",
    "unit_price": 44.1,
    "lat": 31.298283,
    "lng": 121.196427
  },
  {
    "title": "整租·博泰新苑 2室1厅 南",
    "community": "博泰新苑",
    "area": "88.32",
    "rooms": "2室1厅",
    "direction": "南",
    "floor": "",
    "price": "2625",
    "tags": "",
    "source": "",
    "url": "https://sh.lianjia.com/zufang/SH1874105514774757376.html",
    "rent_type": "整租",
    "location": "嘉定-安亭-博泰新苑",
    "scraped_at": "2026-04-23 17:08:42",
    "region": "anting",
    "unit_price": 29.7,
    "lat": 31.302341,
    "lng": 121.151062
  },
  {
    "title": "独栋·国寓公寓 同济店 没有中介费！过道窗！独卫可做饭!月付！可开票 开间",
    "community": "国寓公寓 同济店 没有中介费！过道窗！独卫可做饭!月付！可开票 开间",
    "area": "18.00",
    "rooms": "",
    "direction": "",
    "floor": "",
    "price": "1980",
    "tags": "",
    "source": "",
    "url": "https://sh.lianjia.com/apartment/87929.html",
    "rent_type": "独栋",
    "location": "",
    "scraped_at": "2026-04-23 17:07:32",
    "region": "anting",
    "unit_price": 110.0,
    "lat": 31.171391,
    "lng": 121.434508
  },
  {
    "title": "整租·红梅小区(嘉定) 2室1厅 南",
    "community": "红梅小区(嘉定)",
    "area": "62.00",
    "rooms": "2室1厅",
    "direction": "南",
    "floor": "",
    "price": "2200",
    "tags": "",
    "source": "",
    "url": "https://sh.lianjia.com/zufang/SH1874429325118275584.html",
    "rent_type": "整租",
    "location": "嘉定-安亭-红梅小区(嘉定)",
    "scraped_at": "2026-04-23 17:08:42",
    "region": "anting",
    "unit_price": 35.5,
    "lat": 31.294042,
    "lng": 121.159222
  },
  {
    "title": "整租·玉兰三村 2室1厅 南",
    "community": "玉兰三村",
    "area": "82.31",
    "rooms": "2室1厅",
    "direction": "南",
    "floor": "",
    "price": "2415",
    "tags": "",
    "source": "",
    "url": "https://sh.lianjia.com/zufang/SH2152602032148578304.html",
    "rent_type": "整租",
    "location": "嘉定-安亭-玉兰三村",
    "scraped_at": "2026-04-23 17:08:42",
    "region": "anting",
    "unit_price": 29.3,
    "lat": 31.299607,
    "lng": 121.160238
  },
  {
    "title": "整租·新虹桥时代公馆 1室1厅 东",
    "community": "新虹桥时代公馆",
    "area": "58.00",
    "rooms": "1室1厅",
    "direction": "东",
    "floor": "",
    "price": "1900",
    "tags": "",
    "source": "",
    "url": "https://sh.lianjia.com/zufang/SH2144005383813857280.html",
    "rent_type": "整租",
    "location": "嘉定-安亭-新虹桥时代公馆",
    "scraped_at": "2026-04-23 17:07:32",
    "region": "anting",
    "unit_price": 32.8,
    "lat": 31.31699,
    "lng": 121.22688
  },
  {
    "title": "整租·红梅小区(嘉定) 2室1厅 南",
    "community": "红梅小区(嘉定)",
    "area": "47.18",
    "rooms": "2室1厅",
    "direction": "南",
    "floor": "",
    "price": "2000",
    "tags": "",
    "source": "",
    "url": "https://sh.lianjia.com/zufang/SH1955913517836009472.html",
    "rent_type": "整租",
    "location": "嘉定-安亭-红梅小区(嘉定)",
    "scraped_at": "2026-04-23 17:08:36",
    "region": "anting",
    "unit_price": 42.4,
    "lat": 31.294042,
    "lng": 121.159222
  },
  {
    "title": "整租·中骏璟尚 3室2厅 南",
    "community": "中骏璟尚",
    "area": "99.07",
    "rooms": "3室2厅",
    "direction": "南",
    "floor": "",
    "price": "6090",
    "tags": "",
    "source": "",
    "url": "https://sh.lianjia.com/zufang/SH2153506259804880896.html",
    "rent_type": "整租",
    "location": "嘉定-安亭-中骏璟尚",
    "scraped_at": "2026-04-23 17:08:42",
    "region": "anting",
    "unit_price": 61.5,
    "lat": 31.285483,
    "lng": 121.161272
  },
  {
    "title": "整租·中骏璟尚 2室2厅 南",
    "community": "中骏璟尚",
    "area": "76.16",
    "rooms": "2室2厅",
    "direction": "南",
    "floor": "",
    "price": "3990",
    "tags": "",
    "source": "",
    "url": "https://sh.lianjia.com/zufang/SH1891813152371245056.html",
    "rent_type": "整租",
    "location": "嘉定-安亭-中骏璟尚",
    "scraped_at": "2026-04-23 17:08:36",
    "region": "anting",
    "unit_price": 52.4,
    "lat": 31.285483,
    "lng": 121.161272
  },
  {
    "title": "整租·万科西郊都会 2室2厅 南",
    "community": "万科西郊都会",
    "area": "78.51",
    "rooms": "2室2厅",
    "direction": "南",
    "floor": "",
    "price": "4500",
    "tags": "",
    "source": "",
    "url": "https://sh.lianjia.com/zufang/SH2151557228484624384.html",
    "rent_type": "整租",
    "location": "嘉定-安亭-万科西郊都会",
    "scraped_at": "2026-04-23 17:07:35",
    "region": "anting",
    "unit_price": 57.3,
    "lat": 31.272136,
    "lng": 121.195721
  },
  {
    "title": "整租·西上海御庭 2室1厅 南",
    "community": "西上海御庭",
    "area": "90.43",
    "rooms": "2室1厅",
    "direction": "南",
    "floor": "",
    "price": "2940",
    "tags": "",
    "source": "",
    "url": "https://sh.lianjia.com/zufang/SH2129183655988297728.html",
    "rent_type": "整租",
    "location": "嘉定-安亭-西上海御庭",
    "scraped_at": "2026-04-23 17:07:32",
    "region": "anting",
    "unit_price": 32.5,
    "lat": 31.287004,
    "lng": 121.205291
  },
  {
    "title": "整租·安亭新镇宾根花园(公寓) 2室1厅 南",
    "community": "安亭新镇宾根花园(公寓)",
    "area": "78.23",
    "rooms": "2室1厅",
    "direction": "南",
    "floor": "",
    "price": "3500",
    "tags": "",
    "source": "",
    "url": "https://sh.lianjia.com/zufang/SH2152344209401577472.html",
    "rent_type": "整租",
    "location": "嘉定-安亭-安亭新镇宾根花园(公寓)",
    "scraped_at": "2026-04-23 17:07:35",
    "region": "anting",
    "unit_price": 44.7,
    "lat": 31.265158,
    "lng": 121.172303
  },
  {
    "title": "整租·新城尚上城（商住） 2室1厅 北",
    "community": "新城尚上城（商住）",
    "area": "45.00",
    "rooms": "2室1厅",
    "direction": "北",
    "floor": "",
    "price": "2415",
    "tags": "",
    "source": "",
    "url": "https://sh.lianjia.com/zufang/SH1948695532813680640.html",
    "rent_type": "整租",
    "location": "嘉定-安亭-新城尚上城",
    "scraped_at": "2026-04-23 17:08:36",
    "region": "anting",
    "unit_price": 53.7,
    "lat": 31.284302,
    "lng": 121.181041
  },
  {
    "title": "整租·嘉亭菁苑 3室2厅 南",
    "community": "嘉亭菁苑",
    "area": "144.00",
    "rooms": "3室2厅",
    "direction": "南",
    "floor": "",
    "price": "6000",
    "tags": "",
    "source": "",
    "url": "https://sh.lianjia.com/zufang/SH2129466463768018944.html",
    "rent_type": "整租",
    "location": "嘉定-安亭-嘉亭菁苑",
    "scraped_at": "2026-04-23 17:07:32",
    "region": "anting",
    "unit_price": 41.7,
    "lat": 31.287225,
    "lng": 121.160505
  },
  {
    "title": "整租·万立城 2室1厅 南",
    "community": "万立城",
    "area": "86.04",
    "rooms": "2室1厅",
    "direction": "南",
    "floor": "",
    "price": "3900",
    "tags": "",
    "source": "",
    "url": "https://sh.lianjia.com/zufang/SH2153377897014886400.html",
    "rent_type": "整租",
    "location": "嘉定-安亭-万立城",
    "scraped_at": "2026-04-23 17:07:35",
    "region": "anting",
    "unit_price": 45.3,
    "lat": 31.283866,
    "lng": 121.178156
  },
  {
    "title": "整租·绿地新里米兰公寓 2室1厅 南",
    "community": "绿地新里米兰公寓",
    "area": "78.36",
    "rooms": "2室1厅",
    "direction": "南",
    "floor": "",
    "price": "3300",
    "tags": "",
    "source": "",
    "url": "https://sh.lianjia.com/zufang/SH2141418055928905728.html",
    "rent_type": "整租",
    "location": "嘉定-安亭-绿地新里米兰公寓",
    "scraped_at": "2026-04-23 17:07:32",
    "region": "anting",
    "unit_price": 42.1,
    "lat": 31.293872,
    "lng": 121.198672
  },
  {
    "title": "整租·江心月庐 1室1厅 南",
    "community": "江心月庐",
    "area": "58.50",
    "rooms": "1室1厅",
    "direction": "南",
    "floor": "",
    "price": "2700",
    "tags": "",
    "source": "",
    "url": "https://sh.lianjia.com/zufang/SH2153138310279593984.html",
    "rent_type": "整租",
    "location": "嘉定-安亭-江心月庐",
    "scraped_at": "2026-04-23 17:07:35",
    "region": "anting",
    "unit_price": 46.2,
    "lat": 31.282709,
    "lng": 121.231118
  },
  {
    "title": "整租·路劲上海派+嘉悦澜庭 3室2厅 南",
    "community": "路劲上海派+嘉悦澜庭",
    "area": "88.89",
    "rooms": "3室2厅",
    "direction": "南",
    "floor": "",
    "price": "4500",
    "tags": "",
    "source": "",
    "url": "https://sh.lianjia.com/zufang/SH2149862346955161600.html",
    "rent_type": "整租",
    "location": "嘉定-安亭-路劲上海派",
    "scraped_at": "2026-04-23 17:07:35",
    "region": "anting",
    "unit_price": 50.6,
    "lat": 31.292597,
    "lng": 121.198247
  },
  {
    "title": "整租·新城尚上城（商住） 2室2厅 南",
    "community": "新城尚上城（商住）",
    "area": "52.00",
    "rooms": "2室2厅",
    "direction": "南",
    "floor": "",
    "price": "2400",
    "tags": "",
    "source": "",
    "url": "https://sh.lianjia.com/zufang/SH2151644167002914816.html",
    "rent_type": "整租",
    "location": "嘉定-安亭-新城尚上城",
    "scraped_at": "2026-04-23 17:07:35",
    "region": "anting",
    "unit_price": 46.2,
    "lat": 31.284302,
    "lng": 121.181041
  },
  {
    "title": "整租·底特律财富天地 1室1厅 东北",
    "community": "底特律财富天地",
    "area": "63.00",
    "rooms": "1室1厅",
    "direction": "东北",
    "floor": "",
    "price": "2625",
    "tags": "",
    "source": "",
    "url": "https://sh.lianjia.com/zufang/SH2022903619459743744.html",
    "rent_type": "整租",
    "location": "嘉定-安亭-底特律财富天地",
    "scraped_at": "2026-04-23 17:08:36",
    "region": "anting",
    "unit_price": 41.7,
    "lat": 31.290041,
    "lng": 121.161513
  },
  {
    "title": "整租·尚都国际酒店公寓 1室1厅 北",
    "community": "尚都国际酒店公寓",
    "area": "56.11",
    "rooms": "1室1厅",
    "direction": "北",
    "floor": "",
    "price": "2430",
    "tags": "",
    "source": "",
    "url": "https://sh.lianjia.com/zufang/SH1794775301876613120.html",
    "rent_type": "整租",
    "location": "嘉定-安亭-尚都国际酒店公寓",
    "scraped_at": "2026-04-23 17:07:35",
    "region": "anting",
    "unit_price": 43.3,
    "lat": 31.283994,
    "lng": 121.173883
  },
  {
    "title": "整租·V6时代新源商务楼 1室1厅 北",
    "community": "V6时代新源商务楼",
    "area": "55.32",
    "rooms": "1室1厅",
    "direction": "北",
    "floor": "",
    "price": "2460",
    "tags": "",
    "source": "",
    "url": "https://sh.lianjia.com/zufang/SH1784137589402370048.html",
    "rent_type": "整租",
    "location": "嘉定-安亭",
    "scraped_at": "2026-04-23 17:07:35",
    "region": "anting",
    "unit_price": 44.5,
    "lat": 31.29096,
    "lng": 121.164267
  },
  {
    "title": "整租·万科西郊都会 2室2厅 南",
    "community": "万科西郊都会",
    "area": "81.00",
    "rooms": "2室2厅",
    "direction": "南",
    "floor": "",
    "price": "4100",
    "tags": "",
    "source": "",
    "url": "https://sh.lianjia.com/zufang/SH2143540239656812544.html",
    "rent_type": "整租",
    "location": "嘉定-安亭-万科西郊都会",
    "scraped_at": "2026-04-23 17:07:35",
    "region": "anting",
    "unit_price": 50.6,
    "lat": 31.272136,
    "lng": 121.195721
  },
  {
    "title": "整租·尚都国际酒店公寓 1室1厅 北",
    "community": "尚都国际酒店公寓",
    "area": "54.95",
    "rooms": "1室1厅",
    "direction": "北",
    "floor": "",
    "price": "2386",
    "tags": "",
    "source": "",
    "url": "https://sh.lianjia.com/zufang/SH2683351739544895488.html",
    "rent_type": "整租",
    "location": "嘉定-安亭-尚都国际酒店公寓",
    "scraped_at": "2026-04-23 17:07:35",
    "region": "anting",
    "unit_price": 43.4,
    "lat": 31.283994,
    "lng": 121.173883
  },
  {
    "title": "整租·新城尚上城 2室1厅 南",
    "community": "新城尚上城",
    "area": "92.00",
    "rooms": "2室1厅",
    "direction": "南",
    "floor": "",
    "price": "4050",
    "tags": "",
    "source": "",
    "url": "https://sh.lianjia.com/zufang/SH2142654811756036096.html",
    "rent_type": "整租",
    "location": "嘉定-安亭-新城尚上城",
    "scraped_at": "2026-04-23 17:07:35",
    "region": "anting",
    "unit_price": 44.0,
    "lat": 31.284302,
    "lng": 121.181041
  },
  {
    "title": "整租·金桂新村 3室1厅 南",
    "community": "金桂新村",
    "area": "85.00",
    "rooms": "3室1厅",
    "direction": "南",
    "floor": "",
    "price": "3200",
    "tags": "",
    "source": "",
    "url": "https://sh.lianjia.com/zufang/SH2145084685724680192.html",
    "rent_type": "整租",
    "location": "嘉定-安亭-金桂新村",
    "scraped_at": "2026-04-23 17:07:35",
    "region": "anting",
    "unit_price": 37.6,
    "lat": 31.287298,
    "lng": 121.166368
  },
  {
    "title": "整租·万立城(商业类) 2室1厅 南",
    "community": "万立城(商业类)",
    "area": "41.90",
    "rooms": "2室1厅",
    "direction": "南",
    "floor": "",
    "price": "2700",
    "tags": "",
    "source": "",
    "url": "https://sh.lianjia.com/zufang/SH2156984823963451392.html",
    "rent_type": "整租",
    "location": "嘉定-安亭-万立城(商业类)",
    "scraped_at": "2026-04-23 17:07:35",
    "region": "anting",
    "unit_price": 64.4,
    "lat": 31.283866,
    "lng": 121.178156
  },
  {
    "title": "整租·上海派观澜雅庭 3室1厅 东南/南",
    "community": "上海派观澜雅庭",
    "area": "88.57",
    "rooms": "3室1厅",
    "direction": "东南/南",
    "floor": "",
    "price": "3500",
    "tags": "",
    "source": "",
    "url": "https://sh.lianjia.com/zufang/SH2153512184301223936.html",
    "rent_type": "整租",
    "location": "嘉定-安亭-上海派观澜雅庭",
    "scraped_at": "2026-04-23 17:07:35",
    "region": "anting",
    "unit_price": 39.5,
    "lat": 31.293878,
    "lng": 121.192352
  },
  {
    "title": "整租·绿地海域苏河源(一期) 2室1厅 南",
    "community": "绿地海域苏河源(一期)",
    "area": "81.14",
    "rooms": "2室1厅",
    "direction": "南",
    "floor": "",
    "price": "3300",
    "tags": "",
    "source": "",
    "url": "https://sh.lianjia.com/zufang/SH2154132371996147712.html",
    "rent_type": "整租",
    "location": "嘉定-安亭-绿地海域苏河源(一期)",
    "scraped_at": "2026-04-23 17:07:35",
    "region": "anting",
    "unit_price": 40.7,
    "lat": 31.278629,
    "lng": 121.15991
  },
  {
    "title": "整租·上海派观澜雅庭 2室2厅 东南/南",
    "community": "上海派观澜雅庭",
    "area": "69.92",
    "rooms": "2室2厅",
    "direction": "东南/南",
    "floor": "",
    "price": "3200",
    "tags": "",
    "source": "",
    "url": "https://sh.lianjia.com/zufang/SH2155979383418912768.html",
    "rent_type": "整租",
    "location": "嘉定-安亭-上海派观澜雅庭",
    "scraped_at": "2026-04-23 17:07:35",
    "region": "anting",
    "unit_price": 45.8,
    "lat": 31.293878,
    "lng": 121.192352
  },
  {
    "title": "整租·柏林映像 3室2厅 南",
    "community": "柏林映像",
    "area": "138.82",
    "rooms": "3室2厅",
    "direction": "南",
    "floor": "",
    "price": "7000",
    "tags": "",
    "source": "",
    "url": "https://sh.lianjia.com/zufang/SH2147659561694134272.html",
    "rent_type": "整租",
    "location": "嘉定-安亭-柏林映像",
    "scraped_at": "2026-04-23 17:07:35",
    "region": "anting",
    "unit_price": 50.4,
    "lat": 31.264487,
    "lng": 121.174173
  },
  {
    "title": "整租·莱英北郡 4室2厅 南",
    "community": "莱英北郡",
    "area": "142.58",
    "rooms": "4室2厅",
    "direction": "南",
    "floor": "",
    "price": "5800",
    "tags": "",
    "source": "",
    "url": "https://sh.lianjia.com/zufang/SH2150556586244833280.html",
    "rent_type": "整租",
    "location": "嘉定-安亭-莱英北郡",
    "scraped_at": "2026-04-23 17:07:35",
    "region": "anting",
    "unit_price": 40.7,
    "lat": 31.27762,
    "lng": 121.213584
  },
  {
    "title": "整租·安亭新镇风苑 2室2厅 南",
    "community": "安亭新镇风苑",
    "area": "106.00",
    "rooms": "2室2厅",
    "direction": "南",
    "floor": "",
    "price": "4200",
    "tags": "",
    "source": "",
    "url": "https://sh.lianjia.com/zufang/SH2154204899129163776.html",
    "rent_type": "整租",
    "location": "嘉定-安亭-安亭新镇风苑",
    "scraped_at": "2026-04-23 17:07:35",
    "region": "anting",
    "unit_price": 39.6,
    "lat": 31.270401,
    "lng": 121.170802
  },
  {
    "title": "整租·万立城(商业类) 2室1厅 北",
    "community": "万立城(商业类)",
    "area": "66.00",
    "rooms": "2室1厅",
    "direction": "北",
    "floor": "",
    "price": "2600",
    "tags": "",
    "source": "",
    "url": "https://sh.lianjia.com/zufang/SH2156676388902404096.html",
    "rent_type": "整租",
    "location": "嘉定-安亭-万立城(商业类)",
    "scraped_at": "2026-04-23 17:07:35",
    "region": "anting",
    "unit_price": 39.4,
    "lat": 31.283866,
    "lng": 121.178156
  },
  {
    "title": "整租·路劲上海派君悦华庭 2室1厅 南/北",
    "community": "路劲上海派君悦华庭",
    "area": "79.00",
    "rooms": "2室1厅",
    "direction": "南/北",
    "floor": "",
    "price": "2600",
    "tags": "",
    "source": "",
    "url": "https://sh.lianjia.com/zufang/SH2152375876761681920.html",
    "rent_type": "整租",
    "location": "嘉定-安亭-路劲上海派君悦华庭",
    "scraped_at": "2026-04-23 17:07:35",
    "region": "anting",
    "unit_price": 32.9,
    "lat": 31.291,
    "lng": 121.195176
  },
  {
    "title": "整租·新城尚上城 2室2厅 南",
    "community": "新城尚上城",
    "area": "82.84",
    "rooms": "2室2厅",
    "direction": "南",
    "floor": "",
    "price": "3500",
    "tags": "",
    "source": "",
    "url": "https://sh.lianjia.com/zufang/SH2156768467859013632.html",
    "rent_type": "整租",
    "location": "嘉定-安亭-新城尚上城",
    "scraped_at": "2026-04-23 17:07:35",
    "region": "anting",
    "unit_price": 42.3,
    "lat": 31.284302,
    "lng": 121.181041
  },
  {
    "title": "整租·上海派 3室2厅 南",
    "community": "上海派",
    "area": "88.00",
    "rooms": "3室2厅",
    "direction": "南",
    "floor": "",
    "price": "4000",
    "tags": "",
    "source": "",
    "url": "https://sh.lianjia.com/zufang/SH2154912683625807872.html",
    "rent_type": "整租",
    "location": "嘉定-安亭-上海派",
    "scraped_at": "2026-04-23 17:07:35",
    "region": "anting",
    "unit_price": 45.5,
    "lat": 31.288239,
    "lng": 121.19285
  },
  {
    "title": "整租·万立城(商业类) 2室1厅 南",
    "community": "万立城(商业类)",
    "area": "51.21",
    "rooms": "2室1厅",
    "direction": "南",
    "floor": "",
    "price": "3000",
    "tags": "",
    "source": "",
    "url": "https://sh.lianjia.com/zufang/SH2150458272216252416.html",
    "rent_type": "整租",
    "location": "嘉定-安亭-万立城(商业类)",
    "scraped_at": "2026-04-23 17:07:35",
    "region": "anting",
    "unit_price": 58.6,
    "lat": 31.283866,
    "lng": 121.178156
  },
  {
    "title": "整租·上海派观澜雅庭 2室1厅 南",
    "community": "上海派观澜雅庭",
    "area": "69.92",
    "rooms": "2室1厅",
    "direction": "南",
    "floor": "",
    "price": "3200",
    "tags": "",
    "source": "",
    "url": "https://sh.lianjia.com/zufang/SH2154178167319822336.html",
    "rent_type": "整租",
    "location": "嘉定-安亭-上海派观澜雅庭",
    "scraped_at": "2026-04-23 17:07:39",
    "region": "anting",
    "unit_price": 45.8,
    "lat": 31.293878,
    "lng": 121.192352
  },
  {
    "title": "整租·大学里(二期) 3室2厅 南/北",
    "community": "大学里(二期)",
    "area": "91.00",
    "rooms": "3室2厅",
    "direction": "南/北",
    "floor": "",
    "price": "3500",
    "tags": "",
    "source": "",
    "url": "https://sh.lianjia.com/zufang/SH2144760764731228160.html",
    "rent_type": "整租",
    "location": "嘉定-安亭-大学里(二期)",
    "scraped_at": "2026-04-23 17:07:39",
    "region": "anting",
    "unit_price": 38.5,
    "lat": 31.302359,
    "lng": 121.153509
  },
  {
    "title": "整租·莱英北郡 4室3厅 南/北",
    "community": "莱英北郡",
    "area": "216.72",
    "rooms": "4室3厅",
    "direction": "南/北",
    "floor": "",
    "price": "7800",
    "tags": "",
    "source": "",
    "url": "https://sh.lianjia.com/zufang/SH2140363916289507328.html",
    "rent_type": "整租",
    "location": "嘉定-安亭-莱英北郡",
    "scraped_at": "2026-04-23 17:07:39",
    "region": "anting",
    "unit_price": 36.0,
    "lat": 31.27762,
    "lng": 121.213584
  },
  {
    "title": "整租·沁乐小区 3室2厅 南",
    "community": "沁乐小区",
    "area": "85.71",
    "rooms": "3室2厅",
    "direction": "南",
    "floor": "",
    "price": "3500",
    "tags": "",
    "source": "",
    "url": "https://sh.lianjia.com/zufang/SH2153683028541440000.html",
    "rent_type": "整租",
    "location": "嘉定-安亭-沁乐小区",
    "scraped_at": "2026-04-23 17:07:39",
    "region": "anting",
    "unit_price": 40.8,
    "lat": 31.308282,
    "lng": 121.157682
  },
  {
    "title": "整租·大华·梧桐樾 3室2厅 东南/南",
    "community": "大华·梧桐樾",
    "area": "92.00",
    "rooms": "3室2厅",
    "direction": "东南/南",
    "floor": "",
    "price": "3800",
    "tags": "",
    "source": "",
    "url": "https://sh.lianjia.com/zufang/SH2153482145996210176.html",
    "rent_type": "整租",
    "location": "嘉定-安亭-大华",
    "scraped_at": "2026-04-23 17:07:39",
    "region": "anting",
    "unit_price": 41.3,
    "lat": 31.269066,
    "lng": 121.170986
  },
  {
    "title": "整租·玉兰四村 3室2厅 南",
    "community": "玉兰四村",
    "area": "119.00",
    "rooms": "3室2厅",
    "direction": "南",
    "floor": "",
    "price": "3000",
    "tags": "",
    "source": "",
    "url": "https://sh.lianjia.com/zufang/SH2153496481368113152.html",
    "rent_type": "整租",
    "location": "嘉定-安亭-玉兰四村",
    "scraped_at": "2026-04-23 17:07:39",
    "region": "anting",
    "unit_price": 25.2,
    "lat": 31.297364,
    "lng": 121.166104
  },
  {
    "title": "整租·安亭瑞仕锦庭 3室2厅 南/北",
    "community": "安亭瑞仕锦庭",
    "area": "122.00",
    "rooms": "3室2厅",
    "direction": "南/北",
    "floor": "",
    "price": "4800",
    "tags": "",
    "source": "",
    "url": "https://sh.lianjia.com/zufang/SH2153853258630692864.html",
    "rent_type": "整租",
    "location": "嘉定-安亭-安亭瑞仕锦庭",
    "scraped_at": "2026-04-23 17:07:39",
    "region": "anting",
    "unit_price": 39.3,
    "lat": 31.275758,
    "lng": 121.186029
  },
  {
    "title": "整租·绿地新里米兰公寓 2室1厅 南",
    "community": "绿地新里米兰公寓",
    "area": "81.78",
    "rooms": "2室1厅",
    "direction": "南",
    "floor": "",
    "price": "3300",
    "tags": "",
    "source": "",
    "url": "https://sh.lianjia.com/zufang/SH2154083231199133696.html",
    "rent_type": "整租",
    "location": "嘉定-安亭-绿地新里米兰公寓",
    "scraped_at": "2026-04-23 17:07:39",
    "region": "anting",
    "unit_price": 40.4,
    "lat": 31.293872,
    "lng": 121.198672
  },
  {
    "title": "整租·水仙小区 1室1厅 南",
    "community": "水仙小区",
    "area": "34.46",
    "rooms": "1室1厅",
    "direction": "南",
    "floor": "",
    "price": "2300",
    "tags": "",
    "source": "",
    "url": "https://sh.lianjia.com/zufang/SH2152337709132152832.html",
    "rent_type": "整租",
    "location": "嘉定-安亭-水仙小区",
    "scraped_at": "2026-04-23 17:07:39",
    "region": "anting",
    "unit_price": 66.7,
    "lat": 31.295634,
    "lng": 121.158502
  },
  {
    "title": "整租·上海派观澜雅庭 2室1厅 南",
    "community": "上海派观澜雅庭",
    "area": "70.00",
    "rooms": "2室1厅",
    "direction": "南",
    "floor": "",
    "price": "3450",
    "tags": "",
    "source": "",
    "url": "https://sh.lianjia.com/zufang/SH2140056812622184448.html",
    "rent_type": "整租",
    "location": "嘉定-安亭-上海派观澜雅庭",
    "scraped_at": "2026-04-23 17:07:39",
    "region": "anting",
    "unit_price": 49.3,
    "lat": 31.293878,
    "lng": 121.192352
  },
  {
    "title": "整租·新城尚上城（商住） 2室1厅 北",
    "community": "新城尚上城（商住）",
    "area": "45.00",
    "rooms": "2室1厅",
    "direction": "北",
    "floor": "",
    "price": "2400",
    "tags": "",
    "source": "",
    "url": "https://sh.lianjia.com/zufang/SH2157056130180710400.html",
    "rent_type": "整租",
    "location": "嘉定-安亭-新城尚上城",
    "scraped_at": "2026-04-23 17:07:39",
    "region": "anting",
    "unit_price": 53.3,
    "lat": 31.284302,
    "lng": 121.181041
  },
  {
    "title": "整租·西上海御庭 2室2厅 南",
    "community": "西上海御庭",
    "area": "90.43",
    "rooms": "2室2厅",
    "direction": "南",
    "floor": "",
    "price": "3000",
    "tags": "",
    "source": "",
    "url": "https://sh.lianjia.com/zufang/SH2152647760879288320.html",
    "rent_type": "整租",
    "location": "嘉定-安亭-西上海御庭",
    "scraped_at": "2026-04-23 17:07:39",
    "region": "anting",
    "unit_price": 33.2,
    "lat": 31.287004,
    "lng": 121.205291
  },
  {
    "title": "整租·新城尚上城 2室2厅 南",
    "community": "新城尚上城",
    "area": "78.79",
    "rooms": "2室2厅",
    "direction": "南",
    "floor": "",
    "price": "3700",
    "tags": "",
    "source": "",
    "url": "https://sh.lianjia.com/zufang/SH2153361914464305152.html",
    "rent_type": "整租",
    "location": "嘉定-安亭-新城尚上城",
    "scraped_at": "2026-04-23 17:07:39",
    "region": "anting",
    "unit_price": 47.0,
    "lat": 31.284302,
    "lng": 121.181041
  },
  {
    "title": "整租·兴苑 2室2厅 南",
    "community": "兴苑",
    "area": "103.61",
    "rooms": "2室2厅",
    "direction": "南",
    "floor": "",
    "price": "3500",
    "tags": "",
    "source": "",
    "url": "https://sh.lianjia.com/zufang/SH2013255137060978688.html",
    "rent_type": "整租",
    "location": "嘉定-安亭-兴苑",
    "scraped_at": "2026-04-23 17:07:39",
    "region": "anting",
    "unit_price": 33.8,
    "lat": 31.2716,
    "lng": 121.17208
  },
  {
    "title": "整租·协通公寓 3室2厅 南",
    "community": "协通公寓",
    "area": "137.00",
    "rooms": "3室2厅",
    "direction": "南",
    "floor": "",
    "price": "3600",
    "tags": "",
    "source": "",
    "url": "https://sh.lianjia.com/zufang/SH2138196698323746816.html",
    "rent_type": "整租",
    "location": "嘉定-安亭-协通公寓",
    "scraped_at": "2026-04-23 17:07:39",
    "region": "anting",
    "unit_price": 26.3,
    "lat": 31.29642,
    "lng": 121.152782
  },
  {
    "title": "整租·兰棠佳苑 2室1厅 东南",
    "community": "兰棠佳苑",
    "area": "80.00",
    "rooms": "2室1厅",
    "direction": "东南",
    "floor": "",
    "price": "2500",
    "tags": "",
    "source": "",
    "url": "https://sh.lianjia.com/zufang/SH2155636824217747456.html",
    "rent_type": "整租",
    "location": "嘉定-安亭-兰棠佳苑",
    "scraped_at": "2026-04-23 17:07:39",
    "region": "anting",
    "unit_price": 31.2,
    "lat": 31.310884,
    "lng": 121.148115
  },
  {
    "title": "整租·大华·梧桐樾 2室2厅 南/北",
    "community": "大华·梧桐樾",
    "area": "84.00",
    "rooms": "2室2厅",
    "direction": "南/北",
    "floor": "",
    "price": "3800",
    "tags": "",
    "source": "",
    "url": "https://sh.lianjia.com/zufang/SH2157104528892100608.html",
    "rent_type": "整租",
    "location": "嘉定-安亭-大华",
    "scraped_at": "2026-04-23 17:07:39",
    "region": "anting",
    "unit_price": 45.2,
    "lat": 31.269066,
    "lng": 121.170986
  },
  {
    "title": "整租·万科天籁湖畔 3室2厅 南",
    "community": "万科天籁湖畔",
    "area": "85.11",
    "rooms": "3室2厅",
    "direction": "南",
    "floor": "",
    "price": "4500",
    "tags": "",
    "source": "",
    "url": "https://sh.lianjia.com/zufang/SH2138697064006025216.html",
    "rent_type": "整租",
    "location": "嘉定-安亭-万科天籁湖畔",
    "scraped_at": "2026-04-23 17:07:39",
    "region": "anting",
    "unit_price": 52.9,
    "lat": 31.263449,
    "lng": 121.176743
  },
  {
    "title": "整租·安亭新镇风苑 1室2厅 南",
    "community": "安亭新镇风苑",
    "area": "89.00",
    "rooms": "1室2厅",
    "direction": "南",
    "floor": "",
    "price": "2200",
    "tags": "",
    "source": "",
    "url": "https://sh.lianjia.com/zufang/SH2140400058439303168.html",
    "rent_type": "整租",
    "location": "嘉定-安亭-安亭新镇风苑",
    "scraped_at": "2026-04-23 17:07:39",
    "region": "anting",
    "unit_price": 24.7,
    "lat": 31.270401,
    "lng": 121.170802
  },
  {
    "title": "整租·大学里(二期) 3室3厅 复式 南/北",
    "community": "大学里(二期)",
    "area": "133.74",
    "rooms": "3室3厅",
    "direction": "",
    "floor": "",
    "price": "7200",
    "tags": "",
    "source": "",
    "url": "https://sh.lianjia.com/zufang/SH2062383714192588800.html",
    "rent_type": "整租",
    "location": "嘉定-安亭-大学里(二期)",
    "scraped_at": "2026-04-23 17:07:44",
    "region": "anting",
    "unit_price": 53.8,
    "lat": 31.302359,
    "lng": 121.153509
  },
  {
    "title": "整租·安亭新镇赋苑 5室2厅 南/西北",
    "community": "安亭新镇赋苑",
    "area": "180.00",
    "rooms": "5室2厅",
    "direction": "南/西北",
    "floor": "",
    "price": "5000",
    "tags": "",
    "source": "",
    "url": "https://sh.lianjia.com/zufang/SH2148359073949548544.html",
    "rent_type": "整租",
    "location": "嘉定-安亭-安亭新镇赋苑",
    "scraped_at": "2026-04-23 17:07:39",
    "region": "anting",
    "unit_price": 27.8,
    "lat": 31.267438,
    "lng": 121.171799
  },
  {
    "title": "整租·旭辉·公元 2室1厅 南",
    "community": "旭辉·公元",
    "area": "89.00",
    "rooms": "2室1厅",
    "direction": "南",
    "floor": "",
    "price": "4000",
    "tags": "",
    "source": "",
    "url": "https://sh.lianjia.com/zufang/SH2150930297695240192.html",
    "rent_type": "整租",
    "location": "嘉定-安亭-旭辉",
    "scraped_at": "2026-04-23 17:07:39",
    "region": "anting",
    "unit_price": 44.9,
    "lat": 31.305102,
    "lng": 121.179248
  },
  {
    "title": "整租·路劲上海派花香澜庭 3室2厅 南",
    "community": "路劲上海派花香澜庭",
    "area": "91.00",
    "rooms": "3室2厅",
    "direction": "南",
    "floor": "",
    "price": "3600",
    "tags": "",
    "source": "",
    "url": "https://sh.lianjia.com/zufang/SH2142819087556804608.html",
    "rent_type": "整租",
    "location": "嘉定-安亭-路劲上海派花香澜庭",
    "scraped_at": "2026-04-23 17:07:39",
    "region": "anting",
    "unit_price": 39.6,
    "lat": 31.293383,
    "lng": 121.197126
  },
  {
    "title": "整租·古北萃庭(公寓) 3室1厅 南/北",
    "community": "古北萃庭(公寓)",
    "area": "90.00",
    "rooms": "3室1厅",
    "direction": "南/北",
    "floor": "",
    "price": "3500",
    "tags": "",
    "source": "",
    "url": "https://sh.lianjia.com/zufang/SH2154570901666922496.html",
    "rent_type": "整租",
    "location": "嘉定-安亭-古北萃庭(公寓)",
    "scraped_at": "2026-04-23 17:07:39",
    "region": "anting",
    "unit_price": 38.9,
    "lat": 31.268988,
    "lng": 121.169924
  },
  {
    "title": "整租·安亭新镇波恩风情 3室1厅 南",
    "community": "安亭新镇波恩风情",
    "area": "89.04",
    "rooms": "3室1厅",
    "direction": "南",
    "floor": "",
    "price": "4500",
    "tags": "",
    "source": "",
    "url": "https://sh.lianjia.com/zufang/SH2149022513135353856.html",
    "rent_type": "整租",
    "location": "嘉定-安亭-安亭新镇波恩风情",
    "scraped_at": "2026-04-23 17:07:39",
    "region": "anting",
    "unit_price": 50.5,
    "lat": 31.268698,
    "lng": 121.176959
  },
  {
    "title": "整租·万立城(商业类) 2室1厅 南",
    "community": "万立城(商业类)",
    "area": "42.00",
    "rooms": "2室1厅",
    "direction": "南",
    "floor": "",
    "price": "2750",
    "tags": "",
    "source": "",
    "url": "https://sh.lianjia.com/zufang/SH2150987830367617024.html",
    "rent_type": "整租",
    "location": "嘉定-安亭-万立城(商业类)",
    "scraped_at": "2026-04-23 17:07:39",
    "region": "anting",
    "unit_price": 65.5,
    "lat": 31.283866,
    "lng": 121.178156
  },
  {
    "title": "整租·玉兰一村 2室1厅 南",
    "community": "玉兰一村",
    "area": "64.04",
    "rooms": "2室1厅",
    "direction": "南",
    "floor": "",
    "price": "2100",
    "tags": "",
    "source": "",
    "url": "https://sh.lianjia.com/zufang/SH2155182878726553600.html",
    "rent_type": "整租",
    "location": "嘉定-安亭-玉兰一村",
    "scraped_at": "2026-04-23 17:07:39",
    "region": "anting",
    "unit_price": 32.8,
    "lat": 31.297437,
    "lng": 121.161364
  },
  {
    "title": "整租·新城尚上城 2室2厅 南",
    "community": "新城尚上城",
    "area": "82.87",
    "rooms": "2室2厅",
    "direction": "南",
    "floor": "",
    "price": "3800",
    "tags": "",
    "source": "",
    "url": "https://sh.lianjia.com/zufang/SH2155969638318473216.html",
    "rent_type": "整租",
    "location": "嘉定-安亭-新城尚上城",
    "scraped_at": "2026-04-23 17:07:39",
    "region": "anting",
    "unit_price": 45.9,
    "lat": 31.284302,
    "lng": 121.181041
  },
  {
    "title": "整租·新虹桥时代公馆 2室1厅 西",
    "community": "新虹桥时代公馆",
    "area": "83.25",
    "rooms": "2室1厅",
    "direction": "西",
    "floor": "",
    "price": "1300",
    "tags": "",
    "source": "",
    "url": "https://sh.lianjia.com/zufang/SH2148642190576844800.html",
    "rent_type": "整租",
    "location": "嘉定-安亭-新虹桥时代公馆",
    "scraped_at": "2026-04-23 17:07:39",
    "region": "anting",
    "unit_price": 15.6,
    "lat": 31.31699,
    "lng": 121.22688
  },
  {
    "title": "整租·大华·梧桐樾 3室2厅 南/北",
    "community": "大华·梧桐樾",
    "area": "100.82",
    "rooms": "3室2厅",
    "direction": "南/北",
    "floor": "",
    "price": "5800",
    "tags": "",
    "source": "",
    "url": "https://sh.lianjia.com/zufang/SH2153736900765024256.html",
    "rent_type": "整租",
    "location": "嘉定-安亭-大华",
    "scraped_at": "2026-04-23 17:07:41",
    "region": "anting",
    "unit_price": 57.5,
    "lat": 31.269066,
    "lng": 121.170986
  },
  {
    "title": "整租·万科西郊都会 4室2厅 南",
    "community": "万科西郊都会",
    "area": "120.00",
    "rooms": "4室2厅",
    "direction": "南",
    "floor": "",
    "price": "6600",
    "tags": "",
    "source": "",
    "url": "https://sh.lianjia.com/zufang/SH2129153574431621120.html",
    "rent_type": "整租",
    "location": "嘉定-安亭-万科西郊都会",
    "scraped_at": "2026-04-23 17:07:41",
    "region": "anting",
    "unit_price": 55.0,
    "lat": 31.272136,
    "lng": 121.195721
  },
  {
    "title": "整租·万科湖语森林二期 5室2厅 复式 南",
    "community": "万科湖语森林二期",
    "area": "130.00",
    "rooms": "5室2厅",
    "direction": "",
    "floor": "",
    "price": "14500",
    "tags": "",
    "source": "",
    "url": "https://sh.lianjia.com/zufang/SH2022973415450738688.html",
    "rent_type": "整租",
    "location": "嘉定-安亭-万科湖语森林二期",
    "scraped_at": "2026-04-23 17:07:41",
    "region": "anting",
    "unit_price": 111.5,
    "lat": 31.265384,
    "lng": 121.168792
  },
  {
    "title": "整租·沁富佳苑 1室1厅 南",
    "community": "沁富佳苑",
    "area": "56.00",
    "rooms": "1室1厅",
    "direction": "南",
    "floor": "",
    "price": "1600",
    "tags": "",
    "source": "",
    "url": "https://sh.lianjia.com/zufang/SH2108866352734273536.html",
    "rent_type": "整租",
    "location": "嘉定-安亭-沁富佳苑",
    "scraped_at": "2026-04-23 17:07:46",
    "region": "anting",
    "unit_price": 28.6,
    "lat": 31.308814,
    "lng": 121.153959
  },
  {
    "title": "整租·安亭新镇风苑 2室2厅 南",
    "community": "安亭新镇风苑",
    "area": "83.52",
    "rooms": "2室2厅",
    "direction": "南",
    "floor": "",
    "price": "3600",
    "tags": "",
    "source": "",
    "url": "https://sh.lianjia.com/zufang/SH2092523426613821440.html",
    "rent_type": "整租",
    "location": "嘉定-安亭-安亭新镇风苑",
    "scraped_at": "2026-04-23 17:07:46",
    "region": "anting",
    "unit_price": 43.1,
    "lat": 31.270401,
    "lng": 121.170802
  },
  {
    "title": "整租·日月光伯爵湾（一期） 3室1厅 南/北",
    "community": "日月光伯爵湾（一期）",
    "area": "88.27",
    "rooms": "3室1厅",
    "direction": "南/北",
    "floor": "",
    "price": "3000",
    "tags": "",
    "source": "",
    "url": "https://sh.lianjia.com/zufang/SH2055260465377837056.html",
    "rent_type": "整租",
    "location": "嘉定-安亭-日月光伯爵湾",
    "scraped_at": "2026-04-23 17:07:41",
    "region": "anting",
    "unit_price": 34.0,
    "lat": 31.280077,
    "lng": 121.157929
  },
  {
    "title": "整租·万科西郊都会 4室2厅 南/北",
    "community": "万科西郊都会",
    "area": "137.00",
    "rooms": "4室2厅",
    "direction": "南/北",
    "floor": "",
    "price": "7000",
    "tags": "",
    "source": "",
    "url": "https://sh.lianjia.com/zufang/SH2091544907675074560.html",
    "rent_type": "整租",
    "location": "嘉定-安亭-万科西郊都会",
    "scraped_at": "2026-04-23 17:07:46",
    "region": "anting",
    "unit_price": 51.1,
    "lat": 31.272136,
    "lng": 121.195721
  },
  {
    "title": "整租·柏林映像 3室1厅 南",
    "community": "柏林映像",
    "area": "96.24",
    "rooms": "3室1厅",
    "direction": "南",
    "floor": "",
    "price": "5600",
    "tags": "",
    "source": "",
    "url": "https://sh.lianjia.com/zufang/SH2031335356074295296.html",
    "rent_type": "整租",
    "location": "嘉定-安亭-柏林映像",
    "scraped_at": "2026-04-23 17:07:41",
    "region": "anting",
    "unit_price": 58.2,
    "lat": 31.264487,
    "lng": 121.174173
  },
  {
    "title": "整租·世昶生活广场 1室1厅 南",
    "community": "世昶生活广场",
    "area": "55.00",
    "rooms": "1室1厅",
    "direction": "南",
    "floor": "",
    "price": "2300",
    "tags": "",
    "source": "",
    "url": "https://sh.lianjia.com/zufang/SH2155565565152854016.html",
    "rent_type": "整租",
    "location": "嘉定-安亭-世昶生活广场",
    "scraped_at": "2026-04-23 17:07:41",
    "region": "anting",
    "unit_price": 41.8,
    "lat": 31.29008,
    "lng": 121.159763
  },
  {
    "title": "整租·万科天籁湖畔 3室1厅 南",
    "community": "万科天籁湖畔",
    "area": "114.00",
    "rooms": "3室1厅",
    "direction": "南",
    "floor": "",
    "price": "2500",
    "tags": "",
    "source": "",
    "url": "https://sh.lianjia.com/zufang/SH2096871763496402944.html",
    "rent_type": "整租",
    "location": "嘉定-安亭-万科天籁湖畔",
    "scraped_at": "2026-04-23 17:07:46",
    "region": "anting",
    "unit_price": 21.9,
    "lat": 31.263449,
    "lng": 121.176743
  },
  {
    "title": "整租·万立城 3室2厅 南/北",
    "community": "万立城",
    "area": "102.40",
    "rooms": "3室2厅",
    "direction": "南/北",
    "floor": "",
    "price": "6200",
    "tags": "",
    "source": "",
    "url": "https://sh.lianjia.com/zufang/SH2088476522791829504.html",
    "rent_type": "整租",
    "location": "嘉定-安亭-万立城",
    "scraped_at": "2026-04-23 17:07:41",
    "region": "anting",
    "unit_price": 60.5,
    "lat": 31.283866,
    "lng": 121.178156
  },
  {
    "title": "整租·安亭新镇颂苑 3室1厅 复式 南",
    "community": "安亭新镇颂苑",
    "area": "138.72",
    "rooms": "3室1厅",
    "direction": "",
    "floor": "",
    "price": "4300",
    "tags": "",
    "source": "",
    "url": "https://sh.lianjia.com/zufang/SH2051568176117841920.html",
    "rent_type": "整租",
    "location": "嘉定-安亭-安亭新镇颂苑",
    "scraped_at": "2026-04-23 17:07:41",
    "region": "anting",
    "unit_price": 31.0,
    "lat": 31.267921,
    "lng": 121.169031
  },
  {
    "title": "整租·博泰景苑 7室1厅 南/北",
    "community": "博泰景苑",
    "area": "178.75",
    "rooms": "7室1厅",
    "direction": "南/北",
    "floor": "",
    "price": "4500",
    "tags": "",
    "source": "",
    "url": "https://sh.lianjia.com/zufang/SH2064319040402227200.html",
    "rent_type": "整租",
    "location": "嘉定-安亭-博泰景苑",
    "scraped_at": "2026-04-23 17:07:44",
    "region": "anting",
    "unit_price": 25.2,
    "lat": 31.300143,
    "lng": 121.1522
  },
  {
    "title": "整租·安亭瑞仕华庭(别墅) 4室2厅 南",
    "community": "安亭瑞仕华庭(别墅)",
    "area": "398.61",
    "rooms": "4室2厅",
    "direction": "南",
    "floor": "",
    "price": "7800",
    "tags": "",
    "source": "",
    "url": "https://sh.lianjia.com/zufang/SH2008758742404825088.html",
    "rent_type": "整租",
    "location": "嘉定-安亭-安亭瑞仕华庭(别墅)",
    "scraped_at": "2026-04-23 17:07:41",
    "region": "anting",
    "unit_price": 19.6,
    "lat": 31.276021,
    "lng": 121.191891
  },
  {
    "title": "整租·柏林映像 3室2厅 南",
    "community": "柏林映像",
    "area": "132.73",
    "rooms": "3室2厅",
    "direction": "南",
    "floor": "",
    "price": "7300",
    "tags": "",
    "source": "",
    "url": "https://sh.lianjia.com/zufang/SH2059244224758415360.html",
    "rent_type": "整租",
    "location": "嘉定-安亭-柏林映像",
    "scraped_at": "2026-04-23 17:07:44",
    "region": "anting",
    "unit_price": 55.0,
    "lat": 31.264487,
    "lng": 121.174173
  },
  {
    "title": "整租·汇尊国际 1室1厅 东",
    "community": "汇尊国际",
    "area": "54.00",
    "rooms": "1室1厅",
    "direction": "东",
    "floor": "",
    "price": "2500",
    "tags": "",
    "source": "",
    "url": "https://sh.lianjia.com/zufang/SH2075466971498938368.html",
    "rent_type": "整租",
    "location": "嘉定-安亭-汇尊国际",
    "scraped_at": "2026-04-23 17:07:44",
    "region": "anting",
    "unit_price": 46.3,
    "lat": 31.28988,
    "lng": 121.157686
  },
  {
    "title": "整租·芙蓉新村 3室2厅 东南/南",
    "community": "芙蓉新村",
    "area": "123.15",
    "rooms": "3室2厅",
    "direction": "东南/南",
    "floor": "",
    "price": "3800",
    "tags": "",
    "source": "",
    "url": "https://sh.lianjia.com/zufang/SH2090312069474680832.html",
    "rent_type": "整租",
    "location": "嘉定-安亭-芙蓉新村",
    "scraped_at": "2026-04-23 17:07:41",
    "region": "anting",
    "unit_price": 30.9,
    "lat": 31.29305,
    "lng": 121.161314
  },
  {
    "title": "整租·万科天籁湖畔 3室2厅 南",
    "community": "万科天籁湖畔",
    "area": "98.14",
    "rooms": "3室2厅",
    "direction": "南",
    "floor": "",
    "price": "2900",
    "tags": "",
    "source": "",
    "url": "https://sh.lianjia.com/zufang/SH2050862229166751744.html",
    "rent_type": "整租",
    "location": "嘉定-安亭-万科天籁湖畔",
    "scraped_at": "2026-04-23 17:07:44",
    "region": "anting",
    "unit_price": 29.5,
    "lat": 31.263449,
    "lng": 121.176743
  },
  {
    "title": "整租·绿苑新城 3室2厅 南",
    "community": "绿苑新城",
    "area": "118.62",
    "rooms": "3室2厅",
    "direction": "南",
    "floor": "",
    "price": "3600",
    "tags": "",
    "source": "",
    "url": "https://sh.lianjia.com/zufang/SH2155947243360747520.html",
    "rent_type": "整租",
    "location": "嘉定-安亭-绿苑新城",
    "scraped_at": "2026-04-23 17:07:41",
    "region": "anting",
    "unit_price": 30.3,
    "lat": 31.276771,
    "lng": 121.216078
  },
  {
    "title": "整租·沁乐小区 2室1厅 南/北",
    "community": "沁乐小区",
    "area": "69.00",
    "rooms": "2室1厅",
    "direction": "南/北",
    "floor": "",
    "price": "1700",
    "tags": "",
    "source": "",
    "url": "https://sh.lianjia.com/zufang/SH2153868964587896832.html",
    "rent_type": "整租",
    "location": "嘉定-安亭-沁乐小区",
    "scraped_at": "2026-04-23 17:07:41",
    "region": "anting",
    "unit_price": 24.6,
    "lat": 31.308282,
    "lng": 121.157682
  },
  {
    "title": "整租·万科西郊都会 3室2厅 南/北",
    "community": "万科西郊都会",
    "area": "97.00",
    "rooms": "3室2厅",
    "direction": "南/北",
    "floor": "",
    "price": "4500",
    "tags": "",
    "source": "",
    "url": "https://sh.lianjia.com/zufang/SH2154159696687136768.html",
    "rent_type": "整租",
    "location": "嘉定-安亭-万科西郊都会",
    "scraped_at": "2026-04-23 17:07:41",
    "region": "anting",
    "unit_price": 46.4,
    "lat": 31.272136,
    "lng": 121.195721
  },
  {
    "title": "整租·大学里(二期) 2室1厅 南/北",
    "community": "大学里(二期)",
    "area": "76.00",
    "rooms": "2室1厅",
    "direction": "南/北",
    "floor": "",
    "price": "3600",
    "tags": "",
    "source": "",
    "url": "https://sh.lianjia.com/zufang/SH2155909761613168640.html",
    "rent_type": "整租",
    "location": "嘉定-安亭-大学里(二期)",
    "scraped_at": "2026-04-23 17:07:41",
    "region": "anting",
    "unit_price": 47.4,
    "lat": 31.302359,
    "lng": 121.153509
  },
  {
    "title": "整租·路劲上海派君悦华庭 2室1厅 南/北",
    "community": "路劲上海派君悦华庭",
    "area": "109.51",
    "rooms": "2室1厅",
    "direction": "南/北",
    "floor": "",
    "price": "3600",
    "tags": "",
    "source": "",
    "url": "https://sh.lianjia.com/zufang/SH2155914559402016768.html",
    "rent_type": "整租",
    "location": "嘉定-安亭-路劲上海派君悦华庭",
    "scraped_at": "2026-04-23 17:07:41",
    "region": "anting",
    "unit_price": 32.9,
    "lat": 31.291,
    "lng": 121.195176
  },
  {
    "title": "整租·莱英北郡 3室2厅 南",
    "community": "莱英北郡",
    "area": "92.00",
    "rooms": "3室2厅",
    "direction": "南",
    "floor": "",
    "price": "3800",
    "tags": "",
    "source": "",
    "url": "https://sh.lianjia.com/zufang/SH2155939016636104704.html",
    "rent_type": "整租",
    "location": "嘉定-安亭-莱英北郡",
    "scraped_at": "2026-04-23 17:07:41",
    "region": "anting",
    "unit_price": 41.3,
    "lat": 31.27762,
    "lng": 121.213584
  },
  {
    "title": "整租·绿地海域苏河源(一期) 4室2厅 南",
    "community": "绿地海域苏河源(一期)",
    "area": "137.00",
    "rooms": "4室2厅",
    "direction": "南",
    "floor": "",
    "price": "4500",
    "tags": "",
    "source": "",
    "url": "https://sh.lianjia.com/zufang/SH2156276023581212672.html",
    "rent_type": "整租",
    "location": "嘉定-安亭-绿地海域苏河源(一期)",
    "scraped_at": "2026-04-23 17:07:41",
    "region": "anting",
    "unit_price": 32.8,
    "lat": 31.278629,
    "lng": 121.15991
  },
  {
    "title": "整租·安亭瑞仕华庭 3室2厅 南",
    "community": "安亭瑞仕华庭",
    "area": "195.32",
    "rooms": "3室2厅",
    "direction": "南",
    "floor": "",
    "price": "4800",
    "tags": "",
    "source": "",
    "url": "https://sh.lianjia.com/zufang/SH2156373066081370112.html",
    "rent_type": "整租",
    "location": "嘉定-安亭-安亭瑞仕华庭",
    "scraped_at": "2026-04-23 17:07:41",
    "region": "anting",
    "unit_price": 24.6,
    "lat": 31.276021,
    "lng": 121.191891
  },
  {
    "title": "整租·嘉正国际 2室1厅 东",
    "community": "嘉正国际",
    "area": "80.00",
    "rooms": "2室1厅",
    "direction": "东",
    "floor": "",
    "price": "4000",
    "tags": "",
    "source": "",
    "url": "https://sh.lianjia.com/zufang/SH2127007893638086656.html",
    "rent_type": "整租",
    "location": "嘉定-安亭-嘉正国际",
    "scraped_at": "2026-04-23 17:07:41",
    "region": "anting",
    "unit_price": 50.0,
    "lat": 31.289934,
    "lng": 121.162792
  },
  {
    "title": "整租·玉兰四村 3室2厅 南",
    "community": "玉兰四村",
    "area": "128.00",
    "rooms": "3室2厅",
    "direction": "南",
    "floor": "",
    "price": "3000",
    "tags": "",
    "source": "",
    "url": "https://sh.lianjia.com/zufang/SH2130308962669559808.html",
    "rent_type": "整租",
    "location": "嘉定-安亭-玉兰四村",
    "scraped_at": "2026-04-23 17:07:41",
    "region": "anting",
    "unit_price": 23.4,
    "lat": 31.297364,
    "lng": 121.166104
  },
  {
    "title": "整租·嘉亭菁苑 2室1厅 南",
    "community": "嘉亭菁苑",
    "area": "101.00",
    "rooms": "2室1厅",
    "direction": "南",
    "floor": "",
    "price": "5200",
    "tags": "",
    "source": "",
    "url": "https://sh.lianjia.com/zufang/SH2150555689288728576.html",
    "rent_type": "整租",
    "location": "嘉定-安亭-嘉亭菁苑",
    "scraped_at": "2026-04-23 17:07:41",
    "region": "anting",
    "unit_price": 51.5,
    "lat": 31.287225,
    "lng": 121.160505
  },
  {
    "title": "整租·西上海御庭 3室2厅 南",
    "community": "西上海御庭",
    "area": "92.00",
    "rooms": "3室2厅",
    "direction": "南",
    "floor": "",
    "price": "2500",
    "tags": "",
    "source": "",
    "url": "https://sh.lianjia.com/zufang/SH2150948129573175296.html",
    "rent_type": "整租",
    "location": "嘉定-安亭-西上海御庭",
    "scraped_at": "2026-04-23 17:07:41",
    "region": "anting",
    "unit_price": 27.2,
    "lat": 31.287004,
    "lng": 121.205291
  },
  {
    "title": "整租·万科湖语森林一期 3室2厅 南/北",
    "community": "万科湖语森林一期",
    "area": "95.00",
    "rooms": "3室2厅",
    "direction": "南/北",
    "floor": "",
    "price": "5800",
    "tags": "",
    "source": "",
    "url": "https://sh.lianjia.com/zufang/SH2062563574336716800.html",
    "rent_type": "整租",
    "location": "嘉定-安亭-万科湖语森林一期",
    "scraped_at": "2026-04-23 17:07:44",
    "region": "anting",
    "unit_price": 61.1,
    "lat": 31.262782,
    "lng": 121.17139
  },
  {
    "title": "整租·安亭新镇雅苑 2室2厅 南",
    "community": "安亭新镇雅苑",
    "area": "123.18",
    "rooms": "2室2厅",
    "direction": "南",
    "floor": "",
    "price": "3600",
    "tags": "",
    "source": "",
    "url": "https://sh.lianjia.com/zufang/SH2100144179668582400.html",
    "rent_type": "整租",
    "location": "嘉定-安亭-安亭新镇雅苑",
    "scraped_at": "2026-04-23 17:07:44",
    "region": "anting",
    "unit_price": 29.2,
    "lat": 31.270078,
    "lng": 121.168615
  },
  {
    "title": "整租·嘉亭菁苑 2室2厅 南",
    "community": "嘉亭菁苑",
    "area": "100.11",
    "rooms": "2室2厅",
    "direction": "南",
    "floor": "",
    "price": "5200",
    "tags": "",
    "source": "",
    "url": "https://sh.lianjia.com/zufang/SH2105629278266720256.html",
    "rent_type": "整租",
    "location": "嘉定-安亭-嘉亭菁苑",
    "scraped_at": "2026-04-23 17:07:46",
    "region": "anting",
    "unit_price": 51.9,
    "lat": 31.287225,
    "lng": 121.160505
  },
  {
    "title": "整租·路劲上海派君悦华庭 2室2厅 南",
    "community": "路劲上海派君悦华庭",
    "area": "79.15",
    "rooms": "2室2厅",
    "direction": "南",
    "floor": "",
    "price": "3000",
    "tags": "",
    "source": "",
    "url": "https://sh.lianjia.com/zufang/SH2106304045634289664.html",
    "rent_type": "整租",
    "location": "嘉定-安亭-路劲上海派君悦华庭",
    "scraped_at": "2026-04-23 17:07:46",
    "region": "anting",
    "unit_price": 37.9,
    "lat": 31.291,
    "lng": 121.195176
  },
  {
    "title": "整租·莱英郡 4室2厅 南",
    "community": "莱英郡",
    "area": "296.05",
    "rooms": "4室2厅",
    "direction": "南",
    "floor": "",
    "price": "9000",
    "tags": "",
    "source": "",
    "url": "https://sh.lianjia.com/zufang/SH2106344992933937152.html",
    "rent_type": "整租",
    "location": "嘉定-安亭-莱英郡",
    "scraped_at": "2026-04-23 17:07:46",
    "region": "anting",
    "unit_price": 30.4,
    "lat": 31.274881,
    "lng": 121.212597
  },
  {
    "title": "整租·安亭新镇雅苑 4室1厅 东南/南",
    "community": "安亭新镇雅苑",
    "area": "200.00",
    "rooms": "4室1厅",
    "direction": "东南/南",
    "floor": "",
    "price": "10600",
    "tags": "",
    "source": "",
    "url": "https://sh.lianjia.com/zufang/SH2106695199089491968.html",
    "rent_type": "整租",
    "location": "嘉定-安亭-安亭新镇雅苑",
    "scraped_at": "2026-04-23 17:07:46",
    "region": "anting",
    "unit_price": 53.0,
    "lat": 31.270078,
    "lng": 121.168615
  },
  {
    "title": "整租·日月光伯爵湾（一期） 3室2厅 南",
    "community": "日月光伯爵湾（一期）",
    "area": "90.44",
    "rooms": "3室2厅",
    "direction": "南",
    "floor": "",
    "price": "3400",
    "tags": "",
    "source": "",
    "url": "https://sh.lianjia.com/zufang/SH2107765485708771328.html",
    "rent_type": "整租",
    "location": "嘉定-安亭-日月光伯爵湾",
    "scraped_at": "2026-04-23 17:07:46",
    "region": "anting",
    "unit_price": 37.6,
    "lat": 31.280077,
    "lng": 121.157929
  },
  {
    "title": "整租·上海派 3室2厅 南/北",
    "community": "上海派",
    "area": "88.93",
    "rooms": "3室2厅",
    "direction": "南/北",
    "floor": "",
    "price": "3600",
    "tags": "",
    "source": "",
    "url": "https://sh.lianjia.com/zufang/SH2107735140061937664.html",
    "rent_type": "整租",
    "location": "嘉定-安亭-上海派",
    "scraped_at": "2026-04-23 17:07:46",
    "region": "anting",
    "unit_price": 40.5,
    "lat": 31.288239,
    "lng": 121.19285
  },
  {
    "title": "整租·安亭新镇赋苑 3室2厅 南/北",
    "community": "安亭新镇赋苑",
    "area": "193.00",
    "rooms": "3室2厅",
    "direction": "南/北",
    "floor": "",
    "price": "5000",
    "tags": "",
    "source": "",
    "url": "https://sh.lianjia.com/zufang/SH2110350236818866176.html",
    "rent_type": "整租",
    "location": "嘉定-安亭-安亭新镇赋苑",
    "scraped_at": "2026-04-23 17:07:46",
    "region": "anting",
    "unit_price": 25.9,
    "lat": 31.267438,
    "lng": 121.171799
  },
  {
    "title": "整租·底特律财富天地 1室1厅 西",
    "community": "底特律财富天地",
    "area": "50.00",
    "rooms": "1室1厅",
    "direction": "西",
    "floor": "",
    "price": "2200",
    "tags": "",
    "source": "",
    "url": "https://sh.lianjia.com/zufang/SH2110961725586014208.html",
    "rent_type": "整租",
    "location": "嘉定-安亭-底特律财富天地",
    "scraped_at": "2026-04-23 17:07:46",
    "region": "anting",
    "unit_price": 44.0,
    "lat": 31.290041,
    "lng": 121.161513
  },
  {
    "title": "整租·万科天籁湖畔 3室2厅 南/北",
    "community": "万科天籁湖畔",
    "area": "87.30",
    "rooms": "3室2厅",
    "direction": "南/北",
    "floor": "",
    "price": "4000",
    "tags": "",
    "source": "",
    "url": "https://sh.lianjia.com/zufang/SH2110725552867377152.html",
    "rent_type": "整租",
    "location": "嘉定-安亭-万科天籁湖畔",
    "scraped_at": "2026-04-23 17:07:46",
    "region": "anting",
    "unit_price": 45.8,
    "lat": 31.263449,
    "lng": 121.176743
  },
  {
    "title": "整租·绿地海域苏河源(一期) 3室2厅 南",
    "community": "绿地海域苏河源(一期)",
    "area": "139.57",
    "rooms": "3室2厅",
    "direction": "南",
    "floor": "",
    "price": "3800",
    "tags": "",
    "source": "",
    "url": "https://sh.lianjia.com/zufang/SH2111377049116475392.html",
    "rent_type": "整租",
    "location": "嘉定-安亭-绿地海域苏河源(一期)",
    "scraped_at": "2026-04-23 17:07:46",
    "region": "anting",
    "unit_price": 27.2,
    "lat": 31.278629,
    "lng": 121.15991
  },
  {
    "title": "整租·红梅小区(嘉定) 2室1厅 南",
    "community": "红梅小区(嘉定)",
    "area": "62.88",
    "rooms": "2室1厅",
    "direction": "南",
    "floor": "",
    "price": "1900",
    "tags": "",
    "source": "",
    "url": "https://sh.lianjia.com/zufang/SH2112042861343014912.html",
    "rent_type": "整租",
    "location": "嘉定-安亭-红梅小区(嘉定)",
    "scraped_at": "2026-04-23 17:07:44",
    "region": "anting",
    "unit_price": 30.2,
    "lat": 31.294042,
    "lng": 121.159222
  },
  {
    "title": "整租·魏玛原墅(别墅) 6室3厅 南",
    "community": "魏玛原墅(别墅)",
    "area": "305.00",
    "rooms": "6室3厅",
    "direction": "南",
    "floor": "",
    "price": "9000",
    "tags": "",
    "source": "",
    "url": "https://sh.lianjia.com/zufang/SH2114968111856746496.html",
    "rent_type": "整租",
    "location": "嘉定-安亭-魏玛原墅(别墅)",
    "scraped_at": "2026-04-23 17:07:46",
    "region": "anting",
    "unit_price": 29.5,
    "lat": 31.27076,
    "lng": 121.180068
  },
  {
    "title": "整租·芙蓉金厢园 3室2厅 西南",
    "community": "芙蓉金厢园",
    "area": "136.00",
    "rooms": "3室2厅",
    "direction": "西南",
    "floor": "",
    "price": "4300",
    "tags": "",
    "source": "",
    "url": "https://sh.lianjia.com/zufang/SH2115643783872774144.html",
    "rent_type": "整租",
    "location": "嘉定-安亭-芙蓉金厢园",
    "scraped_at": "2026-04-23 17:07:46",
    "region": "anting",
    "unit_price": 31.6,
    "lat": 31.292676,
    "lng": 121.158858
  },
  {
    "title": "整租·中骏璟尚 3室2厅 南/北",
    "community": "中骏璟尚",
    "area": "95.46",
    "rooms": "3室2厅",
    "direction": "南/北",
    "floor": "",
    "price": "6500",
    "tags": "",
    "source": "",
    "url": "https://sh.lianjia.com/zufang/SH2114628759301652480.html",
    "rent_type": "整租",
    "location": "嘉定-安亭-中骏璟尚",
    "scraped_at": "2026-04-23 17:07:46",
    "region": "anting",
    "unit_price": 68.1,
    "lat": 31.285483,
    "lng": 121.161272
  },
  {
    "title": "整租·安亭新镇雅苑 2室2厅 南/北",
    "community": "安亭新镇雅苑",
    "area": "118.47",
    "rooms": "2室2厅",
    "direction": "南/北",
    "floor": "",
    "price": "3000",
    "tags": "",
    "source": "",
    "url": "https://sh.lianjia.com/zufang/SH2119073894634618880.html",
    "rent_type": "整租",
    "location": "嘉定-安亭-安亭新镇雅苑",
    "scraped_at": "2026-04-23 17:07:44",
    "region": "anting",
    "unit_price": 25.3,
    "lat": 31.270078,
    "lng": 121.168615
  },
  {
    "title": "整租·绿苑新城 3室2厅 南/北",
    "community": "绿苑新城",
    "area": "118.00",
    "rooms": "3室2厅",
    "direction": "南/北",
    "floor": "",
    "price": "4100",
    "tags": "",
    "source": "",
    "url": "https://sh.lianjia.com/zufang/SH2119692172855869440.html",
    "rent_type": "整租",
    "location": "嘉定-安亭-绿苑新城",
    "scraped_at": "2026-04-23 17:07:44",
    "region": "anting",
    "unit_price": 34.7,
    "lat": 31.276771,
    "lng": 121.216078
  },
  {
    "title": "整租·新城尚上城（商住） 2室1厅 北",
    "community": "新城尚上城（商住）",
    "area": "45.00",
    "rooms": "2室1厅",
    "direction": "北",
    "floor": "",
    "price": "2500",
    "tags": "",
    "source": "",
    "url": "https://sh.lianjia.com/zufang/SH2121847538616107008.html",
    "rent_type": "整租",
    "location": "嘉定-安亭-新城尚上城",
    "scraped_at": "2026-04-23 17:07:44",
    "region": "anting",
    "unit_price": 55.6,
    "lat": 31.284302,
    "lng": 121.181041
  },
  {
    "title": "整租·绿地海域苏河源(一期) 2室1厅 南",
    "community": "绿地海域苏河源(一期)",
    "area": "64.83",
    "rooms": "2室1厅",
    "direction": "南",
    "floor": "",
    "price": "2700",
    "tags": "",
    "source": "",
    "url": "https://sh.lianjia.com/zufang/SH2122926499290939392.html",
    "rent_type": "整租",
    "location": "嘉定-安亭-绿地海域苏河源(一期)",
    "scraped_at": "2026-04-23 17:07:44",
    "region": "anting",
    "unit_price": 41.6,
    "lat": 31.278629,
    "lng": 121.15991
  },
  {
    "title": "整租·莱英北郡 3室2厅 南",
    "community": "莱英北郡",
    "area": "106.00",
    "rooms": "3室2厅",
    "direction": "南",
    "floor": "",
    "price": "4250",
    "tags": "",
    "source": "",
    "url": "https://sh.lianjia.com/zufang/SH2122611081368043520.html",
    "rent_type": "整租",
    "location": "嘉定-安亭-莱英北郡",
    "scraped_at": "2026-04-23 17:07:44",
    "region": "anting",
    "unit_price": 40.1,
    "lat": 31.27762,
    "lng": 121.213584
  },
  {
    "title": "整租·中骏璟尚 3室2厅 南",
    "community": "中骏璟尚",
    "area": "132.29",
    "rooms": "3室2厅",
    "direction": "南",
    "floor": "",
    "price": "7000",
    "tags": "",
    "source": "",
    "url": "https://sh.lianjia.com/zufang/SH2122558731198660608.html",
    "rent_type": "整租",
    "location": "嘉定-安亭-中骏璟尚",
    "scraped_at": "2026-04-23 17:07:44",
    "region": "anting",
    "unit_price": 52.9,
    "lat": 31.285483,
    "lng": 121.161272
  },
  {
    "title": "整租·融侨星誉 3室2厅 南",
    "community": "融侨星誉",
    "area": "98.52",
    "rooms": "3室2厅",
    "direction": "南",
    "floor": "",
    "price": "3800",
    "tags": "",
    "source": "",
    "url": "https://sh.lianjia.com/zufang/SH2123657441521434624.html",
    "rent_type": "整租",
    "location": "嘉定-安亭-融侨星誉",
    "scraped_at": "2026-04-23 17:07:44",
    "region": "anting",
    "unit_price": 38.6,
    "lat": 31.29625,
    "lng": 121.195594
  },
  {
    "title": "整租·新城尚上城（商住） 3室1厅 南",
    "community": "新城尚上城（商住）",
    "area": "54.00",
    "rooms": "3室1厅",
    "direction": "南",
    "floor": "",
    "price": "2400",
    "tags": "",
    "source": "",
    "url": "https://sh.lianjia.com/zufang/SH2095019571420332032.html",
    "rent_type": "整租",
    "location": "嘉定-安亭-新城尚上城",
    "scraped_at": "2026-04-23 17:07:46",
    "region": "anting",
    "unit_price": 44.4,
    "lat": 31.284302,
    "lng": 121.181041
  },
  {
    "title": "整租·新城尚上城（商住） 2室1厅 跃层 北",
    "community": "新城尚上城（商住）",
    "area": "45.00",
    "rooms": "2室1厅",
    "direction": "",
    "floor": "",
    "price": "2300",
    "tags": "",
    "source": "",
    "url": "https://sh.lianjia.com/zufang/SH2094767423575031808.html",
    "rent_type": "整租",
    "location": "嘉定-安亭-新城尚上城",
    "scraped_at": "2026-04-23 17:07:46",
    "region": "anting",
    "unit_price": 51.1,
    "lat": 31.284302,
    "lng": 121.181041
  },
  {
    "title": "整租·上海派 3室1厅 南/北",
    "community": "上海派",
    "area": "87.37",
    "rooms": "3室1厅",
    "direction": "南/北",
    "floor": "",
    "price": "3500",
    "tags": "",
    "source": "",
    "url": "https://sh.lianjia.com/zufang/SH2096255280391127040.html",
    "rent_type": "整租",
    "location": "嘉定-安亭-上海派",
    "scraped_at": "2026-04-23 17:07:46",
    "region": "anting",
    "unit_price": 40.1,
    "lat": 31.288239,
    "lng": 121.19285
  },
  {
    "title": "整租·大学里(二期) 3室2厅 南/北",
    "community": "大学里(二期)",
    "area": "114.26",
    "rooms": "3室2厅",
    "direction": "南/北",
    "floor": "",
    "price": "5000",
    "tags": "",
    "source": "",
    "url": "https://sh.lianjia.com/zufang/SH2099078316572016640.html",
    "rent_type": "整租",
    "location": "嘉定-安亭-大学里(二期)",
    "scraped_at": "2026-04-23 17:07:46",
    "region": "anting",
    "unit_price": 43.8,
    "lat": 31.302359,
    "lng": 121.153509
  },
  {
    "title": "整租·西上海御庭 4室2厅 南",
    "community": "西上海御庭",
    "area": "126.30",
    "rooms": "4室2厅",
    "direction": "南",
    "floor": "",
    "price": "5500",
    "tags": "",
    "source": "",
    "url": "https://sh.lianjia.com/zufang/SH2100410603364417536.html",
    "rent_type": "整租",
    "location": "嘉定-安亭-西上海御庭",
    "scraped_at": "2026-04-23 17:07:46",
    "region": "anting",
    "unit_price": 43.5,
    "lat": 31.287004,
    "lng": 121.205291
  },
  {
    "title": "整租·汇尊国际 1室1厅 南",
    "community": "汇尊国际",
    "area": "55.00",
    "rooms": "1室1厅",
    "direction": "南",
    "floor": "",
    "price": "1800",
    "tags": "",
    "source": "",
    "url": "https://sh.lianjia.com/zufang/SH2103831609881919488.html",
    "rent_type": "整租",
    "location": "嘉定-安亭-汇尊国际",
    "scraped_at": "2026-04-23 17:07:46",
    "region": "anting",
    "unit_price": 32.7,
    "lat": 31.28988,
    "lng": 121.157686
  },
  {
    "title": "整租·安亭新镇波恩风情 3室1厅 南",
    "community": "安亭新镇波恩风情",
    "area": "88.89",
    "rooms": "3室1厅",
    "direction": "南",
    "floor": "",
    "price": "5200",
    "tags": "",
    "source": "",
    "url": "https://sh.lianjia.com/zufang/SH2103406016858161152.html",
    "rent_type": "整租",
    "location": "嘉定-安亭-安亭新镇波恩风情",
    "scraped_at": "2026-04-23 17:07:46",
    "region": "anting",
    "unit_price": 58.5,
    "lat": 31.268698,
    "lng": 121.176959
  },
  {
    "title": "整租·上海派 2室2厅 东南/南",
    "community": "上海派",
    "area": "69.40",
    "rooms": "2室2厅",
    "direction": "东南/南",
    "floor": "",
    "price": "3000",
    "tags": "",
    "source": "",
    "url": "https://sh.lianjia.com/zufang/SH2103732901123194880.html",
    "rent_type": "整租",
    "location": "嘉定-安亭-上海派",
    "scraped_at": "2026-04-23 17:07:46",
    "region": "anting",
    "unit_price": 43.2,
    "lat": 31.288239,
    "lng": 121.19285
  },
  {
    "title": "整租·魏玛原墅(别墅) 5室2厅 复式 南/北",
    "community": "魏玛原墅(别墅)",
    "area": "240.00",
    "rooms": "5室2厅",
    "direction": "",
    "floor": "",
    "price": "20700",
    "tags": "",
    "source": "",
    "url": "https://sh.lianjia.com/zufang/SH2112100233985916928.html",
    "rent_type": "整租",
    "location": "嘉定-安亭-魏玛原墅(别墅)",
    "scraped_at": "2026-04-23 17:07:46",
    "region": "anting",
    "unit_price": 86.2,
    "lat": 31.27076,
    "lng": 121.180068
  },
  {
    "title": "整租·路劲上海派+嘉悦澜庭 2室1厅 南",
    "community": "路劲上海派+嘉悦澜庭",
    "area": "65.66",
    "rooms": "2室1厅",
    "direction": "南",
    "floor": "",
    "price": "3400",
    "tags": "",
    "source": "",
    "url": "https://sh.lianjia.com/zufang/SH2152315235313123328.html",
    "rent_type": "整租",
    "location": "嘉定-安亭-路劲上海派",
    "scraped_at": "2026-04-23 17:07:51",
    "region": "anting",
    "unit_price": 51.8,
    "lat": 31.292597,
    "lng": 121.198247
  },
  {
    "title": "整租·上海派 3室2厅 东南/南",
    "community": "上海派",
    "area": "89.25",
    "rooms": "3室2厅",
    "direction": "东南/南",
    "floor": "",
    "price": "3600",
    "tags": "",
    "source": "",
    "url": "https://sh.lianjia.com/zufang/SH2157102459829354496.html",
    "rent_type": "整租",
    "location": "嘉定-安亭-上海派",
    "scraped_at": "2026-04-23 17:07:51",
    "region": "anting",
    "unit_price": 40.3,
    "lat": 31.288239,
    "lng": 121.19285
  },
  {
    "title": "整租·上城名都 2室2厅 南/北",
    "community": "上城名都",
    "area": "89.22",
    "rooms": "2室2厅",
    "direction": "南/北",
    "floor": "",
    "price": "3900",
    "tags": "",
    "source": "",
    "url": "https://sh.lianjia.com/zufang/SH2121474007017455616.html",
    "rent_type": "整租",
    "location": "嘉定-安亭-上城名都",
    "scraped_at": "2026-04-23 17:07:46",
    "region": "anting",
    "unit_price": 43.7,
    "lat": 31.290263,
    "lng": 121.221791
  },
  {
    "title": "整租·西上海名邸 3室2厅 南",
    "community": "西上海名邸",
    "area": "137.52",
    "rooms": "3室2厅",
    "direction": "南",
    "floor": "",
    "price": "4200",
    "tags": "",
    "source": "",
    "url": "https://sh.lianjia.com/zufang/SH2121516634152632320.html",
    "rent_type": "整租",
    "location": "嘉定-安亭-西上海名邸",
    "scraped_at": "2026-04-23 17:07:51",
    "region": "anting",
    "unit_price": 30.5,
    "lat": 31.287237,
    "lng": 121.168314
  },
  {
    "title": "整租·万立城(商业类) 2室2厅 南/北",
    "community": "万立城(商业类)",
    "area": "54.00",
    "rooms": "2室2厅",
    "direction": "南/北",
    "floor": "",
    "price": "3000",
    "tags": "",
    "source": "",
    "url": "https://sh.lianjia.com/zufang/SH2139074566868172800.html",
    "rent_type": "整租",
    "location": "嘉定-安亭-万立城(商业类)",
    "scraped_at": "2026-04-23 17:07:51",
    "region": "anting",
    "unit_price": 55.6,
    "lat": 31.283866,
    "lng": 121.178156
  },
  {
    "title": "整租·上海派 2室2厅 南",
    "community": "上海派",
    "area": "69.54",
    "rooms": "2室2厅",
    "direction": "南",
    "floor": "",
    "price": "3060",
    "tags": "",
    "source": "",
    "url": "https://sh.lianjia.com/zufang/SH2154097874625888256.html",
    "rent_type": "整租",
    "location": "嘉定-安亭-上海派",
    "scraped_at": "2026-04-23 17:07:51",
    "region": "anting",
    "unit_price": 44.0,
    "lat": 31.288239,
    "lng": 121.19285
  },
  {
    "title": "整租·日月光伯爵湾（一期） 3室2厅 南",
    "community": "日月光伯爵湾（一期）",
    "area": "89.25",
    "rooms": "3室2厅",
    "direction": "南",
    "floor": "",
    "price": "3600",
    "tags": "",
    "source": "",
    "url": "https://sh.lianjia.com/zufang/SH2152697653274607616.html",
    "rent_type": "整租",
    "location": "嘉定-安亭-日月光伯爵湾",
    "scraped_at": "2026-04-23 17:07:51",
    "region": "anting",
    "unit_price": 40.3,
    "lat": 31.280077,
    "lng": 121.157929
  },
  {
    "title": "整租·沁富佳苑 2室1厅 南",
    "community": "沁富佳苑",
    "area": "90.54",
    "rooms": "2室1厅",
    "direction": "南",
    "floor": "",
    "price": "3000",
    "tags": "",
    "source": "",
    "url": "https://sh.lianjia.com/zufang/SH2149767097700319232.html",
    "rent_type": "整租",
    "location": "嘉定-安亭-沁富佳苑",
    "scraped_at": "2026-04-23 17:08:31",
    "region": "anting",
    "unit_price": 33.1,
    "lat": 31.308814,
    "lng": 121.153959
  },
  {
    "title": "整租·万科西郊都会 2室1厅 东南/南",
    "community": "万科西郊都会",
    "area": "78.00",
    "rooms": "2室1厅",
    "direction": "东南/南",
    "floor": "",
    "price": "4500",
    "tags": "",
    "source": "",
    "url": "https://sh.lianjia.com/zufang/SH2152591495796883456.html",
    "rent_type": "整租",
    "location": "嘉定-安亭-万科西郊都会",
    "scraped_at": "2026-04-23 17:08:31",
    "region": "anting",
    "unit_price": 57.7,
    "lat": 31.272136,
    "lng": 121.195721
  },
  {
    "title": "整租·奥园金地·格林云尚 3室2厅 南",
    "community": "奥园金地·格林云尚",
    "area": "96.00",
    "rooms": "3室2厅",
    "direction": "南",
    "floor": "",
    "price": "3500",
    "tags": "",
    "source": "",
    "url": "https://sh.lianjia.com/zufang/SH2155583805354672128.html",
    "rent_type": "整租",
    "location": "嘉定-安亭-奥园金地",
    "scraped_at": "2026-04-23 17:08:31",
    "region": "anting",
    "unit_price": 36.5,
    "lat": 31.294615,
    "lng": 121.16317
  },
  {
    "title": "整租·大华·梧桐樾 3室1厅 南",
    "community": "大华·梧桐樾",
    "area": "102.00",
    "rooms": "3室1厅",
    "direction": "南",
    "floor": "",
    "price": "5000",
    "tags": "",
    "source": "",
    "url": "https://sh.lianjia.com/zufang/SH2157346955225726976.html",
    "rent_type": "整租",
    "location": "嘉定-安亭-大华",
    "scraped_at": "2026-04-23 17:08:31",
    "region": "anting",
    "unit_price": 49.0,
    "lat": 31.269066,
    "lng": 121.170986
  },
  {
    "title": "整租·深安上居 3室1厅 南",
    "community": "深安上居",
    "area": "88.00",
    "rooms": "3室1厅",
    "direction": "南",
    "floor": "",
    "price": "4520",
    "tags": "",
    "source": "",
    "url": "https://sh.lianjia.com/zufang/SH2146881439910592512.html",
    "rent_type": "整租",
    "location": "嘉定-安亭-深安上居",
    "scraped_at": "2026-04-23 17:08:31",
    "region": "anting",
    "unit_price": 51.4,
    "lat": 31.305102,
    "lng": 121.179248
  },
  {
    "title": "整租·尚都国际酒店公寓 1室1厅 南",
    "community": "尚都国际酒店公寓",
    "area": "55.00",
    "rooms": "1室1厅",
    "direction": "南",
    "floor": "",
    "price": "2100",
    "tags": "",
    "source": "",
    "url": "https://sh.lianjia.com/zufang/SH2141072408537202688.html",
    "rent_type": "整租",
    "location": "嘉定-安亭-尚都国际酒店公寓",
    "scraped_at": "2026-04-23 17:07:51",
    "region": "anting",
    "unit_price": 38.2,
    "lat": 31.283994,
    "lng": 121.173883
  },
  {
    "title": "整租·万立城(商业类) 2室1厅 南",
    "community": "万立城(商业类)",
    "area": "54.00",
    "rooms": "2室1厅",
    "direction": "南",
    "floor": "",
    "price": "2554",
    "tags": "",
    "source": "",
    "url": "https://sh.lianjia.com/zufang/SH2149448793551011840.html",
    "rent_type": "整租",
    "location": "嘉定-安亭-万立城(商业类)",
    "scraped_at": "2026-04-23 17:07:51",
    "region": "anting",
    "unit_price": 47.3,
    "lat": 31.283866,
    "lng": 121.178156
  },
  {
    "title": "整租·莱英悦都 1室1厅 南",
    "community": "莱英悦都",
    "area": "54.00",
    "rooms": "1室1厅",
    "direction": "南",
    "floor": "",
    "price": "3000",
    "tags": "",
    "source": "",
    "url": "https://sh.lianjia.com/zufang/SH2149733888191102976.html",
    "rent_type": "整租",
    "location": "嘉定-安亭-莱英悦都",
    "scraped_at": "2026-04-23 17:07:51",
    "region": "anting",
    "unit_price": 55.6,
    "lat": 31.280616,
    "lng": 121.212052
  },
  {
    "title": "整租·上海派观澜雅庭 2室1厅 南",
    "community": "上海派观澜雅庭",
    "area": "69.92",
    "rooms": "2室1厅",
    "direction": "南",
    "floor": "",
    "price": "3200",
    "tags": "",
    "source": "",
    "url": "https://sh.lianjia.com/zufang/SH2147268381437329408.html",
    "rent_type": "整租",
    "location": "嘉定-安亭-上海派观澜雅庭",
    "scraped_at": "2026-04-23 17:07:51",
    "region": "anting",
    "unit_price": 45.8,
    "lat": 31.293878,
    "lng": 121.192352
  },
  {
    "title": "整租·嘉亭菁苑 2室1厅 南",
    "community": "嘉亭菁苑",
    "area": "99.50",
    "rooms": "2室1厅",
    "direction": "南",
    "floor": "",
    "price": "4800",
    "tags": "",
    "source": "",
    "url": "https://sh.lianjia.com/zufang/SH2150064871796899840.html",
    "rent_type": "整租",
    "location": "嘉定-安亭-嘉亭菁苑",
    "scraped_at": "2026-04-23 17:07:51",
    "region": "anting",
    "unit_price": 48.2,
    "lat": 31.287225,
    "lng": 121.160505
  },
  {
    "title": "整租·汇尊国际 1室1厅 南",
    "community": "汇尊国际",
    "area": "54.00",
    "rooms": "1室1厅",
    "direction": "南",
    "floor": "",
    "price": "2500",
    "tags": "",
    "source": "",
    "url": "https://sh.lianjia.com/zufang/SH2147974905373655040.html",
    "rent_type": "整租",
    "location": "嘉定-安亭-汇尊国际",
    "scraped_at": "2026-04-23 17:07:51",
    "region": "anting",
    "unit_price": 46.3,
    "lat": 31.28988,
    "lng": 121.157686
  },
  {
    "title": "整租·嘉宝新力梦之晴华庭 3室2厅 南",
    "community": "嘉宝新力梦之晴华庭",
    "area": "97.58",
    "rooms": "3室2厅",
    "direction": "南",
    "floor": "",
    "price": "4500",
    "tags": "",
    "source": "",
    "url": "https://sh.lianjia.com/zufang/SH2150061348925472768.html",
    "rent_type": "整租",
    "location": "嘉定-安亭-嘉宝新力梦之晴华庭",
    "scraped_at": "2026-04-23 17:07:51",
    "region": "anting",
    "unit_price": 46.1,
    "lat": 31.298283,
    "lng": 121.196427
  },
  {
    "title": "整租·承安翡翠公馆 4室2厅 南",
    "community": "承安翡翠公馆",
    "area": "221.00",
    "rooms": "4室2厅",
    "direction": "南",
    "floor": "",
    "price": "8000",
    "tags": "",
    "source": "",
    "url": "https://sh.lianjia.com/zufang/SH2157873580262555648.html",
    "rent_type": "整租",
    "location": "嘉定-安亭-承安翡翠公馆",
    "scraped_at": "2026-04-23 17:08:13",
    "region": "anting",
    "unit_price": 36.2,
    "lat": 31.300559,
    "lng": 121.162172
  },
  {
    "title": "整租·西上海御庭 3室2厅 南",
    "community": "西上海御庭",
    "area": "91.76",
    "rooms": "3室2厅",
    "direction": "南",
    "floor": "",
    "price": "2500",
    "tags": "",
    "source": "",
    "url": "https://sh.lianjia.com/zufang/SH2146929736129970176.html",
    "rent_type": "整租",
    "location": "嘉定-安亭-西上海御庭",
    "scraped_at": "2026-04-23 17:08:13",
    "region": "anting",
    "unit_price": 27.2,
    "lat": 31.287004,
    "lng": 121.205291
  },
  {
    "title": "整租·西上海御庭 3室2厅 南",
    "community": "西上海御庭",
    "area": "91.70",
    "rooms": "3室2厅",
    "direction": "南",
    "floor": "",
    "price": "3800",
    "tags": "",
    "source": "",
    "url": "https://sh.lianjia.com/zufang/SH2142193738225549312.html",
    "rent_type": "整租",
    "location": "嘉定-安亭-西上海御庭",
    "scraped_at": "2026-04-23 17:08:13",
    "region": "anting",
    "unit_price": 41.4,
    "lat": 31.287004,
    "lng": 121.205291
  },
  {
    "title": "整租·上海派 3室2厅 南/北",
    "community": "上海派",
    "area": "88.00",
    "rooms": "3室2厅",
    "direction": "南/北",
    "floor": "",
    "price": "3800",
    "tags": "",
    "source": "",
    "url": "https://sh.lianjia.com/zufang/SH2145835961722863616.html",
    "rent_type": "整租",
    "location": "嘉定-安亭-上海派",
    "scraped_at": "2026-04-23 17:08:13",
    "region": "anting",
    "unit_price": 43.2,
    "lat": 31.288239,
    "lng": 121.19285
  },
  {
    "title": "整租·润渡佳苑 2室1厅 南",
    "community": "润渡佳苑",
    "area": "73.00",
    "rooms": "2室1厅",
    "direction": "南",
    "floor": "",
    "price": "2600",
    "tags": "",
    "source": "",
    "url": "https://sh.lianjia.com/zufang/SH2106603752696840192.html",
    "rent_type": "整租",
    "location": "嘉定-安亭-润渡佳苑",
    "scraped_at": "2026-04-23 17:08:13",
    "region": "anting",
    "unit_price": 35.6,
    "lat": 31.268143,
    "lng": 121.225704
  },
  {
    "title": "整租·嘉正国际 1室0厅 西北",
    "community": "嘉正国际",
    "area": "62.41",
    "rooms": "1室0厅",
    "direction": "西北",
    "floor": "",
    "price": "2900",
    "tags": "",
    "source": "",
    "url": "https://sh.lianjia.com/zufang/SH2148085729396260864.html",
    "rent_type": "整租",
    "location": "嘉定-安亭-嘉正国际",
    "scraped_at": "2026-04-23 17:08:13",
    "region": "anting",
    "unit_price": 46.5,
    "lat": 31.289934,
    "lng": 121.162792
  },
  {
    "title": "整租·恒大名都 3室1厅 南",
    "community": "恒大名都",
    "area": "102.00",
    "rooms": "3室1厅",
    "direction": "南",
    "floor": "",
    "price": "4800",
    "tags": "",
    "source": "",
    "url": "https://sh.lianjia.com/zufang/SH2098038006765060096.html",
    "rent_type": "整租",
    "location": "嘉定-安亭-恒大名都",
    "scraped_at": "2026-04-23 17:08:13",
    "region": "anting",
    "unit_price": 47.1,
    "lat": 31.292322,
    "lng": 121.192537
  },
  {
    "title": "整租·上海派 3室2厅 南",
    "community": "上海派",
    "area": "87.55",
    "rooms": "3室2厅",
    "direction": "南",
    "floor": "",
    "price": "2500",
    "tags": "",
    "source": "",
    "url": "https://sh.lianjia.com/zufang/SH1955851156760559616.html",
    "rent_type": "整租",
    "location": "嘉定-安亭-上海派",
    "scraped_at": "2026-04-23 17:08:13",
    "region": "anting",
    "unit_price": 28.6,
    "lat": 31.288239,
    "lng": 121.19285
  },
  {
    "title": "整租·大名城名郡 3室2厅 南",
    "community": "大名城名郡",
    "area": "87.76",
    "rooms": "3室2厅",
    "direction": "南",
    "floor": "",
    "price": "4000",
    "tags": "",
    "source": "",
    "url": "https://sh.lianjia.com/zufang/SH2144789006397734912.html",
    "rent_type": "整租",
    "location": "嘉定-安亭-大名城名郡",
    "scraped_at": "2026-04-23 17:08:13",
    "region": "anting",
    "unit_price": 45.6,
    "lat": 31.289676,
    "lng": 121.156133
  },
  {
    "title": "整租·上城名都 2室1厅 南/北",
    "community": "上城名都",
    "area": "62.32",
    "rooms": "2室1厅",
    "direction": "南/北",
    "floor": "",
    "price": "3400",
    "tags": "",
    "source": "",
    "url": "https://sh.lianjia.com/zufang/SH2121873320650473472.html",
    "rent_type": "整租",
    "location": "嘉定-安亭-上城名都",
    "scraped_at": "2026-04-23 17:08:13",
    "region": "anting",
    "unit_price": 54.6,
    "lat": 31.290263,
    "lng": 121.221791
  },
  {
    "title": "整租·红湖小区 2室1厅 南",
    "community": "红湖小区",
    "area": "72.88",
    "rooms": "2室1厅",
    "direction": "南",
    "floor": "",
    "price": "1700",
    "tags": "",
    "source": "",
    "url": "https://sh.lianjia.com/zufang/SH2045753154271707136.html",
    "rent_type": "整租",
    "location": "嘉定-安亭-红湖小区",
    "scraped_at": "2026-04-23 17:08:13",
    "region": "anting",
    "unit_price": 23.3,
    "lat": 31.301782,
    "lng": 121.15966
  },
  {
    "title": "整租·上城名都 4室2厅 南",
    "community": "上城名都",
    "area": "142.00",
    "rooms": "4室2厅",
    "direction": "南",
    "floor": "",
    "price": "4700",
    "tags": "",
    "source": "",
    "url": "https://sh.lianjia.com/zufang/SH2129565818306953216.html",
    "rent_type": "整租",
    "location": "嘉定-安亭-上城名都",
    "scraped_at": "2026-04-23 17:08:13",
    "region": "anting",
    "unit_price": 33.1,
    "lat": 31.290263,
    "lng": 121.221791
  },
  {
    "title": "整租·万科西郊都会 4室2厅 南",
    "community": "万科西郊都会",
    "area": "122.20",
    "rooms": "4室2厅",
    "direction": "南",
    "floor": "",
    "price": "7000",
    "tags": "",
    "source": "",
    "url": "https://sh.lianjia.com/zufang/SH2094319334745702400.html",
    "rent_type": "整租",
    "location": "嘉定-安亭-万科西郊都会",
    "scraped_at": "2026-04-23 17:08:13",
    "region": "anting",
    "unit_price": 57.3,
    "lat": 31.272136,
    "lng": 121.195721
  },
  {
    "title": "整租·万科莱茵半岛 3室2厅 复式 南",
    "community": "万科莱茵半岛",
    "area": "122.87",
    "rooms": "3室2厅",
    "direction": "",
    "floor": "",
    "price": "7500",
    "tags": "",
    "source": "",
    "url": "https://sh.lianjia.com/zufang/SH2154215557379915776.html",
    "rent_type": "整租",
    "location": "嘉定-安亭-万科莱茵半岛",
    "scraped_at": "2026-04-23 17:08:13",
    "region": "anting",
    "unit_price": 61.0,
    "lat": 31.267822,
    "lng": 121.180344
  },
  {
    "title": "整租·安亭新镇颂苑 3室2厅 复式 南",
    "community": "安亭新镇颂苑",
    "area": "220.00",
    "rooms": "3室2厅",
    "direction": "",
    "floor": "",
    "price": "7000",
    "tags": "",
    "source": "",
    "url": "https://sh.lianjia.com/zufang/SH2122995848362065920.html",
    "rent_type": "整租",
    "location": "嘉定-安亭-安亭新镇颂苑",
    "scraped_at": "2026-04-23 17:08:13",
    "region": "anting",
    "unit_price": 31.8,
    "lat": 31.267921,
    "lng": 121.169031
  },
  {
    "title": "整租·万科西郊都会 4室2厅 南/北",
    "community": "万科西郊都会",
    "area": "115.85",
    "rooms": "4室2厅",
    "direction": "南/北",
    "floor": "",
    "price": "6800",
    "tags": "",
    "source": "",
    "url": "https://sh.lianjia.com/zufang/SH2114269974645178368.html",
    "rent_type": "整租",
    "location": "嘉定-安亭-万科西郊都会",
    "scraped_at": "2026-04-23 17:08:13",
    "region": "anting",
    "unit_price": 58.7,
    "lat": 31.272136,
    "lng": 121.195721
  },
  {
    "title": "整租·安亭新镇德绍豪斯 4室2厅 复式 南",
    "community": "安亭新镇德绍豪斯",
    "area": "196.45",
    "rooms": "4室2厅",
    "direction": "",
    "floor": "",
    "price": "9500",
    "tags": "",
    "source": "",
    "url": "https://sh.lianjia.com/zufang/SH2063166240083410944.html",
    "rent_type": "整租",
    "location": "嘉定-安亭-安亭新镇德绍豪斯",
    "scraped_at": "2026-04-23 17:08:13",
    "region": "anting",
    "unit_price": 48.4,
    "lat": 31.269021,
    "lng": 121.175386
  },