[
  {
    "title": "整租·城市经典四期高迪 1室1厅 南",
    "community": "城市经典四期高迪",
    "area": "60.92",
    "rooms": "1室1厅",
    "direction": "南",
    "floor": "",
    "price": "5980",
    "tags": "",
    "source": "",
    "url": "https://sh.lianjia.com/zufang/SH2137883207020838912.html",
    "rent_type": "整租",
    "scraped_at": "2026-04-22 16:49:58",
    "region": "zhangjiang",
    "unit_price": 98.2,
    "lat": 31.212907,
    "lng": 121.618681
  },
  {
    "title": "整租·华发四季 3室2厅 南/北",
    "community": "华发四季",
    "area": "89.84",
    "rooms": "3室2厅",
    "direction": "南/北",
    "floor": "",
    "price": "8500",
    "tags": "",
    "source": "",
    "url": "https://sh.lianjia.com/zufang/SH2151283645007003648.html",
    "rent_type": "整租",
    "scraped_at": "2026-04-22 16:49:58",
    "region": "zhangjiang",
    "unit_price": 94.6,
    "lat": 31.172771,
    "lng": 121.623048
  },
  {
    "title": "整租·展想悦廷 1室1厅 西",
    "community": "展想悦廷",
    "area": "54.12",
    "rooms": "1室1厅",
    "direction": "西",
    "floor": "",
    "price": "3780",
    "tags": "",
    "source": "",
    "url": "https://sh.lianjia.com/zufang/SH2023307314466914304.html",
    "rent_type": "整租",
    "scraped_at": "2026-04-22 16:49:58",
    "region": "zhangjiang",
    "unit_price": 69.8,
    "lat": 31.210723,
    "lng": 121.626563
  },
  {
    "title": "独栋·纳仕 雅集服务公寓 国企直营可短租张江纳仕雅集100平俩室两厅保障性租赁住房 2室2厅",
    "community": "纳仕 雅集服务公寓 国企直营可短租张江纳仕雅集100平俩室两厅保障性租赁住房",
    "area": "100.00",
    "rooms": "2室2厅",
    "direction": "",
    "floor": "",
    "price": "8350",
    "tags": "",
    "source": "",
    "url": "https://sh.lianjia.com/apartment/80843.html",
    "rent_type": "独栋",
    "scraped_at": "2026-04-22 16:49:58",
    "region": "zhangjiang",
    "unit_price": 83.5,
    "lat": 31.025489,
    "lng": 121.261813
  },
  {
    "title": "整租·申城佳苑三期B块 2室1厅 南",
    "community": "申城佳苑三期B块",
    "area": "60.00",
    "rooms": "2室1厅",
    "direction": "南",
    "floor": "",
    "price": "4500",
    "tags": "",
    "source": "",
    "url": "https://sh.lianjia.com/zufang/SH2017843793331486720.html",
    "rent_type": "整租",
    "scraped_at": "2026-04-22 16:49:58",
    "region": "zhangjiang",
    "unit_price": 75.0,
    "lat": 31.180953,
    "lng": 121.638523
  },
  {
    "title": "独栋·城方公寓 孙桥璟佩社区 张江地铁站600，宠物友好，民水民电，拎包入住 1室1厅",
    "community": "城方公寓 孙桥璟佩社区 张江地铁站600，宠物友好，民水民电，拎包入住",
    "area": "32.89",
    "rooms": "1室1厅",
    "direction": "",
    "floor": "",
    "price": "3765",
    "tags": "",
    "source": "",
    "url": "https://sh.lianjia.com/apartment/85555.html",
    "rent_type": "独栋",
    "scraped_at": "2026-04-22 16:51:05",
    "region": "zhangjiang",
    "unit_price": 114.5,
    "lat": 31.213456,
    "lng": 121.435516
  },
  {
    "title": "整租·盛大天地青春里2.0 2室1厅 东南",
    "community": "盛大天地青春里2.0",
    "area": "46.00",
    "rooms": "2室1厅",
    "direction": "东南",
    "floor": "",
    "price": "4410",
    "tags": "",
    "source": "",
    "url": "https://sh.lianjia.com/zufang/SH1919388227127476224.html",
    "rent_type": "整租",
    "scraped_at": "2026-04-22 16:49:58",
    "region": "zhangjiang",
    "unit_price": 95.9,
    "lat": 31.169751,
    "lng": 121.605652
  },
  {
    "title": "整租·圣宇豪庭 4室2厅 南/北",
    "community": "圣宇豪庭",
    "area": "148.92",
    "rooms": "4室2厅",
    "direction": "南/北",
    "floor": "",
    "price": "14000",
    "tags": "",
    "source": "",
    "url": "https://sh.lianjia.com/zufang/SH2153048466211733504.html",
    "rent_type": "整租",
    "scraped_at": "2026-04-22 16:49:58",
    "region": "zhangjiang",
    "unit_price": 94.0,
    "lat": 31.18413,
    "lng": 121.630896
  },
  {
    "title": "整租·展想悦廷 1室1厅 东/南",
    "community": "展想悦廷",
    "area": "53.00",
    "rooms": "1室1厅",
    "direction": "东/南",
    "floor": "",
    "price": "3990",
    "tags": "",
    "source": "",
    "url": "https://sh.lianjia.com/zufang/SH1970132064795623424.html",
    "rent_type": "整租",
    "scraped_at": "2026-04-22 16:49:58",
    "region": "zhangjiang",
    "unit_price": 75.3,
    "lat": 31.210723,
    "lng": 121.626563
  },
  {
    "title": "独栋·泊寓 张江国创店 【日式一居室 采光好实体墙】免费健身房公共厨房 宠物友好可养猫 押一付一无中介费 免费班车 可短租 开间",
    "community": "泊寓 张江国创店 【日式一居室 采光好实体墙】免费健身房公共厨房 宠物友好可养猫 押一付一无中介费 免费班车 可短租 开间",
    "area": "20.00",
    "rooms": "",
    "direction": "",
    "floor": "",
    "price": "3800",
    "tags": "",
    "source": "",
    "url": "https://sh.lianjia.com/apartment/26211.html",
    "rent_type": "独栋",
    "scraped_at": "2026-04-22 16:50:57",
    "region": "zhangjiang",
    "unit_price": 190.0,
    "lat": 31.220249,
    "lng": 121.628135
  },
  {
    "title": "整租·春港丽园(公寓) 2室1厅 南",
    "community": "春港丽园(公寓)",
    "area": "76.00",
    "rooms": "2室1厅",
    "direction": "南",
    "floor": "",
    "price": "5700",
    "tags": "",
    "source": "",
    "url": "https://sh.lianjia.com/zufang/SH1988598466284093440.html",
    "rent_type": "整租",
    "scraped_at": "2026-04-22 16:49:58",
    "region": "zhangjiang",
    "unit_price": 75.0,
    "lat": 31.202239,
    "lng": 121.623576
  },
  {
    "title": "整租·盛大天地青春里2.0 2室2厅 北",
    "community": "盛大天地青春里2.0",
    "area": "46.00",
    "rooms": "2室2厅",
    "direction": "北",
    "floor": "",
    "price": "4515",
    "tags": "",
    "source": "",
    "url": "https://sh.lianjia.com/zufang/SH2025147038575886336.html",
    "rent_type": "整租",
    "scraped_at": "2026-04-22 16:49:58",
    "region": "zhangjiang",
    "unit_price": 98.2,
    "lat": 31.169751,
    "lng": 121.605652
  },
  {
    "title": "独栋·柚米 张江纳仕国际租赁社区 张江集团租赁社区 三房两厅高端精装全配 配套小学幼儿园 3室2厅",
    "community": "柚米 张江纳仕国际租赁社区 张江集团租赁社区 三房两厅高端精装全配 配套小学幼儿园",
    "area": "145.00",
    "rooms": "3室2厅",
    "direction": "",
    "floor": "",
    "price": "10268",
    "tags": "",
    "source": "",
    "url": "https://sh.lianjia.com/apartment/43060.html",
    "rent_type": "独栋",
    "scraped_at": "2026-04-22 16:50:06",
    "region": "zhangjiang",
    "unit_price": 70.8,
    "lat": 31.168658,
    "lng": 121.623132
  },
  {
    "title": "整租·黄浦花园 3室2厅 南",
    "community": "黄浦花园",
    "area": "101.58",
    "rooms": "3室2厅",
    "direction": "南",
    "floor": "",
    "price": "5040",
    "tags": "",
    "source": "",
    "url": "https://sh.lianjia.com/zufang/SH2025427331740336128.html",
    "rent_type": "整租",
    "scraped_at": "2026-04-22 16:49:58",
    "region": "zhangjiang",
    "unit_price": 49.6,
    "lat": 31.219451,
    "lng": 121.448417
  },
  {
    "title": "独栋·唐巢公寓 软件园店 朝南一室户 开间",
    "community": "唐巢公寓 软件园店 朝南一室户 开间",
    "area": "25.00",
    "rooms": "",
    "direction": "",
    "floor": "",
    "price": "2600",
    "tags": "",
    "source": "",
    "url": "https://sh.lianjia.com/apartment/65421.html",
    "rent_type": "独栋",
    "scraped_at": "2026-04-22 16:50:15",
    "region": "zhangjiang",
    "unit_price": 104.0,
    "lat": 31.199628,
    "lng": 121.613432
  },
  {
    "title": "整租·展想悦廷 1室1厅 南",
    "community": "展想悦廷",
    "area": "52.95",
    "rooms": "1室1厅",
    "direction": "南",
    "floor": "",
    "price": "4725",
    "tags": "",
    "source": "",
    "url": "https://sh.lianjia.com/zufang/SH2026327343940763648.html",
    "rent_type": "整租",
    "scraped_at": "2026-04-22 16:49:58",
    "region": "zhangjiang",
    "unit_price": 89.2,
    "lat": 31.210723,
    "lng": 121.626563
  },
  {
    "title": "整租·东郊紫园 5室2厅 复式 南",
    "community": "东郊紫园",
    "area": "377.00",
    "rooms": "5室2厅",
    "direction": "",
    "floor": "",
    "price": "40000",
    "tags": "",
    "source": "",
    "url": "https://sh.lianjia.com/zufang/SH2153059674553843712.html",
    "rent_type": "整租",
    "scraped_at": "2026-04-22 16:49:58",
    "region": "zhangjiang",
    "unit_price": 106.1,
    "lat": 31.178775,
    "lng": 121.624074
  },
  {
    "title": "独栋·纳仕 张江在线右里1 张江集团旗下自营公寓 纳仕张江在线右里 1室1厅",
    "community": "纳仕 张江在线右里1 张江集团旗下自营公寓 纳仕张江在线右里",
    "area": "55.00",
    "rooms": "1室1厅",
    "direction": "",
    "floor": "",
    "price": "5029",
    "tags": "",
    "source": "",
    "url": "https://sh.lianjia.com/apartment/101047.html",
    "rent_type": "独栋",
    "scraped_at": "2026-04-22 16:50:57",
    "region": "zhangjiang",
    "unit_price": 91.4,
    "lat": null,
    "lng": null
  },
  {
    "title": "整租·孙桥花苑 2室2厅 南",
    "community": "孙桥花苑",
    "area": "72.60",
    "rooms": "2室2厅",
    "direction": "南",
    "floor": "",
    "price": "5600",
    "tags": "",
    "source": "",
    "url": "https://sh.lianjia.com/zufang/SH2095095420492447744.html",
    "rent_type": "整租",
    "scraped_at": "2026-04-22 16:50:06",
    "region": "zhangjiang",
    "unit_price": 77.1,
    "lat": 31.179884,
    "lng": 121.629495
  },
  {
    "title": "整租·东郊华庭 5室2厅 南",
    "community": "东郊华庭",
    "area": "384.00",
    "rooms": "5室2厅",
    "direction": "南",
    "floor": "",
    "price": "30000",
    "tags": "",
    "source": "",
    "url": "https://sh.lianjia.com/zufang/SH2141516125286957056.html",
    "rent_type": "整租",
    "scraped_at": "2026-04-22 16:49:58",
    "region": "zhangjiang",
    "unit_price": 78.1,
    "lat": 31.218018,
    "lng": 121.623611
  },
  {
    "title": "整租·日月光水岸花园(一期) 2室2厅 南",
    "community": "日月光水岸花园(一期)",
    "area": "88.00",
    "rooms": "2室2厅",
    "direction": "南",
    "floor": "",
    "price": "7035",
    "tags": "",
    "source": "",
    "url": "https://sh.lianjia.com/zufang/SH2110957731539058688.html",
    "rent_type": "整租",
    "scraped_at": "2026-04-22 16:50:06",
    "region": "zhangjiang",
    "unit_price": 79.9,
    "lat": 31.214414,
    "lng": 121.623717
  },
  {
    "title": "独栋·达社国际公寓 张江店 中科路城市里的温暖小窝采光通透精装全配拎包入住遇见理想生活 1室1厅",
    "community": "达社国际公寓 张江店 中科路城市里的温暖小窝采光通透精装全配拎包入住遇见理想生活",
    "area": "48.00",
    "rooms": "1室1厅",
    "direction": "",
    "floor": "",
    "price": "6450",
    "tags": "",
    "source": "",
    "url": "https://sh.lianjia.com/apartment/103840.html",
    "rent_type": "独栋",
    "scraped_at": "2026-04-22 16:51:05",
    "region": "zhangjiang",
    "unit_price": 134.4,
    "lat": 31.188742,
    "lng": 121.628338
  },
  {
    "title": "整租·申城佳苑一期B块 3室1厅 南",
    "community": "申城佳苑一期B块",
    "area": "86.00",
    "rooms": "3室1厅",
    "direction": "南",
    "floor": "",
    "price": "5500",
    "tags": "",
    "source": "",
    "url": "https://sh.lianjia.com/zufang/SH2007824649039118336.html",
    "rent_type": "整租",
    "scraped_at": "2026-04-22 16:51:05",
    "region": "zhangjiang",
    "unit_price": 64.0,
    "lat": 31.185542,
    "lng": 121.636445
  },
  {
    "title": "整租·汤臣豪园一期 4室2厅 复式 南",
    "community": "汤臣豪园一期",
    "area": "257.23",
    "rooms": "4室2厅",
    "direction": "",
    "floor": "",
    "price": "26000",
    "tags": "",
    "source": "",
    "url": "https://sh.lianjia.com/zufang/SH2154797458205442048.html",
    "rent_type": "整租",
    "scraped_at": "2026-04-22 16:49:58",
    "region": "zhangjiang",
    "unit_price": 101.1,
    "lat": 31.209999,
    "lng": 121.585405
  },
  {
    "title": "整租·华发四季 4室2厅 南",
    "community": "华发四季",
    "area": "161.96",
    "rooms": "4室2厅",
    "direction": "南",
    "floor": "",
    "price": "14000",
    "tags": "",
    "source": "",
    "url": "https://sh.lianjia.com/zufang/SH2130982069818359808.html",
    "rent_type": "整租",
    "scraped_at": "2026-04-22 16:49:58",
    "region": "zhangjiang",
    "unit_price": 86.4,
    "lat": 31.172771,
    "lng": 121.623048
  },
  {
    "title": "整租·科锦苑 2室2厅 南",
    "community": "科锦苑",
    "area": "86.00",
    "rooms": "2室2厅",
    "direction": "南",
    "floor": "",
    "price": "6400",
    "tags": "",
    "source": "",
    "url": "https://sh.lianjia.com/zufang/SH2156715067318468608.html",
    "rent_type": "整租",
    "scraped_at": "2026-04-22 16:49:58",
    "region": "zhangjiang",
    "unit_price": 74.4,
    "lat": 31.173612,
    "lng": 121.625676
  },
  {
    "title": "整租·中芯花园199弄 2室2厅 南",
    "community": "中芯花园199弄",
    "area": "90.13",
    "rooms": "2室2厅",
    "direction": "南",
    "floor": "",
    "price": "7000",
    "tags": "",
    "source": "",
    "url": "https://sh.lianjia.com/zufang/SH2156977061384683520.html",
    "rent_type": "整租",
    "scraped_at": "2026-04-22 16:49:58",
    "region": "zhangjiang",
    "unit_price": 77.7,
    "lat": 31.220081,
    "lng": 121.621991
  },
  {
    "title": "独栋·南城公寓 张江店 年租，水网全免，首月半价 1室1厅",
    "community": "南城公寓 张江店 年租，水网全免，首月半价",
    "area": "20.00",
    "rooms": "1室1厅",
    "direction": "",
    "floor": "",
    "price": "3400",
    "tags": "",
    "source": "",
    "url": "https://sh.lianjia.com/apartment/107113.html",
    "rent_type": "独栋",
    "scraped_at": "2026-04-22 16:51:05",
    "region": "zhangjiang",
    "unit_price": 170.0,
    "lat": 31.231843,
    "lng": 121.451603
  },
  {
    "title": "整租·虹御公寓 1室1厅 南",
    "community": "虹御公寓",
    "area": "52.00",
    "rooms": "1室1厅",
    "direction": "南",
    "floor": "",
    "price": "6600",
    "tags": "",
    "source": "",
    "url": "https://sh.lianjia.com/zufang/SH2157139612357623808.html",
    "rent_type": "整租",
    "scraped_at": "2026-04-22 16:50:06",
    "region": "zhangjiang",
    "unit_price": 126.9,
    "lat": 31.187024,
    "lng": 121.628373
  },
  {
    "title": "整租·川杨新苑(六期) 2室2厅 南",
    "community": "川杨新苑(六期)",
    "area": "85.53",
    "rooms": "2室2厅",
    "direction": "南",
    "floor": "",
    "price": "6825",
    "tags": "",
    "source": "",
    "url": "https://sh.lianjia.com/zufang/SH2023280721765859328.html",
    "rent_type": "整租",
    "scraped_at": "2026-04-22 16:50:06",
    "region": "zhangjiang",
    "unit_price": 79.8,
    "lat": 31.190876,
    "lng": 121.636381
  },
  {
    "title": "独栋·柚米 张江纳仕社区E店 张江集团 家庭型三室两厅，燃气厨房，配套学校 方便停车 3室2厅",
    "community": "柚米 张江纳仕社区E店 张江集团 家庭型三室两厅，燃气厨房，配套学校 方便停车",
    "area": "145.00",
    "rooms": "3室2厅",
    "direction": "",
    "floor": "",
    "price": "10268",
    "tags": "",
    "source": "",
    "url": "https://sh.lianjia.com/apartment/20387.html",
    "rent_type": "独栋",
    "scraped_at": "2026-04-22 16:50:50",
    "region": "zhangjiang",
    "unit_price": 70.8,
    "lat": 31.186213,
    "lng": 121.587145
  },
  {
    "title": "整租·张江汤臣豪园(三期) 2室2厅 南/北",
    "community": "张江汤臣豪园(三期)",
    "area": "88.00",
    "rooms": "2室2厅",
    "direction": "南/北",
    "floor": "",
    "price": "9660",
    "tags": "",
    "source": "",
    "url": "https://sh.lianjia.com/zufang/SH2024363075527770112.html",
    "rent_type": "整租",
    "scraped_at": "2026-04-22 16:50:06",
    "region": "zhangjiang",
    "unit_price": 109.8,
    "lat": 31.199283,
    "lng": 121.597612
  },
  {
    "title": "整租·阳光花城 3室2厅 南",
    "community": "阳光花城",
    "area": "135.00",
    "rooms": "3室2厅",
    "direction": "南",
    "floor": "",
    "price": "10500",
    "tags": "",
    "source": "",
    "url": "https://sh.lianjia.com/zufang/SH2148649186780774400.html",
    "rent_type": "整租",
    "scraped_at": "2026-04-22 16:50:20",
    "region": "zhangjiang",
    "unit_price": 77.8,
    "lat": 31.208903,
    "lng": 121.623037
  },
  {
    "title": "整租·杨镇新村 2室1厅 南/北",
    "community": "杨镇新村",
    "area": "65.00",
    "rooms": "2室1厅",
    "direction": "南/北",
    "floor": "",
    "price": "4673",
    "tags": "",
    "source": "",
    "url": "https://sh.lianjia.com/zufang/SH2127794984030568448.html",
    "rent_type": "整租",
    "scraped_at": "2026-04-22 16:50:06",
    "region": "zhangjiang",
    "unit_price": 71.9,
    "lat": 31.029188,
    "lng": 121.369623
  },
  {
    "title": "独栋·柚米 张江纳仕社区A店 国企直租人才社区！ 豪华装修大三房 民用水电通燃气 配套齐全 方便停车 3室2厅",
    "community": "柚米 张江纳仕社区A店 国企直租人才社区！ 豪华装修大三房 民用水电通燃气 配套齐全 方便停车",
    "area": "145.00",
    "rooms": "3室2厅",
    "direction": "",
    "floor": "",
    "price": "10268",
    "tags": "",
    "source": "",
    "url": "https://sh.lianjia.com/apartment/60831.html",
    "rent_type": "独栋",
    "scraped_at": "2026-04-22 16:51:05",
    "region": "zhangjiang",
    "unit_price": 70.8,
    "lat": 31.230525,
    "lng": 121.473667
  },
  {
    "title": "整租·盛大天地青春里2.0 2室2厅 南",
    "community": "盛大天地青春里2.0",
    "area": "41.87",
    "rooms": "2室2厅",
    "direction": "南",
    "floor": "",
    "price": "5040",
    "tags": "",
    "source": "",
    "url": "https://sh.lianjia.com/zufang/SH2122301820679225344.html",
    "rent_type": "整租",
    "scraped_at": "2026-04-22 16:50:06",
    "region": "zhangjiang",
    "unit_price": 120.4,
    "lat": 31.169751,
    "lng": 121.605652
  },
  {
    "title": "独栋·城家公寓 城家公寓上海张江蔡伦路店 限时特惠 地铁口出行便利 精装公寓 采光好 宠物友好大一居阳光房 开间",
    "community": "城家公寓 城家公寓上海张江蔡伦路店 限时特惠 地铁口出行便利 精装公寓 采光好 宠物友好大一居阳光房 开间",
    "area": "33.00",
    "rooms": "",
    "direction": "",
    "floor": "",
    "price": "3650",
    "tags": "",
    "source": "",
    "url": "https://sh.lianjia.com/apartment/104344.html",
    "rent_type": "独栋",
    "scraped_at": "2026-04-22 16:50:06",
    "region": "zhangjiang",
    "unit_price": 110.6,
    "lat": 31.262907,
    "lng": 121.335573
  },
  {
    "title": "整租·盛大天地青春里2.0 2室1厅 北",
    "community": "盛大天地青春里2.0",
    "area": "45.00",
    "rooms": "2室1厅",
    "direction": "北",
    "floor": "",
    "price": "4620",
    "tags": "",
    "source": "",
    "url": "https://sh.lianjia.com/zufang/SH1933114530372517888.html",
    "rent_type": "整租",
    "scraped_at": "2026-04-22 16:51:05",
    "region": "zhangjiang",
    "unit_price": 102.7,
    "lat": 31.169751,
    "lng": 121.605652
  },
  {
    "title": "整租·盛大天地青春里(一期) 2室1厅 南",
    "community": "盛大天地青春里(一期)",
    "area": "66.92",
    "rooms": "2室1厅",
    "direction": "南",
    "floor": "",
    "price": "5100",
    "tags": "",
    "source": "",
    "url": "https://sh.lianjia.com/zufang/SH2594326332834332672.html",
    "rent_type": "整租",
    "scraped_at": "2026-04-22 16:50:06",
    "region": "zhangjiang",
    "unit_price": 76.2,
    "lat": 31.170677,
    "lng": 121.605855
  },
  {
    "title": "整租·紫晶苑 3室1厅 南",
    "community": "紫晶苑",
    "area": "79.58",
    "rooms": "3室1厅",
    "direction": "南",
    "floor": "",
    "price": "5200",
    "tags": "",
    "source": "",
    "url": "https://sh.lianjia.com/zufang/SH1928445798668828672.html",
    "rent_type": "整租",
    "scraped_at": "2026-04-22 16:50:06",
    "region": "zhangjiang",
    "unit_price": 65.3,
    "lat": 31.175766,
    "lng": 121.623784
  },
  {
    "title": "整租·万科翡翠公园（商用） 1室1厅 东",
    "community": "万科翡翠公园（商用）",
    "area": "45.00",
    "rooms": "1室1厅",
    "direction": "东",
    "floor": "",
    "price": "5700",
    "tags": "",
    "source": "",
    "url": "https://sh.lianjia.com/zufang/SH2149347982116388864.html",
    "rent_type": "整租",
    "scraped_at": "2026-04-22 16:50:20",
    "region": "zhangjiang",
    "unit_price": 126.7,
    "lat": 31.179762,
    "lng": 121.610562
  },
  {
    "title": "独栋·集贤天地人才公寓 张江店 精装朝南大一居带阳台24小时安保管家服务住的顺心睡得安心N 1室1厅",
    "community": "集贤天地人才公寓 张江店 精装朝南大一居带阳台24小时安保管家服务住的顺心睡得安心N",
    "area": "70.00",
    "rooms": "1室1厅",
    "direction": "",
    "floor": "",
    "price": "8000",
    "tags": "",
    "source": "",
    "url": "https://sh.lianjia.com/apartment/85357.html",
    "rent_type": "独栋",
    "scraped_at": "2026-04-22 16:50:57",
    "region": "zhangjiang",
    "unit_price": 114.3,
    "lat": 31.208796,
    "lng": 121.629595
  },
  {
    "title": "整租·香楠小区 1室1厅 南",
    "community": "香楠小区",
    "area": "47.00",
    "rooms": "1室1厅",
    "direction": "南",
    "floor": "",
    "price": "4410",
    "tags": "",
    "source": "",
    "url": "https://sh.lianjia.com/zufang/SH2020508257784692736.html",
    "rent_type": "整租",
    "scraped_at": "2026-04-22 16:50:06",
    "region": "zhangjiang",
    "unit_price": 93.8,
    "lat": 31.21652,
    "lng": 121.614476
  },
  {
    "title": "整租·万科翡翠公园四期 4室2厅 南/北",
    "community": "万科翡翠公园四期",
    "area": "179.82",
    "rooms": "4室2厅",
    "direction": "南/北",
    "floor": "",
    "price": "25000",
    "tags": "",
    "source": "",
    "url": "https://sh.lianjia.com/zufang/SH2150263552722599936.html",
    "rent_type": "整租",
    "scraped_at": "2026-04-22 16:50:15",
    "region": "zhangjiang",
    "unit_price": 139.0,
    "lat": 31.179139,
    "lng": 121.610609
  },
  {
    "title": "整租·张江汤臣豪园(三期) 2室1厅 南",
    "community": "张江汤臣豪园(三期)",
    "area": "88.00",
    "rooms": "2室1厅",
    "direction": "南",
    "floor": "",
    "price": "9500",
    "tags": "",
    "source": "",
    "url": "https://sh.lianjia.com/zufang/SH2145526391318249472.html",
    "rent_type": "整租",
    "scraped_at": "2026-04-22 16:50:06",
    "region": "zhangjiang",
    "unit_price": 108.0,
    "lat": 31.199283,
    "lng": 121.597612
  },
  {
    "title": "独栋·纳仕 雅集服务公寓B 公寓.纳仕.国企直营公寓，可短租，包宽带，宠物友好，民用水电燃气，电器全配 2室2厅",
    "community": "纳仕 雅集服务公寓B 公寓.纳仕.国企直营公寓，可短租，包宽带，宠物友好，民用水电燃气，电器全配",
    "area": "101.00",
    "rooms": "2室2厅",
    "direction": "",
    "floor": "",
    "price": "7597",
    "tags": "",
    "source": "",
    "url": "https://sh.lianjia.com/apartment/84270.html",
    "rent_type": "独栋",
    "scraped_at": "2026-04-22 16:50:50",
    "region": "zhangjiang",
    "unit_price": 75.2,
    "lat": 31.253504,
    "lng": 121.620492
  },
  {
    "title": "整租·绿地MTOWN 1室1厅 北",
    "community": "绿地MTOWN",
    "area": "38.00",
    "rooms": "1室1厅",
    "direction": "北",
    "floor": "",
    "price": "4200",
    "tags": "",
    "source": "",
    "url": "https://sh.lianjia.com/zufang/SH1958100708322443264.html",
    "rent_type": "整租",
    "scraped_at": "2026-04-22 16:51:05",
    "region": "zhangjiang",
    "unit_price": 110.5,
    "lat": 31.177201,
    "lng": 121.603781
  },
  {
    "title": "独栋·城家公寓 张江店 超高性价比好房必看，靠近2号线出行方便，房间价格低，无中间商赚差价 开间",
    "community": "城家公寓 张江店 超高性价比好房必看，靠近2号线出行方便，房间价格低，无中间商赚差价 开间",
    "area": "26.00",
    "rooms": "",
    "direction": "",
    "floor": "",
    "price": "4500",
    "tags": "",
    "source": "",
    "url": "https://sh.lianjia.com/apartment/50830.html",
    "rent_type": "独栋",
    "scraped_at": "2026-04-22 16:51:05",
    "region": "zhangjiang",
    "unit_price": 173.1,
    "lat": 31.262907,
    "lng": 121.335573
  },
  {
    "title": "整租·申城佳苑三期B块 2室1厅 南",
    "community": "申城佳苑三期B块",
    "area": "57.00",
    "rooms": "2室1厅",
    "direction": "南",
    "floor": "",
    "price": "5300",
    "tags": "",
    "source": "",
    "url": "https://sh.lianjia.com/zufang/SH2151607091524009984.html",
    "rent_type": "整租",
    "scraped_at": "2026-04-22 16:50:15",
    "region": "zhangjiang",
    "unit_price": 93.0,
    "lat": 31.180953,
    "lng": 121.638523
  },
  {
    "title": "整租·交江大楼 3室2厅 南",
    "community": "交江大楼",
    "area": "168.00",
    "rooms": "3室2厅",
    "direction": "南",
    "floor": "",
    "price": "11000",
    "tags": "",
    "source": "",
    "url": "https://sh.lianjia.com/zufang/SH2100122614474211328.html",
    "rent_type": "整租",
    "scraped_at": "2026-04-22 16:50:06",
    "region": "zhangjiang",
    "unit_price": 65.5,
    "lat": 31.205617,
    "lng": 121.613283
  },
  {
    "title": "整租·华发四季 3室1厅 南",
    "community": "华发四季",
    "area": "89.84",
    "rooms": "3室1厅",
    "direction": "南",
    "floor": "",
    "price": "8200",
    "tags": "",
    "source": "",
    "url": "https://sh.lianjia.com/zufang/SH2104418974396579840.html",
    "rent_type": "整租",
    "scraped_at": "2026-04-22 16:50:06",
    "region": "zhangjiang",
    "unit_price": 91.3,
    "lat": 31.172771,
    "lng": 121.623048
  },
  {
    "title": "整租·张江汤臣豪园(三期) 4室2厅 南/北",
    "community": "张江汤臣豪园(三期)",
    "area": "212.58",
    "rooms": "4室2厅",
    "direction": "南/北",
    "floor": "",
    "price": "23000",
    "tags": "",
    "source": "",
    "url": "https://sh.lianjia.com/zufang/SH2107000079234629632.html",
    "rent_type": "整租",
    "scraped_at": "2026-04-22 16:50:06",
    "region": "zhangjiang",
    "unit_price": 108.2,
    "lat": 31.199283,
    "lng": 121.597612
  },
  {
    "title": "整租·绿地MTOWN 2室0厅 跃层 北",
    "community": "绿地MTOWN",
    "area": "38.00",
    "rooms": "2室0厅",
    "direction": "",
    "floor": "",
    "price": "4515",
    "tags": "",
    "source": "",
    "url": "https://sh.lianjia.com/zufang/SH2058050068597964800.html",
    "rent_type": "整租",
    "scraped_at": "2026-04-22 16:50:15",
    "region": "zhangjiang",
    "unit_price": 118.8,
    "lat": 31.177201,
    "lng": 121.603781
  },
  {
    "title": "整租·盛大天地青春里2.0 2室1厅 南",
    "community": "盛大天地青春里2.0",
    "area": "62.00",
    "rooms": "2室1厅",
    "direction": "南",
    "floor": "",
    "price": "6500",
    "tags": "",
    "source": "",
    "url": "https://sh.lianjia.com/zufang/SH2148335711579799552.html",
    "rent_type": "整租",
    "scraped_at": "2026-04-22 16:50:15",
    "region": "zhangjiang",
    "unit_price": 104.8,
    "lat": 31.169751,
    "lng": 121.605652
  },
  {
    "title": "整租·玉兰香苑二期A块 2室1厅 南",
    "community": "玉兰香苑二期A块",
    "area": "58.98",
    "rooms": "2室1厅",
    "direction": "南",
    "floor": "",
    "price": "4725",
    "tags": "",
    "source": "",
    "url": "https://sh.lianjia.com/zufang/SH2023774565703876608.html",
    "rent_type": "整租",
    "scraped_at": "2026-04-22 16:50:15",
    "region": "zhangjiang",
    "unit_price": 80.1,
    "lat": 31.198439,
    "lng": 121.627318
  },
  {
    "title": "整租·申城佳苑三期B块 3室2厅 南",
    "community": "申城佳苑三期B块",
    "area": "113.00",
    "rooms": "3室2厅",
    "direction": "南",
    "floor": "",
    "price": "7300",
    "tags": "",
    "source": "",
    "url": "https://sh.lianjia.com/zufang/SH2143264080658432000.html",
    "rent_type": "整租",
    "scraped_at": "2026-04-22 16:50:15",
    "region": "zhangjiang",
    "unit_price": 64.6,
    "lat": 31.180953,
    "lng": 121.638523
  },
  {
    "title": "独栋·紫晶社区 张江店 社区公寓，春季特惠房 配置器全 带阳台 开间",
    "community": "紫晶社区 张江店 社区公寓，春季特惠房 配置器全 带阳台 开间",
    "area": "25.00",
    "rooms": "",
    "direction": "",
    "floor": "",
    "price": "2500",
    "tags": "",
    "source": "",
    "url": "https://sh.lianjia.com/apartment/89895.html",
    "rent_type": "独栋",
    "scraped_at": "2026-04-22 16:50:15",
    "region": "zhangjiang",
    "unit_price": 100.0,
    "lat": 31.192759,
    "lng": 121.590511
  },
  {
    "title": "整租·盛大天地青春里2.0 2室2厅 东北",
    "community": "盛大天地青春里2.0",
    "area": "54.00",
    "rooms": "2室2厅",
    "direction": "东北",
    "floor": "",
    "price": "5145",
    "tags": "",
    "source": "",
    "url": "https://sh.lianjia.com/zufang/SH1928816270845673472.html",
    "rent_type": "整租",
    "scraped_at": "2026-04-22 16:50:15",
    "region": "zhangjiang",
    "unit_price": 95.3,
    "lat": 31.169751,
    "lng": 121.605652
  },
  {
    "title": "整租·盛大天地青春里2.0 2室2厅 北",
    "community": "盛大天地青春里2.0",
    "area": "45.00",
    "rooms": "2室2厅",
    "direction": "北",
    "floor": "",
    "price": "4515",
    "tags": "",
    "source": "",
    "url": "https://sh.lianjia.com/zufang/SH1931293032494137344.html",
    "rent_type": "整租",
    "scraped_at": "2026-04-22 16:51:05",
    "region": "zhangjiang",
    "unit_price": 100.3,
    "lat": 31.169751,
    "lng": 121.605652
  },
  {
    "title": "整租·盛大天地青春里2.0 1室1厅 北",
    "community": "盛大天地青春里2.0",
    "area": "45.00",
    "rooms": "1室1厅",
    "direction": "北",
    "floor": "",
    "price": "3990",
    "tags": "",
    "source": "",
    "url": "https://sh.lianjia.com/zufang/SH1933432760643354624.html",
    "rent_type": "整租",
    "scraped_at": "2026-04-22 16:51:05",
    "region": "zhangjiang",
    "unit_price": 88.7,
    "lat": 31.169751,
    "lng": 121.605652
  },
  {
    "title": "独栋·微驿共享社区 张江店 2号线广兰路地铁/近张江中心/独立卫生间/1.2床单人床/ 开间",
    "community": "微驿共享社区 张江店 2号线广兰路地铁/近张江中心/独立卫生间/1.2床单人床/ 开间",
    "area": "15.00",
    "rooms": "",
    "direction": "",
    "floor": "",
    "price": "2300",
    "tags": "",
    "source": "",
    "url": "https://sh.lianjia.com/apartment/92967.html",
    "rent_type": "独栋",
    "scraped_at": "2026-04-22 16:50:15",
    "region": "zhangjiang",
    "unit_price": 153.3,
    "lat": null,
    "lng": null
  },
  {
    "title": "整租·盛大天地青春里2.0 2室2厅 东北",
    "community": "盛大天地青春里2.0",
    "area": "45.00",
    "rooms": "2室2厅",
    "direction": "东北",
    "floor": "",
    "price": "4410",
    "tags": "",
    "source": "",
    "url": "https://sh.lianjia.com/zufang/SH1940375785416163328.html",
    "rent_type": "整租",
    "scraped_at": "2026-04-22 16:51:05",
    "region": "zhangjiang",
    "unit_price": 98.0,
    "lat": 31.169751,
    "lng": 121.605652
  },
  {
    "title": "整租·张江汤臣豪园(四期) 4室2厅 南",
    "community": "张江汤臣豪园(四期)",
    "area": "136.59",
    "rooms": "4室2厅",
    "direction": "南",
    "floor": "",
    "price": "17000",
    "tags": "",
    "source": "",
    "url": "https://sh.lianjia.com/zufang/SH2153480703239520256.html",
    "rent_type": "整租",
    "scraped_at": "2026-04-22 16:50:15",
    "region": "zhangjiang",
    "unit_price": 124.5,
    "lat": 31.198209,
    "lng": 121.592123
  },
  {
    "title": "整租·中建御华园 3室2厅 南",
    "community": "中建御华园",
    "area": "100.00",
    "rooms": "3室2厅",
    "direction": "南",
    "floor": "",
    "price": "11800",
    "tags": "",
    "source": "",
    "url": "https://sh.lianjia.com/zufang/SH2113906125601505280.html",
    "rent_type": "整租",
    "scraped_at": "2026-04-22 16:50:15",
    "region": "zhangjiang",
    "unit_price": 118.0,
    "lat": 31.207382,
    "lng": 121.617018
  },
  {
    "title": "整租·万科翡翠公园（商用） 2室2厅 南",
    "community": "万科翡翠公园（商用）",
    "area": "68.00",
    "rooms": "2室2厅",
    "direction": "南",
    "floor": "",
    "price": "6800",
    "tags": "",
    "source": "",
    "url": "https://sh.lianjia.com/zufang/SH2117192019578191872.html",
    "rent_type": "整租",
    "scraped_at": "2026-04-22 16:50:15",
    "region": "zhangjiang",
    "unit_price": 100.0,
    "lat": 31.179762,
    "lng": 121.610562
  },
  {
    "title": "整租·虹御公寓 3室2厅 南",
    "community": "虹御公寓",
    "area": "114.85",
    "rooms": "3室2厅",
    "direction": "南",
    "floor": "",
    "price": "7000",
    "tags": "",
    "source": "",
    "url": "https://sh.lianjia.com/zufang/SH2122662613778169856.html",
    "rent_type": "整租",
    "scraped_at": "2026-04-22 16:50:15",
    "region": "zhangjiang",
    "unit_price": 60.9,
    "lat": 31.187024,
    "lng": 121.628373
  },
  {
    "title": "整租·张江汤臣豪园(二期) 4室1厅 复式 南/北",
    "community": "张江汤臣豪园(二期)",
    "area": "91.88",
    "rooms": "4室1厅",
    "direction": "",
    "floor": "",
    "price": "12000",
    "tags": "",
    "source": "",
    "url": "https://sh.lianjia.com/zufang/SH2123406033773658112.html",
    "rent_type": "整租",
    "scraped_at": "2026-04-22 16:50:15",
    "region": "zhangjiang",
    "unit_price": 130.6,
    "lat": 31.202498,
    "lng": 121.597512
  },
  {
    "title": "整租·张江汤臣豪园(二期) 2室2厅 南",
    "community": "张江汤臣豪园(二期)",
    "area": "131.74",
    "rooms": "2室2厅",
    "direction": "南",
    "floor": "",
    "price": "11500",
    "tags": "",
    "source": "",
    "url": "https://sh.lianjia.com/zufang/SH2153353866022748160.html",
    "rent_type": "整租",
    "scraped_at": "2026-04-22 16:50:20",
    "region": "zhangjiang",
    "unit_price": 87.3,
    "lat": 31.202498,
    "lng": 121.597512
  },
  {
    "title": "整租·贝越流明新苑 4室2厅 南",
    "community": "贝越流明新苑",
    "area": "155.31",
    "rooms": "4室2厅",
    "direction": "南",
    "floor": "",
    "price": "8800",
    "tags": "",
    "source": "",
    "url": "https://sh.lianjia.com/zufang/SH2143993922832039936.html",
    "rent_type": "整租",
    "scraped_at": "2026-04-22 16:50:20",
    "region": "zhangjiang",
    "unit_price": 56.7,
    "lat": 31.202948,
    "lng": 121.622346
  },
  {
    "title": "整租·阳光花城 2室2厅 南",
    "community": "阳光花城",
    "area": "115.34",
    "rooms": "2室2厅",
    "direction": "南",
    "floor": "",
    "price": "9200",
    "tags": "",
    "source": "",
    "url": "https://sh.lianjia.com/zufang/SH2144659221122121728.html",
    "rent_type": "整租",
    "scraped_at": "2026-04-22 16:50:20",
    "region": "zhangjiang",
    "unit_price": 79.8,
    "lat": 31.208903,
    "lng": 121.623037
  },
  {
    "title": "独栋·盛大天地青春里公寓 二期 大套 2房2厅2卫 2室2厅",
    "community": "盛大天地青春里公寓 二期 大套 2房2厅2卫",
    "area": "100.00",
    "rooms": "2室2厅",
    "direction": "",
    "floor": "",
    "price": "5950",
    "tags": "",
    "source": "",
    "url": "https://sh.lianjia.com/apartment/4876.html",
    "rent_type": "独栋",
    "scraped_at": "2026-04-22 16:50:20",
    "region": "zhangjiang",
    "unit_price": 59.5,
    "lat": 31.169751,
    "lng": 121.605652
  },
  {
    "title": "整租·申城佳苑一期B块 1室1厅 南",
    "community": "申城佳苑一期B块",
    "area": "60.00",
    "rooms": "1室1厅",
    "direction": "南",
    "floor": "",
    "price": "4830",
    "tags": "",
    "source": "",
    "url": "https://sh.lianjia.com/zufang/SH1924010014079451136.html",
    "rent_type": "整租",
    "scraped_at": "2026-04-22 16:50:20",
    "region": "zhangjiang",
    "unit_price": 80.5,
    "lat": 31.185542,
    "lng": 121.636445
  },
  {
    "title": "整租·展想悦廷 1室1厅 东",
    "community": "展想悦廷",
    "area": "53.00",
    "rooms": "1室1厅",
    "direction": "东",
    "floor": "",
    "price": "4000",
    "tags": "",
    "source": "",
    "url": "https://sh.lianjia.com/zufang/SH1979467369717694464.html",
    "rent_type": "整租",
    "scraped_at": "2026-04-22 16:50:20",
    "region": "zhangjiang",
    "unit_price": 75.5,
    "lat": 31.210723,
    "lng": 121.626563
  },
  {
    "title": "整租·玉兰香苑二期C块 3室1厅 南/北",
    "community": "玉兰香苑二期C块",
    "area": "85.00",
    "rooms": "3室1厅",
    "direction": "南/北",
    "floor": "",
    "price": "5807",
    "tags": "",
    "source": "",
    "url": "https://sh.lianjia.com/zufang/SH1993603915328782336.html",
    "rent_type": "整租",
    "scraped_at": "2026-04-22 16:50:20",
    "region": "zhangjiang",
    "unit_price": 68.3,
    "lat": 31.198439,
    "lng": 121.627318
  },
  {
    "title": "整租·紫晶苑 2室1厅 南",
    "community": "紫晶苑",
    "area": "107.27",
    "rooms": "2室1厅",
    "direction": "南",
    "floor": "",
    "price": "6360",
    "tags": "",
    "source": "",
    "url": "https://sh.lianjia.com/zufang/SH1830689228715982848.html",
    "rent_type": "整租",
    "scraped_at": "2026-04-22 16:50:20",
    "region": "zhangjiang",
    "unit_price": 59.3,
    "lat": 31.175766,
    "lng": 121.623784
  },
  {
    "title": "整租·申城佳苑一期A块 2室1厅 南",
    "community": "申城佳苑一期A块",
    "area": "60.22",
    "rooms": "2室1厅",
    "direction": "南",
    "floor": "",
    "price": "5090",
    "tags": "",
    "source": "",
    "url": "https://sh.lianjia.com/zufang/SH2040765046178447360.html",
    "rent_type": "整租",
    "scraped_at": "2026-04-22 16:50:20",
    "region": "zhangjiang",
    "unit_price": 84.5,
    "lat": 31.185542,
    "lng": 121.636445
  },
  {
    "title": "整租·紫晶苑 1室1厅 南",
    "community": "紫晶苑",
    "area": "60.00",
    "rooms": "1室1厅",
    "direction": "南",
    "floor": "",
    "price": "4700",
    "tags": "",
    "source": "",
    "url": "https://sh.lianjia.com/zufang/SH2154532532169736192.html",
    "rent_type": "整租",
    "scraped_at": "2026-04-22 16:50:20",
    "region": "zhangjiang",
    "unit_price": 78.3,
    "lat": 31.175766,
    "lng": 121.623784
  },
  {
    "title": "整租·万科翡翠公园一期 2室2厅 南",
    "community": "万科翡翠公园一期",
    "area": "86.74",
    "rooms": "2室2厅",
    "direction": "南",
    "floor": "",
    "price": "9000",
    "tags": "",
    "source": "",
    "url": "https://sh.lianjia.com/zufang/SH2154909365457387520.html",
    "rent_type": "整租",
    "scraped_at": "2026-04-22 16:50:20",
    "region": "zhangjiang",
    "unit_price": 103.8,
    "lat": 31.178104,
    "lng": 121.608303
  },
  {
    "title": "整租·中建朗阅府 5室3厅 复式 南",
    "community": "中建朗阅府",
    "area": "303.40",
    "rooms": "5室3厅",
    "direction": "",
    "floor": "",
    "price": "42000",
    "tags": "",
    "source": "",
    "url": "https://sh.lianjia.com/zufang/SH2155297421704298496.html",
    "rent_type": "整租",
    "scraped_at": "2026-04-22 16:50:20",
    "region": "zhangjiang",
    "unit_price": 138.4,
    "lat": 31.176649,
    "lng": 121.627105
  },
  {
    "title": "整租·圣宇豪庭 5室3厅 南",
    "community": "圣宇豪庭",
    "area": "308.00",
    "rooms": "5室3厅",
    "direction": "南",
    "floor": "",
    "price": "43000",
    "tags": "",
    "source": "",
    "url": "https://sh.lianjia.com/zufang/SH2155642919585841152.html",
    "rent_type": "整租",
    "scraped_at": "2026-04-22 16:50:20",
    "region": "zhangjiang",
    "unit_price": 139.6,
    "lat": 31.18413,
    "lng": 121.630896
  },
  {
    "title": "整租·申城佳苑一期A块 1室1厅 南",
    "community": "申城佳苑一期A块",
    "area": "60.00",
    "rooms": "1室1厅",
    "direction": "南",
    "floor": "",
    "price": "5200",
    "tags": "",
    "source": "",
    "url": "https://sh.lianjia.com/zufang/SH2156408301946929152.html",
    "rent_type": "整租",
    "scraped_at": "2026-04-22 16:50:20",
    "region": "zhangjiang",
    "unit_price": 86.7,
    "lat": 31.185542,
    "lng": 121.636445
  },
  {
    "title": "整租·日月光水岸花园(一期) 3室2厅 南",
    "community": "日月光水岸花园(一期)",
    "area": "144.00",
    "rooms": "3室2厅",
    "direction": "南",
    "floor": "",
    "price": "13500",
    "tags": "",
    "source": "",
    "url": "https://sh.lianjia.com/zufang/SH2129505246303485952.html",
    "rent_type": "整租",
    "scraped_at": "2026-04-22 16:50:20",
    "region": "zhangjiang",
    "unit_price": 93.8,
    "lat": 31.214414,
    "lng": 121.623717
  },
  {
    "title": "整租·中建朗阅府 3室2厅 南",
    "community": "中建朗阅府",
    "area": "100.80",
    "rooms": "3室2厅",
    "direction": "南",
    "floor": "",
    "price": "11000",
    "tags": "",
    "source": "",
    "url": "https://sh.lianjia.com/zufang/SH2133219313744609280.html",
    "rent_type": "整租",
    "scraped_at": "2026-04-22 16:50:20",
    "region": "zhangjiang",
    "unit_price": 109.1,
    "lat": 31.176649,
    "lng": 121.627105
  },
  {
    "title": "整租·张江汤臣豪园(三期) 1室1厅 南",
    "community": "张江汤臣豪园(三期)",
    "area": "61.00",
    "rooms": "1室1厅",
    "direction": "南",
    "floor": "",
    "price": "7500",
    "tags": "",
    "source": "",
    "url": "https://sh.lianjia.com/zufang/SH2137463843721314304.html",
    "rent_type": "整租",
    "scraped_at": "2026-04-22 16:50:20",
    "region": "zhangjiang",
    "unit_price": 123.0,
    "lat": 31.199283,
    "lng": 121.597612
  },
  {
    "title": "整租·东郊华庭 9室2厅 复式 南",
    "community": "东郊华庭",
    "area": "400.10",
    "rooms": "9室2厅",
    "direction": "",
    "floor": "",
    "price": "37000",
    "tags": "",
    "source": "",
    "url": "https://sh.lianjia.com/zufang/SH2153909632790167552.html",
    "rent_type": "整租",
    "scraped_at": "2026-04-22 16:50:20",
    "region": "zhangjiang",
    "unit_price": 92.5,
    "lat": 31.218018,
    "lng": 121.623611
  },
  {
    "title": "整租·春港丽园(公寓) 4室2厅 南",
    "community": "春港丽园(公寓)",
    "area": "116.00",
    "rooms": "4室2厅",
    "direction": "南",
    "floor": "",
    "price": "6800",
    "tags": "",
    "source": "",
    "url": "https://sh.lianjia.com/zufang/SH2151533368825610240.html",
    "rent_type": "整租",
    "scraped_at": "2026-04-22 16:50:20",
    "region": "zhangjiang",
    "unit_price": 58.6,
    "lat": 31.202239,
    "lng": 121.623576
  },
  {
    "title": "整租·东方别墅 5室2厅 南",
    "community": "东方别墅",
    "area": "244.52",
    "rooms": "5室2厅",
    "direction": "南",
    "floor": "",
    "price": "27000",
    "tags": "",
    "source": "",
    "url": "https://sh.lianjia.com/zufang/SH2113504001898053632.html",
    "rent_type": "整租",
    "scraped_at": "2026-04-22 16:50:20",
    "region": "zhangjiang",
    "unit_price": 110.4,
    "lat": 31.226243,
    "lng": 121.611487
  },
  {
    "title": "整租·汤臣豪园(二期) 4室2厅 复式 南",
    "community": "汤臣豪园(二期)",
    "area": "226.00",
    "rooms": "4室2厅",
    "direction": "",
    "floor": "",
    "price": "23000",
    "tags": "",
    "source": "",
    "url": "https://sh.lianjia.com/zufang/SH2154834659031121920.html",
    "rent_type": "整租",
    "scraped_at": "2026-04-22 16:50:20",
    "region": "zhangjiang",
    "unit_price": 101.8,
    "lat": 31.208639,
    "lng": 121.582621
  },
  {
    "title": "整租·川杨新苑(二期) 2室1厅 南",
    "community": "川杨新苑(二期)",
    "area": "58.83",
    "rooms": "2室1厅",
    "direction": "南",
    "floor": "",
    "price": "5000",
    "tags": "",
    "source": "",
    "url": "https://sh.lianjia.com/zufang/SH2151237345175666688.html",
    "rent_type": "整租",
    "scraped_at": "2026-04-22 16:50:20",
    "region": "zhangjiang",
    "unit_price": 85.0,
    "lat": 31.185655,
    "lng": 121.627256
  },
  {
    "title": "整租·张江三湘海尚 2室2厅 南/北",
    "community": "张江三湘海尚",
    "area": "86.81",
    "rooms": "2室2厅",
    "direction": "南/北",
    "floor": "",
    "price": "8800",
    "tags": "",
    "source": "",
    "url": "https://sh.lianjia.com/zufang/SH2145794044410724352.html",
    "rent_type": "整租",
    "scraped_at": "2026-04-22 16:50:20",
    "region": "zhangjiang",
    "unit_price": 101.4,
    "lat": 31.170797,
    "lng": 121.622538
  },
  {
    "title": "整租·日月光水岸花园(一期) 2室2厅 南",
    "community": "日月光水岸花园(一期)",
    "area": "110.00",
    "rooms": "2室2厅",
    "direction": "南",
    "floor": "",
    "price": "8500",
    "tags": "",
    "source": "",
    "url": "https://sh.lianjia.com/zufang/SH2116019281501093888.html",
    "rent_type": "整租",
    "scraped_at": "2026-04-22 16:50:28",
    "region": "zhangjiang",
    "unit_price": 77.3,
    "lat": 31.214414,
    "lng": 121.623717
  },
  {
    "title": "整租·绿地MTOWN 2室1厅 南/北",
    "community": "绿地MTOWN",
    "area": "36.81",
    "rooms": "2室1厅",
    "direction": "南/北",
    "floor": "",
    "price": "4300",
    "tags": "",
    "source": "",
    "url": "https://sh.lianjia.com/zufang/SH2153380226715877376.html",
    "rent_type": "整租",
    "scraped_at": "2026-04-22 16:50:20",
    "region": "zhangjiang",
    "unit_price": 116.8,
    "lat": 31.177201,
    "lng": 121.603781
  },
  {
    "title": "整租·张江汤臣豪园(四期) 2室2厅 南",
    "community": "张江汤臣豪园(四期)",
    "area": "90.26",
    "rooms": "2室2厅",
    "direction": "南",
    "floor": "",
    "price": "11800",
    "tags": "",
    "source": "",
    "url": "https://sh.lianjia.com/zufang/SH2137511520286801920.html",
    "rent_type": "整租",
    "scraped_at": "2026-04-22 16:50:28",
    "region": "zhangjiang",
    "unit_price": 130.7,
    "lat": 31.198209,
    "lng": 121.592123
  },
  {
    "title": "整租·张江汤臣豪园(二期) 2室2厅 南",
    "community": "张江汤臣豪园(二期)",
    "area": "94.15",
    "rooms": "2室2厅",
    "direction": "南",
    "floor": "",
    "price": "11000",
    "tags": "",
    "source": "",
    "url": "https://sh.lianjia.com/zufang/SH2143006628650156032.html",
    "rent_type": "整租",
    "scraped_at": "2026-04-22 16:50:28",
    "region": "zhangjiang",
    "unit_price": 116.8,
    "lat": 31.202498,
    "lng": 121.597512
  },
  {
    "title": "整租·玉兰香苑二期A块 2室1厅 南",
    "community": "玉兰香苑二期A块",
    "area": "55.57",
    "rooms": "2室1厅",
    "direction": "南",
    "floor": "",
    "price": "5300",
    "tags": "",
    "source": "",
    "url": "https://sh.lianjia.com/zufang/SH2149815658022436864.html",
    "rent_type": "整租",
    "scraped_at": "2026-04-22 16:50:28",
    "region": "zhangjiang",
    "unit_price": 95.4,
    "lat": 31.198439,
    "lng": 121.627318
  },
  {
    "title": "整租·汇智湖畔家园 2室1厅 南",
    "community": "汇智湖畔家园",
    "area": "74.00",
    "rooms": "2室1厅",
    "direction": "南",
    "floor": "",
    "price": "9000",
    "tags": "",
    "source": "",
    "url": "https://sh.lianjia.com/zufang/SH2137408205163069440.html",
    "rent_type": "整租",
    "scraped_at": "2026-04-22 16:50:28",
    "region": "zhangjiang",
    "unit_price": 121.6,
    "lat": 31.199759,
    "lng": 121.606217
  },
  {
    "title": "整租·张江汤臣豪园(三期) 3室2厅 南",
    "community": "张江汤臣豪园(三期)",
    "area": "88.05",
    "rooms": "3室2厅",
    "direction": "南",
    "floor": "",
    "price": "9300",
    "tags": "",
    "source": "",
    "url": "https://sh.lianjia.com/zufang/SH2142960574588256256.html",
    "rent_type": "整租",
    "scraped_at": "2026-04-22 16:50:57",
    "region": "zhangjiang",
    "unit_price": 105.6,
    "lat": 31.199283,
    "lng": 121.597612
  },
  {
    "title": "整租·盛大天地青春里2.0 2室1厅 南",
    "community": "盛大天地青春里2.0",
    "area": "45.00",
    "rooms": "2室1厅",
    "direction": "南",
    "floor": "",
    "price": "5000",
    "tags": "",
    "source": "",
    "url": "https://sh.lianjia.com/zufang/SH2155579869763731456.html",
    "rent_type": "整租",
    "scraped_at": "2026-04-22 16:50:28",
    "region": "zhangjiang",
    "unit_price": 111.1,
    "lat": 31.169751,
    "lng": 121.605652
  },
  {
    "title": "整租·玉兰香苑二期C块 3室2厅 南",
    "community": "玉兰香苑二期C块",
    "area": "118.00",
    "rooms": "3室2厅",
    "direction": "南",
    "floor": "",
    "price": "8300",
    "tags": "",
    "source": "",
    "url": "https://sh.lianjia.com/zufang/SH2141884219796750336.html",
    "rent_type": "整租",
    "scraped_at": "2026-04-22 16:50:28",
    "region": "zhangjiang",
    "unit_price": 70.3,
    "lat": 31.198439,
    "lng": 121.627318
  },
  {
    "title": "整租·玉兰香苑一期B块 3室2厅 南",
    "community": "玉兰香苑一期B块",
    "area": "114.50",
    "rooms": "3室2厅",
    "direction": "南",
    "floor": "",
    "price": "8500",
    "tags": "",
    "source": "",
    "url": "https://sh.lianjia.com/zufang/SH2151619353450119168.html",
    "rent_type": "整租",
    "scraped_at": "2026-04-22 16:50:50",
    "region": "zhangjiang",
    "unit_price": 74.2,
    "lat": 31.201049,
    "lng": 121.631989
  },
  {
    "title": "整租·汤臣豪庭 4室2厅 复式 南",
    "community": "汤臣豪庭",
    "area": "157.64",
    "rooms": "4室2厅",
    "direction": "",
    "floor": "",
    "price": "14000",
    "tags": "",
    "source": "",
    "url": "https://sh.lianjia.com/zufang/SH2068648874016243712.html",
    "rent_type": "整租",
    "scraped_at": "2026-04-22 16:50:50",
    "region": "zhangjiang",
    "unit_price": 88.8,
    "lat": 31.219466,
    "lng": 121.613806
  },
  {
    "title": "整租·张江汤臣豪园(四期) 2室2厅 南",
    "community": "张江汤臣豪园(四期)",
    "area": "105.00",
    "rooms": "2室2厅",
    "direction": "南",
    "floor": "",
    "price": "13800",
    "tags": "",
    "source": "",
    "url": "https://sh.lianjia.com/zufang/SH2146521766099419136.html",
    "rent_type": "整租",
    "scraped_at": "2026-04-22 16:50:57",
    "region": "zhangjiang",
    "unit_price": 131.4,
    "lat": 31.198209,
    "lng": 121.592123
  },
  {
    "title": "整租·香楠小区 3室1厅 南",
    "community": "香楠小区",
    "area": "92.03",
    "rooms": "3室1厅",
    "direction": "南",
    "floor": "",
    "price": "9000",
    "tags": "",
    "source": "",
    "url": "https://sh.lianjia.com/zufang/SH2153143412864319488.html",
    "rent_type": "整租",
    "scraped_at": "2026-04-22 16:50:28",
    "region": "zhangjiang",
    "unit_price": 97.8,
    "lat": 31.21652,
    "lng": 121.614476
  },
  {
    "title": "整租·杨镇新村 2室1厅 南",
    "community": "杨镇新村",
    "area": "71.62",
    "rooms": "2室1厅",
    "direction": "南",
    "floor": "",
    "price": "5800",
    "tags": "",
    "source": "",
    "url": "https://sh.lianjia.com/zufang/SH2141493816576704512.html",
    "rent_type": "整租",
    "scraped_at": "2026-04-22 16:50:28",
    "region": "zhangjiang",
    "unit_price": 81.0,
    "lat": 31.029188,
    "lng": 121.369623
  },
  {
    "title": "整租·日月光水岸花园(一期) 2室2厅 南",
    "community": "日月光水岸花园(一期)",
    "area": "87.57",
    "rooms": "2室2厅",
    "direction": "南",
    "floor": "",
    "price": "7700",
    "tags": "",
    "source": "",
    "url": "https://sh.lianjia.com/zufang/SH2105227536328818688.html",
    "rent_type": "整租",
    "scraped_at": "2026-04-22 16:50:28",
    "region": "zhangjiang",
    "unit_price": 87.9,
    "lat": 31.214414,
    "lng": 121.623717
  },
  {
    "title": "整租·日月光水岸花园(一期) 2室2厅 南",
    "community": "日月光水岸花园(一期)",
    "area": "87.57",
    "rooms": "2室2厅",
    "direction": "南",
    "floor": "",
    "price": "8300",
    "tags": "",
    "source": "",
    "url": "https://sh.lianjia.com/zufang/SH2137623393418084352.html",
    "rent_type": "整租",
    "scraped_at": "2026-04-22 16:50:28",
    "region": "zhangjiang",
    "unit_price": 94.8,
    "lat": 31.214414,
    "lng": 121.623717
  },
  {
    "title": "整租·万科翡翠公园五期 3室3厅 东南",
    "community": "万科翡翠公园五期",
    "area": "148.89",
    "rooms": "3室3厅",
    "direction": "东南",
    "floor": "",
    "price": "21000",
    "tags": "",
    "source": "",
    "url": "https://sh.lianjia.com/zufang/SH2155588429230899200.html",
    "rent_type": "整租",
    "scraped_at": "2026-04-22 16:50:50",
    "region": "zhangjiang",
    "unit_price": 141.0,
    "lat": 31.180249,
    "lng": 121.61266
  },
  {
    "title": "整租·玉兰香苑二期C块 2室1厅 南",
    "community": "玉兰香苑二期C块",
    "area": "60.00",
    "rooms": "2室1厅",
    "direction": "南",
    "floor": "",
    "price": "5500",
    "tags": "",
    "source": "",
    "url": "https://sh.lianjia.com/zufang/SH2155197806577451008.html",
    "rent_type": "整租",
    "scraped_at": "2026-04-22 16:50:28",
    "region": "zhangjiang",
    "unit_price": 91.7,
    "lat": 31.198439,
    "lng": 121.627318
  },
  {
    "title": "整租·圣宇豪庭 2室2厅 南",
    "community": "圣宇豪庭",
    "area": "119.00",
    "rooms": "2室2厅",
    "direction": "南",
    "floor": "",
    "price": "13000",
    "tags": "",
    "source": "",
    "url": "https://sh.lianjia.com/zufang/SH2145937069094993920.html",
    "rent_type": "整租",
    "scraped_at": "2026-04-22 16:50:50",
    "region": "zhangjiang",
    "unit_price": 109.2,
    "lat": 31.18413,
    "lng": 121.630896
  },
  {
    "title": "整租·万科翡翠公园六期 2室1厅 南",
    "community": "万科翡翠公园六期",
    "area": "84.73",
    "rooms": "2室1厅",
    "direction": "南",
    "floor": "",
    "price": "11000",
    "tags": "",
    "source": "",
    "url": "https://sh.lianjia.com/zufang/SH2156276399734784000.html",
    "rent_type": "整租",
    "scraped_at": "2026-04-22 16:50:28",
    "region": "zhangjiang",
    "unit_price": 129.8,
    "lat": 31.181301,
    "lng": 121.612192
  },
  {
    "title": "整租·中建御华园 3室2厅 南/北",
    "community": "中建御华园",
    "area": "100.18",
    "rooms": "3室2厅",
    "direction": "南/北",
    "floor": "",
    "price": "14000",
    "tags": "",
    "source": "",
    "url": "https://sh.lianjia.com/zufang/SH2076582654794268672.html",
    "rent_type": "整租",
    "scraped_at": "2026-04-22 16:50:57",
    "region": "zhangjiang",
    "unit_price": 139.7,
    "lat": 31.207382,
    "lng": 121.617018
  },
  {
    "title": "整租·汤臣豪园(二期) 4室2厅 复式 南",
    "community": "汤臣豪园(二期)",
    "area": "226.99",
    "rooms": "4室2厅",
    "direction": "",
    "floor": "",
    "price": "22000",
    "tags": "",
    "source": "",
    "url": "https://sh.lianjia.com/zufang/SH2096606769806573568.html",
    "rent_type": "整租",
    "scraped_at": "2026-04-22 16:50:28",
    "region": "zhangjiang",
    "unit_price": 96.9,
    "lat": 31.208639,
    "lng": 121.582621
  },
  {
    "title": "整租·张江汤臣豪园(三期) 2室1厅 南/北",
    "community": "张江汤臣豪园(三期)",
    "area": "88.00",
    "rooms": "2室1厅",
    "direction": "南/北",
    "floor": "",
    "price": "11500",
    "tags": "",
    "source": "",
    "url": "https://sh.lianjia.com/zufang/SH2147639717070372864.html",
    "rent_type": "整租",
    "scraped_at": "2026-04-22 16:50:28",
    "region": "zhangjiang",
    "unit_price": 130.7,
    "lat": 31.199283,
    "lng": 121.597612
  },
  {
    "title": "整租·绿地MTOWN 1室1厅 南",
    "community": "绿地MTOWN",
    "area": "40.22",
    "rooms": "1室1厅",
    "direction": "南",
    "floor": "",
    "price": "4500",
    "tags": "",
    "source": "",
    "url": "https://sh.lianjia.com/zufang/SH2155642345293348864.html",
    "rent_type": "整租",
    "scraped_at": "2026-04-22 16:50:28",
    "region": "zhangjiang",
    "unit_price": 111.9,
    "lat": 31.177201,
    "lng": 121.603781
  },
  {
    "title": "整租·绿地MTOWN 1室1厅 北",
    "community": "绿地MTOWN",
    "area": "36.00",
    "rooms": "1室1厅",
    "direction": "北",
    "floor": "",
    "price": "4400",
    "tags": "",
    "source": "",
    "url": "https://sh.lianjia.com/zufang/SH2130989853716774912.html",
    "rent_type": "整租",
    "scraped_at": "2026-04-22 16:50:28",
    "region": "zhangjiang",
    "unit_price": 122.2,
    "lat": 31.177201,
    "lng": 121.603781
  },
  {
    "title": "整租·城市经典四期高迪 1室1厅 南",
    "community": "城市经典四期高迪",
    "area": "63.92",
    "rooms": "1室1厅",
    "direction": "南",
    "floor": "",
    "price": "6500",
    "tags": "",
    "source": "",
    "url": "https://sh.lianjia.com/zufang/SH2151201437328080896.html",
    "rent_type": "整租",
    "scraped_at": "2026-04-22 16:50:28",
    "region": "zhangjiang",
    "unit_price": 101.7,
    "lat": 31.212907,
    "lng": 121.618681
  },
  {
    "title": "整租·中建朗阅府 3室2厅 南",
    "community": "中建朗阅府",
    "area": "89.00",
    "rooms": "3室2厅",
    "direction": "南",
    "floor": "",
    "price": "12500",
    "tags": "",
    "source": "",
    "url": "https://sh.lianjia.com/zufang/SH2149501087319588864.html",
    "rent_type": "整租",
    "scraped_at": "2026-04-22 16:50:28",
    "region": "zhangjiang",
    "unit_price": 140.4,
    "lat": 31.176649,
    "lng": 121.627105
  },
  {
    "title": "整租·春港丽园(公寓) 3室2厅 南",
    "community": "春港丽园(公寓)",
    "area": "123.01",
    "rooms": "3室2厅",
    "direction": "南",
    "floor": "",
    "price": "8000",
    "tags": "",
    "source": "",
    "url": "https://sh.lianjia.com/zufang/SH2150827561188327424.html",
    "rent_type": "整租",
    "scraped_at": "2026-04-22 16:50:50",
    "region": "zhangjiang",
    "unit_price": 65.0,
    "lat": 31.202239,
    "lng": 121.623576
  },
  {
    "title": "整租·张江汤臣豪园(二期) 3室2厅 南/北",
    "community": "张江汤臣豪园(二期)",
    "area": "123.00",
    "rooms": "3室2厅",
    "direction": "南/北",
    "floor": "",
    "price": "15000",
    "tags": "",
    "source": "",
    "url": "https://sh.lianjia.com/zufang/SH2153515408739532800.html",
    "rent_type": "整租",
    "scraped_at": "2026-04-22 16:50:28",
    "region": "zhangjiang",
    "unit_price": 122.0,
    "lat": 31.202498,
    "lng": 121.597512
  },
  {
    "title": "整租·华陇建中小区 2室1厅 南",
    "community": "华陇建中小区",
    "area": "65.10",
    "rooms": "2室1厅",
    "direction": "南",
    "floor": "",
    "price": "6600",
    "tags": "",
    "source": "",
    "url": "https://sh.lianjia.com/zufang/SH2141819821371686912.html",
    "rent_type": "整租",
    "scraped_at": "2026-04-22 16:50:28",
    "region": "zhangjiang",
    "unit_price": 101.4,
    "lat": 31.198965,
    "lng": 121.61088
  },
  {
    "title": "整租·华陇建中小区 1室1厅 南",
    "community": "华陇建中小区",
    "area": "40.00",
    "rooms": "1室1厅",
    "direction": "南",
    "floor": "",
    "price": "4800",
    "tags": "",
    "source": "",
    "url": "https://sh.lianjia.com/zufang/SH2157003454646583296.html",
    "rent_type": "整租",
    "scraped_at": "2026-04-22 16:50:28",
    "region": "zhangjiang",
    "unit_price": 120.0,
    "lat": 31.198965,
    "lng": 121.61088
  },
  {
    "title": "整租·玉兰香苑二期A块 2室1厅 南/北",
    "community": "玉兰香苑二期A块",
    "area": "60.00",
    "rooms": "2室1厅",
    "direction": "南/北",
    "floor": "",
    "price": "3900",
    "tags": "",
    "source": "",
    "url": "https://sh.lianjia.com/zufang/SH2065711125424504832.html",
    "rent_type": "整租",
    "scraped_at": "2026-04-22 16:50:44",
    "region": "zhangjiang",
    "unit_price": 65.0,
    "lat": 31.198439,
    "lng": 121.627318
  },
  {
    "title": "整租·盛大天地青春里2.0 2室1厅 南",
    "community": "盛大天地青春里2.0",
    "area": "60.52",
    "rooms": "2室1厅",
    "direction": "南",
    "floor": "",
    "price": "6500",
    "tags": "",
    "source": "",
    "url": "https://sh.lianjia.com/zufang/SH2131609347350855680.html",
    "rent_type": "整租",
    "scraped_at": "2026-04-22 16:50:44",
    "region": "zhangjiang",
    "unit_price": 107.4,
    "lat": 31.169751,
    "lng": 121.605652
  },
  {
    "title": "整租·城市经典(五期) 4室1厅 复式 南",
    "community": "城市经典(五期)",
    "area": "489.60",
    "rooms": "4室1厅",
    "direction": "",
    "floor": "",
    "price": "46000",
    "tags": "",
    "source": "",
    "url": "https://sh.lianjia.com/zufang/SH2066752824888262656.html",
    "rent_type": "整租",
    "scraped_at": "2026-04-22 16:50:44",
    "region": "zhangjiang",
    "unit_price": 94.0,
    "lat": 31.212888,
    "lng": 121.61652
  },
  {
    "title": "整租·宝地东郊四季 4室2厅 南/北",
    "community": "宝地东郊四季",
    "area": "243.00",
    "rooms": "4室2厅",
    "direction": "南/北",
    "floor": "",
    "price": "29000",
    "tags": "",
    "source": "",
    "url": "https://sh.lianjia.com/zufang/SH2007757611910299648.html",
    "rent_type": "整租",
    "scraped_at": "2026-04-22 16:50:44",
    "region": "zhangjiang",
    "unit_price": 119.3,
    "lat": 31.225427,
    "lng": 121.614465
  },
  {
    "title": "整租·东郊紫园 5室3厅 复式 南",
    "community": "东郊紫园",
    "area": "456.00",
    "rooms": "5室3厅",
    "direction": "",
    "floor": "",
    "price": "58800",
    "tags": "",
    "source": "",
    "url": "https://sh.lianjia.com/zufang/SH1991443717344460800.html",
    "rent_type": "整租",
    "scraped_at": "2026-04-22 16:50:44",
    "region": "zhangjiang",
    "unit_price": 128.9,
    "lat": 31.178775,
    "lng": 121.624074
  },
  {
    "title": "整租·万科翡翠公园（商用） 1室1厅 东",
    "community": "万科翡翠公园（商用）",
    "area": "45.00",
    "rooms": "1室1厅",
    "direction": "东",
    "floor": "",
    "price": "6500",
    "tags": "",
    "source": "",
    "url": "https://sh.lianjia.com/zufang/SH2142222280384577536.html",
    "rent_type": "整租",
    "scraped_at": "2026-04-22 16:50:44",
    "region": "zhangjiang",
    "unit_price": 144.4,
    "lat": 31.179762,
    "lng": 121.610562
  },
  {
    "title": "整租·张江汤臣豪园(三期) 1室1厅 南/北",
    "community": "张江汤臣豪园(三期)",
    "area": "61.23",
    "rooms": "1室1厅",
    "direction": "南/北",
    "floor": "",
    "price": "10000",
    "tags": "",
    "source": "",
    "url": "https://sh.lianjia.com/zufang/SH2139655151730819072.html",
    "rent_type": "整租",
    "scraped_at": "2026-04-22 16:50:44",
    "region": "zhangjiang",
    "unit_price": 163.3,
    "lat": 31.199283,
    "lng": 121.597612
  },
  {
    "title": "整租·张江汤臣豪园(四期) 2室1厅 南/北",
    "community": "张江汤臣豪园(四期)",
    "area": "91.09",
    "rooms": "2室1厅",
    "direction": "南/北",
    "floor": "",
    "price": "12500",
    "tags": "",
    "source": "",
    "url": "https://sh.lianjia.com/zufang/SH2153329540368171008.html",
    "rent_type": "整租",
    "scraped_at": "2026-04-22 16:50:44",
    "region": "zhangjiang",
    "unit_price": 137.2,
    "lat": 31.198209,
    "lng": 121.592123
  },
  {
    "title": "整租·杨镇新村 3室1厅 南",
    "community": "杨镇新村",
    "area": "105.65",
    "rooms": "3室1厅",
    "direction": "南",
    "floor": "",
    "price": "7500",
    "tags": "",
    "source": "",
    "url": "https://sh.lianjia.com/zufang/SH2157078202642595840.html",
    "rent_type": "整租",
    "scraped_at": "2026-04-22 16:50:44",
    "region": "zhangjiang",
    "unit_price": 71.0,
    "lat": 31.029188,
    "lng": 121.369623
  },
  {
    "title": "整租·科锦苑 3室1厅 南",
    "community": "科锦苑",
    "area": "80.00",
    "rooms": "3室1厅",
    "direction": "南",
    "floor": "",
    "price": "5800",
    "tags": "",
    "source": "",
    "url": "https://sh.lianjia.com/zufang/SH2157144543730860032.html",
    "rent_type": "整租",
    "scraped_at": "2026-04-22 16:50:44",
    "region": "zhangjiang",
    "unit_price": 72.5,
    "lat": 31.173612,
    "lng": 121.625676
  },
  {
    "title": "整租·绿地MTOWN 2室1厅 北",
    "community": "绿地MTOWN",
    "area": "40.00",
    "rooms": "2室1厅",
    "direction": "北",
    "floor": "",
    "price": "5000",
    "tags": "",
    "source": "",
    "url": "https://sh.lianjia.com/zufang/SH2140436024281530368.html",
    "rent_type": "整租",
    "scraped_at": "2026-04-22 16:50:44",
    "region": "zhangjiang",
    "unit_price": 125.0,
    "lat": 31.177201,
    "lng": 121.603781
  },
  {
    "title": "整租·万科翡翠公园（商用） 1室1厅 东",
    "community": "万科翡翠公园（商用）",
    "area": "45.00",
    "rooms": "1室1厅",
    "direction": "东",
    "floor": "",
    "price": "6000",
    "tags": "",
    "source": "",
    "url": "https://sh.lianjia.com/zufang/SH2140699688318271488.html",
    "rent_type": "整租",
    "scraped_at": "2026-04-22 16:50:44",
    "region": "zhangjiang",
    "unit_price": 133.3,
    "lat": 31.179762,
    "lng": 121.610562
  },
  {
    "title": "整租·玉兰香苑一期A块 3室2厅 南",
    "community": "玉兰香苑一期A块",
    "area": "115.00",
    "rooms": "3室2厅",
    "direction": "南",
    "floor": "",
    "price": "7300",
    "tags": "",
    "source": "",
    "url": "https://sh.lianjia.com/zufang/SH2146115069434396672.html",
    "rent_type": "整租",
    "scraped_at": "2026-04-22 16:50:44",
    "region": "zhangjiang",
    "unit_price": 63.5,
    "lat": 31.201049,
    "lng": 121.631989
  },
  {
    "title": "整租·盛大天地青春里2.0 2室2厅 跃层 东南",
    "community": "盛大天地青春里2.0",
    "area": "45.00",
    "rooms": "2室2厅",
    "direction": "",
    "floor": "",
    "price": "5500",
    "tags": "",
    "source": "",
    "url": "https://sh.lianjia.com/zufang/SH2149837773756956672.html",
    "rent_type": "整租",
    "scraped_at": "2026-04-22 16:50:44",
    "region": "zhangjiang",
    "unit_price": 122.2,
    "lat": 31.169751,
    "lng": 121.605652
  },
  {
    "title": "整租·申城佳苑一期A块 3室2厅 东/西",
    "community": "申城佳苑一期A块",
    "area": "114.00",
    "rooms": "3室2厅",
    "direction": "东/西",
    "floor": "",
    "price": "7600",
    "tags": "",
    "source": "",
    "url": "https://sh.lianjia.com/zufang/SH2152232874776985600.html",
    "rent_type": "整租",
    "scraped_at": "2026-04-22 16:50:44",
    "region": "zhangjiang",
    "unit_price": 66.7,
    "lat": 31.185542,
    "lng": 121.636445
  },
  {
    "title": "整租·展想悦廷 1室1厅 东",
    "community": "展想悦廷",
    "area": "57.40",
    "rooms": "1室1厅",
    "direction": "东",
    "floor": "",
    "price": "5300",
    "tags": "",
    "source": "",
    "url": "https://sh.lianjia.com/zufang/SH2152733284839194624.html",
    "rent_type": "整租",
    "scraped_at": "2026-04-22 16:50:44",
    "region": "zhangjiang",
    "unit_price": 92.3,
    "lat": 31.210723,
    "lng": 121.626563
  },
  {
    "title": "整租·万科翡翠公园（商用） 2室1厅 西",
    "community": "万科翡翠公园（商用）",
    "area": "65.59",
    "rooms": "2室1厅",
    "direction": "西",
    "floor": "",
    "price": "6200",
    "tags": "",
    "source": "",
    "url": "https://sh.lianjia.com/zufang/SH2149417166569472000.html",
    "rent_type": "整租",
    "scraped_at": "2026-04-22 16:50:44",
    "region": "zhangjiang",
    "unit_price": 94.5,
    "lat": 31.179762,
    "lng": 121.610562
  },
  {
    "title": "整租·玉兰香苑二期A块 1室1厅 南",
    "community": "玉兰香苑二期A块",
    "area": "57.42",
    "rooms": "1室1厅",
    "direction": "南",
    "floor": "",
    "price": "5500",
    "tags": "",
    "source": "",
    "url": "https://sh.lianjia.com/zufang/SH2153724853637611520.html",
    "rent_type": "整租",
    "scraped_at": "2026-04-22 16:50:44",
    "region": "zhangjiang",
    "unit_price": 95.8,
    "lat": 31.198439,
    "lng": 121.627318
  },
  {
    "title": "整租·华陇建中小区 2室1厅 南",
    "community": "华陇建中小区",
    "area": "64.17",
    "rooms": "2室1厅",
    "direction": "南",
    "floor": "",
    "price": "6000",
    "tags": "",
    "source": "",
    "url": "https://sh.lianjia.com/zufang/SH2154981507859480576.html",
    "rent_type": "整租",
    "scraped_at": "2026-04-22 16:50:44",
    "region": "zhangjiang",
    "unit_price": 93.5,
    "lat": 31.198965,
    "lng": 121.61088
  },
  {
    "title": "整租·川杨新苑(二期) 3室1厅 南",
    "community": "川杨新苑(二期)",
    "area": "93.00",
    "rooms": "3室1厅",
    "direction": "南",
    "floor": "",
    "price": "5800",
    "tags": "",
    "source": "",
    "url": "https://sh.lianjia.com/zufang/SH2155145488515465216.html",
    "rent_type": "整租",
    "scraped_at": "2026-04-22 16:50:44",
    "region": "zhangjiang",
    "unit_price": 62.4,
    "lat": 31.185655,
    "lng": 121.627256
  },
  {
    "title": "整租·绿地MTOWN 1室1厅 南",
    "community": "绿地MTOWN",
    "area": "40.00",
    "rooms": "1室1厅",
    "direction": "南",
    "floor": "",
    "price": "5000",
    "tags": "",
    "source": "",
    "url": "https://sh.lianjia.com/zufang/SH2155885230815182848.html",
    "rent_type": "整租",
    "scraped_at": "2026-04-22 16:50:44",
    "region": "zhangjiang",
    "unit_price": 125.0,
    "lat": 31.177201,
    "lng": 121.603781
  },
  {
    "title": "整租·盛大天地青春里2.0 2室2厅 北",
    "community": "盛大天地青春里2.0",
    "area": "45.00",
    "rooms": "2室2厅",
    "direction": "北",
    "floor": "",
    "price": "4500",
    "tags": "",
    "source": "",
    "url": "https://sh.lianjia.com/zufang/SH2155913521181753344.html",
    "rent_type": "整租",
    "scraped_at": "2026-04-22 16:50:44",
    "region": "zhangjiang",
    "unit_price": 100.0,
    "lat": 31.169751,
    "lng": 121.605652
  },
  {
    "title": "整租·盛大天地青春里2.0 1室0厅 东",
    "community": "盛大天地青春里2.0",
    "area": "46.00",
    "rooms": "1室0厅",
    "direction": "东",
    "floor": "",
    "price": "4300",
    "tags": "",
    "source": "",
    "url": "https://sh.lianjia.com/zufang/SH2155941964216795136.html",
    "rent_type": "整租",
    "scraped_at": "2026-04-22 16:50:44",
    "region": "zhangjiang",
    "unit_price": 93.5,
    "lat": 31.169751,
    "lng": 121.605652
  },
  {
    "title": "整租·张江汤臣豪园(四期) 2室2厅 南",
    "community": "张江汤臣豪园(四期)",
    "area": "90.88",
    "rooms": "2室2厅",
    "direction": "南",
    "floor": "",
    "price": "11000",
    "tags": "",
    "source": "",
    "url": "https://sh.lianjia.com/zufang/SH2155967879181238272.html",
    "rent_type": "整租",
    "scraped_at": "2026-04-22 16:50:44",
    "region": "zhangjiang",
    "unit_price": 121.0,
    "lat": 31.198209,
    "lng": 121.592123
  },
  {
    "title": "整租·科锦苑 3室2厅 南/北",
    "community": "科锦苑",
    "area": "100.00",
    "rooms": "3室2厅",
    "direction": "南/北",
    "floor": "",
    "price": "7800",
    "tags": "",
    "source": "",
    "url": "https://sh.lianjia.com/zufang/SH2156027898119585792.html",
    "rent_type": "整租",
    "scraped_at": "2026-04-22 16:50:44",
    "region": "zhangjiang",
    "unit_price": 78.0,
    "lat": 31.173612,
    "lng": 121.625676
  },
  {
    "title": "整租·史丹福花园 5室3厅 南",
    "community": "史丹福花园",
    "area": "565.00",
    "rooms": "5室3厅",
    "direction": "南",
    "floor": "",
    "price": "100000",
    "tags": "",
    "source": "",
    "url": "https://sh.lianjia.com/zufang/SH2125829692379365376.html",
    "rent_type": "整租",
    "scraped_at": "2026-04-22 16:50:44",
    "region": "zhangjiang",
    "unit_price": 177.0,
    "lat": 31.13559,
    "lng": 121.403629
  },
  {
    "title": "整租·申城佳苑一期B块 2室1厅 南",
    "community": "申城佳苑一期B块",
    "area": "87.00",
    "rooms": "2室1厅",
    "direction": "南",
    "floor": "",
    "price": "6500",
    "tags": "",
    "source": "",
    "url": "https://sh.lianjia.com/zufang/SH2128761297238491136.html",
    "rent_type": "整租",
    "scraped_at": "2026-04-22 16:50:44",
    "region": "zhangjiang",
    "unit_price": 74.7,
    "lat": 31.185542,
    "lng": 121.636445
  },
  {
    "title": "整租·汤臣豪庭 4室2厅 南",
    "community": "汤臣豪庭",
    "area": "191.78",
    "rooms": "4室2厅",
    "direction": "南",
    "floor": "",
    "price": "17000",
    "tags": "",
    "source": "",
    "url": "https://sh.lianjia.com/zufang/SH2128412421323227136.html",
    "rent_type": "整租",
    "scraped_at": "2026-04-22 16:50:44",
    "region": "zhangjiang",
    "unit_price": 88.6,
    "lat": 31.219466,
    "lng": 121.613806
  },
  {
    "title": "整租·华发四季 3室2厅 南",
    "community": "华发四季",
    "area": "117.00",
    "rooms": "3室2厅",
    "direction": "南",
    "floor": "",
    "price": "11000",
    "tags": "",
    "source": "",
    "url": "https://sh.lianjia.com/zufang/SH2137795007698960384.html",
    "rent_type": "整租",
    "scraped_at": "2026-04-22 16:50:44",
    "region": "zhangjiang",
    "unit_price": 94.0,
    "lat": 31.172771,
    "lng": 121.623048
  },
  {
    "title": "整租·城市经典二期(公寓) 4室2厅 南/北",
    "community": "城市经典二期(公寓)",
    "area": "200.00",
    "rooms": "4室2厅",
    "direction": "南/北",
    "floor": "",
    "price": "18000",
    "tags": "",
    "source": "",
    "url": "https://sh.lianjia.com/zufang/SH2138611384970117120.html",
    "rent_type": "整租",
    "scraped_at": "2026-04-22 16:50:44",
    "region": "zhangjiang",
    "unit_price": 90.0,
    "lat": 31.212888,
    "lng": 121.61652
  },
  {
    "title": "整租·盛大天地青春里(一期) 1室1厅 北",
    "community": "盛大天地青春里(一期)",
    "area": "53.00",
    "rooms": "1室1厅",
    "direction": "北",
    "floor": "",
    "price": "4200",
    "tags": "",
    "source": "",
    "url": "https://sh.lianjia.com/zufang/SH2144378506048438272.html",
    "rent_type": "整租",
    "scraped_at": "2026-04-22 16:50:50",
    "region": "zhangjiang",
    "unit_price": 79.2,
    "lat": 31.170677,
    "lng": 121.605855
  },
  {
    "title": "独栋·集贤天地人才公寓 旗舰店 张江科创园区朝南一室户，民用水电，拎包入住优惠多多D 1室1厅",
    "community": "集贤天地人才公寓 旗舰店 张江科创园区朝南一室户，民用水电，拎包入住优惠多多D",
    "area": "45.00",
    "rooms": "1室1厅",
    "direction": "",
    "floor": "",
    "price": "5200",
    "tags": "",
    "source": "",
    "url": "https://sh.lianjia.com/apartment/85222.html",
    "rent_type": "独栋",
    "scraped_at": "2026-04-22 16:50:50",
    "region": "zhangjiang",
    "unit_price": 115.6,
    "lat": 31.208796,
    "lng": 121.629595
  },
  {
    "title": "独栋·顶夫公寓 孙桥路店 13号线直达市中心 近地铁 实拍独立厨卫 开间",
    "community": "顶夫公寓 孙桥路店 13号线直达市中心 近地铁 实拍独立厨卫 开间",
    "area": "25.00",
    "rooms": "",
    "direction": "",
    "floor": "",
    "price": "3300",
    "tags": "",
    "source": "",
    "url": "https://sh.lianjia.com/apartment/106602.html",
    "rent_type": "独栋",
    "scraped_at": "2026-04-22 16:51:05",
    "region": "zhangjiang",
    "unit_price": 132.0,
    "lat": 31.230525,
    "lng": 121.473667
  },
  {
    "title": "整租·香楠小区 1室1厅 南",
    "community": "香楠小区",
    "area": "45.87",
    "rooms": "1室1厅",
    "direction": "南",
    "floor": "",
    "price": "4400",
    "tags": "",
    "source": "",
    "url": "https://sh.lianjia.com/zufang/SH2148443926296526848.html",
    "rent_type": "整租",
    "scraped_at": "2026-04-22 16:50:50",
    "region": "zhangjiang",
    "unit_price": 95.9,
    "lat": 31.21652,
    "lng": 121.614476
  },
  {
    "title": "整租·杨镇新村 2室1厅 南",
    "community": "杨镇新村",
    "area": "71.62",
    "rooms": "2室1厅",
    "direction": "南",
    "floor": "",
    "price": "5000",
    "tags": "",
    "source": "",
    "url": "https://sh.lianjia.com/zufang/SH2153441398014083072.html",
    "rent_type": "整租",
    "scraped_at": "2026-04-22 16:50:50",
    "region": "zhangjiang",
    "unit_price": 69.8,
    "lat": 31.029188,
    "lng": 121.369623
  },
  {
    "title": "整租·古桐六村 2室2厅 南",
    "community": "古桐六村",
    "area": "95.00",
    "rooms": "2室2厅",
    "direction": "南",
    "floor": "",
    "price": "8500",
    "tags": "",
    "source": "",
    "url": "https://sh.lianjia.com/zufang/SH2146864679786381312.html",
    "rent_type": "整租",
    "scraped_at": "2026-04-22 16:50:50",
    "region": "zhangjiang",
    "unit_price": 89.5,
    "lat": 31.201266,
    "lng": 121.610465
  },
  {
    "title": "整租·日月光水岸花园（二期） 3室2厅 南",
    "community": "日月光水岸花园（二期）",
    "area": "141.74",
    "rooms": "3室2厅",
    "direction": "南",
    "floor": "",
    "price": "11000",
    "tags": "",
    "source": "",
    "url": "https://sh.lianjia.com/zufang/SH2141426069662597120.html",
    "rent_type": "整租",
    "scraped_at": "2026-04-22 16:50:50",
    "region": "zhangjiang",
    "unit_price": 77.6,
    "lat": 31.214476,
    "lng": 121.622049
  },
  {
    "title": "独栋·baseLITE 张江店 全景落地窗阳台，租期灵活，超大储物空间 1室1厅",
    "community": "baseLITE 张江店 全景落地窗阳台，租期灵活，超大储物空间",
    "area": "67.00",
    "rooms": "1室1厅",
    "direction": "",
    "floor": "",
    "price": "7000",
    "tags": "",
    "source": "",
    "url": "https://sh.lianjia.com/apartment/29634.html",
    "rent_type": "独栋",
    "scraped_at": "2026-04-22 16:50:50",
    "region": "zhangjiang",
    "unit_price": 104.5,
    "lat": 31.143434,
    "lng": 121.446419
  },
  {
    "title": "独栋·纳仕 张江在线右里2 24H安全保障，宜家绿色家具，民水民电，燃气做饭 1室1厅",
    "community": "纳仕 张江在线右里2 24H安全保障，宜家绿色家具，民水民电，燃气做饭",
    "area": "55.00",
    "rooms": "1室1厅",
    "direction": "",
    "floor": "",
    "price": "5171-5227",
    "tags": "",
    "source": "",
    "url": "https://sh.lianjia.com/apartment/101080.html",
    "rent_type": "独栋",
    "scraped_at": "2026-04-22 16:51:05",
    "region": "zhangjiang",
    "unit_price": "",
    "lat": 31.205606,
    "lng": 121.459202
  },
  {
    "title": "整租·张江汤臣豪园(二期) 3室2厅 南",
    "community": "张江汤臣豪园(二期)",
    "area": "123.20",
    "rooms": "3室2厅",
    "direction": "南",
    "floor": "",
    "price": "13000",
    "tags": "",
    "source": "",
    "url": "https://sh.lianjia.com/zufang/SH2148423754630299648.html",
    "rent_type": "整租",
    "scraped_at": "2026-04-22 16:50:50",
    "region": "zhangjiang",
    "unit_price": 105.5,
    "lat": 31.202498,
    "lng": 121.597512
  },
  {
    "title": "整租·万科翡翠公园六期 3室2厅 南",
    "community": "万科翡翠公园六期",
    "area": "94.67",
    "rooms": "3室2厅",
    "direction": "南",
    "floor": "",
    "price": "12800",
    "tags": "",
    "source": "",
    "url": "https://sh.lianjia.com/zufang/SH2098315154268618752.html",
    "rent_type": "整租",
    "scraped_at": "2026-04-22 16:50:50",
    "region": "zhangjiang",
    "unit_price": 135.2,
    "lat": 31.181301,
    "lng": 121.612192
  },
  {
    "title": "整租·城市经典(三期) 3室2厅 复式 南",
    "community": "城市经典(三期)",
    "area": "412.05",
    "rooms": "3室2厅",
    "direction": "",
    "floor": "",
    "price": "32000",
    "tags": "",
    "source": "",
    "url": "https://sh.lianjia.com/zufang/SH2125162469444812800.html",
    "rent_type": "整租",
    "scraped_at": "2026-04-22 16:50:50",
    "region": "zhangjiang",
    "unit_price": 77.7,
    "lat": 31.212888,
    "lng": 121.61652
  },
  {
    "title": "整租·张江汤臣豪园(三期) 2室2厅 南/北",
    "community": "张江汤臣豪园(三期)",
    "area": "87.32",
    "rooms": "2室2厅",
    "direction": "南/北",
    "floor": "",
    "price": "11500",
    "tags": "",
    "source": "",
    "url": "https://sh.lianjia.com/zufang/SH2130166440387411968.html",
    "rent_type": "整租",
    "scraped_at": "2026-04-22 16:50:50",
    "region": "zhangjiang",
    "unit_price": 131.7,
    "lat": 31.199283,
    "lng": 121.597612
  },
  {
    "title": "整租·张江汤臣豪园(二期) 2室2厅 南",
    "community": "张江汤臣豪园(二期)",
    "area": "107.26",
    "rooms": "2室2厅",
    "direction": "南",
    "floor": "",
    "price": "11500",
    "tags": "",
    "source": "",
    "url": "https://sh.lianjia.com/zufang/SH2154573780939177984.html",
    "rent_type": "整租",
    "scraped_at": "2026-04-22 16:50:50",
    "region": "zhangjiang",
    "unit_price": 107.2,
    "lat": 31.202498,
    "lng": 121.597512
  },
  {
    "title": "整租·孙建路四八0弄 1室2厅 南",
    "community": "孙建路四八0弄",
    "area": "44.00",
    "rooms": "1室2厅",
    "direction": "南",
    "floor": "",
    "price": "4800",
    "tags": "",
    "source": "",
    "url": "https://sh.lianjia.com/zufang/SH2157345619000164352.html",
    "rent_type": "整租",
    "scraped_at": "2026-04-22 16:50:50",
    "region": "zhangjiang",
    "unit_price": 109.1,
    "lat": 31.180817,
    "lng": 121.634991
  },
  {
    "title": "整租·香楠小区 2室1厅 南",
    "community": "香楠小区",
    "area": "51.86",
    "rooms": "2室1厅",
    "direction": "南",
    "floor": "",
    "price": "5490",
    "tags": "",
    "source": "",
    "url": "https://sh.lianjia.com/zufang/SH2149953228643500032.html",
    "rent_type": "整租",
    "scraped_at": "2026-04-22 16:50:50",
    "region": "zhangjiang",
    "unit_price": 105.9,
    "lat": 31.21652,
    "lng": 121.614476
  },
  {
    "title": "整租·城市经典四期高迪 3室2厅 南",
    "community": "城市经典四期高迪",
    "area": "139.00",
    "rooms": "3室2厅",
    "direction": "南",
    "floor": "",
    "price": "14000",
    "tags": "",
    "source": "",
    "url": "https://sh.lianjia.com/zufang/SH2153445039898886144.html",
    "rent_type": "整租",
    "scraped_at": "2026-04-22 16:50:50",
    "region": "zhangjiang",
    "unit_price": 100.7,
    "lat": 31.212907,
    "lng": 121.618681
  },
  {
    "title": "整租·汤臣豪庭 4室2厅 复式 南",
    "community": "汤臣豪庭",
    "area": "160.63",
    "rooms": "4室2厅",
    "direction": "",
    "floor": "",
    "price": "15000",
    "tags": "",
    "source": "",
    "url": "https://sh.lianjia.com/zufang/SH2157136438867525632.html",
    "rent_type": "整租",
    "scraped_at": "2026-04-22 16:50:50",
    "region": "zhangjiang",
    "unit_price": 93.4,
    "lat": 31.219466,
    "lng": 121.613806
  },
  {
    "title": "独栋·杨镇公寓 杨镇公寓 张江国企直租 电梯房 专业团队贴身服务 2室南北通透近金科路周边配套全 2室1厅",
    "community": "杨镇公寓 杨镇公寓 张江国企直租 电梯房 专业团队贴身服务 2室南北通透近金科路周边配套全",
    "area": "72.00",
    "rooms": "2室1厅",
    "direction": "",
    "floor": "",
    "price": "4950-5500",
    "tags": "",
    "source": "",
    "url": "https://sh.lianjia.com/apartment/73043.html",
    "rent_type": "独栋",
    "scraped_at": "2026-04-22 16:50:50",
    "region": "zhangjiang",
    "unit_price": "",
    "lat": 31.217775,
    "lng": 121.593523
  },
  {
    "title": "整租·虹御公寓 3室2厅 南",
    "community": "虹御公寓",
    "area": "114.85",
    "rooms": "3室2厅",
    "direction": "南",
    "floor": "",
    "price": "8100",
    "tags": "",
    "source": "",
    "url": "https://sh.lianjia.com/zufang/SH2118909658302251008.html",
    "rent_type": "整租",
    "scraped_at": "2026-04-22 16:50:50",
    "region": "zhangjiang",
    "unit_price": 70.5,
    "lat": 31.187024,
    "lng": 121.628373
  },
  {
    "title": "整租·汤臣高尔夫(公寓) 3室2厅 西南",
    "community": "汤臣高尔夫(公寓)",
    "area": "188.85",
    "rooms": "3室2厅",
    "direction": "西南",
    "floor": "",
    "price": "22000",
    "tags": "",
    "source": "",
    "url": "https://sh.lianjia.com/zufang/SH2021808051232702464.html",
    "rent_type": "整租",
    "scraped_at": "2026-04-22 16:50:50",
    "region": "zhangjiang",
    "unit_price": 116.5,
    "lat": 31.218904,
    "lng": 121.582034
  },
  {
    "title": "整租·万科翡翠公园六期 3室2厅 南",
    "community": "万科翡翠公园六期",
    "area": "94.75",
    "rooms": "3室2厅",
    "direction": "南",
    "floor": "",
    "price": "13000",
    "tags": "",
    "source": "",
    "url": "https://sh.lianjia.com/zufang/SH2155881402019610624.html",
    "rent_type": "整租",
    "scraped_at": "2026-04-22 16:50:57",
    "region": "zhangjiang",
    "unit_price": 137.2,
    "lat": 31.181301,
    "lng": 121.612192
  },
  {
    "title": "独栋·纳仕 张江在线右里3 宠物友好，南北通透，家具家电齐全，拎包入住 1室1厅",
    "community": "纳仕 张江在线右里3 宠物友好，南北通透，家具家电齐全，拎包入住",
    "area": "55.00",
    "rooms": "1室1厅",
    "direction": "",
    "floor": "",
    "price": "5116-5199",
    "tags": "",
    "source": "",
    "url": "https://sh.lianjia.com/apartment/101073.html",
    "rent_type": "独栋",
    "scraped_at": "2026-04-22 16:50:57",
    "region": "zhangjiang",
    "unit_price": "",
    "lat": null,
    "lng": null
  },
  {
    "title": "整租·张江汤臣豪园(二期) 2室1厅 南",
    "community": "张江汤臣豪园(二期)",
    "area": "94.15",
    "rooms": "2室1厅",
    "direction": "南",
    "floor": "",
    "price": "8700",
    "tags": "",
    "source": "",
    "url": "https://sh.lianjia.com/zufang/SH2154886447876800512.html",
    "rent_type": "整租",
    "scraped_at": "2026-04-22 16:50:57",
    "region": "zhangjiang",
    "unit_price": 92.4,
    "lat": 31.202498,
    "lng": 121.597512
  },
  {
    "title": "独栋·纳仕 张江在线右里6 张江在线右里 全新宜家家具 南北通透 民用水电 可办理居住证 1室1厅",
    "community": "纳仕 张江在线右里6 张江在线右里 全新宜家家具 南北通透 民用水电 可办理居住证",
    "area": "55.00",
    "rooms": "1室1厅",
    "direction": "",
    "floor": "",
    "price": "5448",
    "tags": "",
    "source": "",
    "url": "https://sh.lianjia.com/apartment/101067.html",
    "rent_type": "独栋",
    "scraped_at": "2026-04-22 16:51:05",
    "region": "zhangjiang",
    "unit_price": 99.1,
    "lat": null,
    "lng": null
  },
  {
    "title": "整租·张江汤臣豪园(二期) 2室1厅 复式 南/北",
    "community": "张江汤臣豪园(二期)",
    "area": "74.94",
    "rooms": "2室1厅",
    "direction": "",
    "floor": "",
    "price": "8700",
    "tags": "",
    "source": "",
    "url": "https://sh.lianjia.com/zufang/SH2152270528222593024.html",
    "rent_type": "整租",
    "scraped_at": "2026-04-22 16:50:57",
    "region": "zhangjiang",
    "unit_price": 116.1,
    "lat": 31.202498,
    "lng": 121.597512
  },
  {
    "title": "整租·张江汤臣豪园(四期) 1室1厅 南",
    "community": "张江汤臣豪园(四期)",
    "area": "74.19",
    "rooms": "1室1厅",
    "direction": "南",
    "floor": "",
    "price": "9300",
    "tags": "",
    "source": "",
    "url": "https://sh.lianjia.com/zufang/SH2131343869499932672.html",
    "rent_type": "整租",
    "scraped_at": "2026-04-22 16:50:57",
    "region": "zhangjiang",
    "unit_price": 125.4,
    "lat": 31.198209,
    "lng": 121.592123
  },
  {
    "title": "整租·万科翡翠公园六期 4室2厅 南",
    "community": "万科翡翠公园六期",
    "area": "104.90",
    "rooms": "4室2厅",
    "direction": "南",
    "floor": "",
    "price": "14500",
    "tags": "",
    "source": "",
    "url": "https://sh.lianjia.com/zufang/SH2153884279594024960.html",
    "rent_type": "整租",
    "scraped_at": "2026-04-22 16:50:57",
    "region": "zhangjiang",
    "unit_price": 138.2,
    "lat": 31.181301,
    "lng": 121.612192
  },
  {
    "title": "整租·中建御华园 4室2厅 南",
    "community": "中建御华园",
    "area": "230.00",
    "rooms": "4室2厅",
    "direction": "南",
    "floor": "",
    "price": "35000",
    "tags": "",
    "source": "",
    "url": "https://sh.lianjia.com/zufang/SH2137902594897477632.html",
    "rent_type": "整租",
    "scraped_at": "2026-04-22 16:50:57",
    "region": "zhangjiang",
    "unit_price": 152.2,
    "lat": 31.207382,
    "lng": 121.617018
  },
  {
    "title": "整租·张江汤臣豪园(三期) 1室2厅 南",
    "community": "张江汤臣豪园(三期)",
    "area": "61.32",
    "rooms": "1室2厅",
    "direction": "南",
    "floor": "",
    "price": "8300",
    "tags": "",
    "source": "",
    "url": "https://sh.lianjia.com/zufang/SH2157377251459465216.html",
    "rent_type": "整租",
    "scraped_at": "2026-04-22 16:50:57",
    "region": "zhangjiang",
    "unit_price": 135.4,
    "lat": 31.199283,
    "lng": 121.597612
  },
  {
    "title": "整租·张江汤臣豪园(三期) 4室2厅 南/北",
    "community": "张江汤臣豪园(三期)",
    "area": "168.00",
    "rooms": "4室2厅",
    "direction": "南/北",
    "floor": "",
    "price": "25000",
    "tags": "",
    "source": "",
    "url": "https://sh.lianjia.com/zufang/SH2139281213372760064.html",
    "rent_type": "整租",
    "scraped_at": "2026-04-22 16:50:57",
    "region": "zhangjiang",
    "unit_price": 148.8,
    "lat": 31.199283,
    "lng": 121.597612
  },
  {
    "title": "整租·黄浦花园 2室2厅 南",
    "community": "黄浦花园",
    "area": "70.00",
    "rooms": "2室2厅",
    "direction": "南",
    "floor": "",
    "price": "5800",
    "tags": "",
    "source": "",
    "url": "https://sh.lianjia.com/zufang/SH2157009915342749696.html",
    "rent_type": "整租",
    "scraped_at": "2026-04-22 16:50:57",
    "region": "zhangjiang",
    "unit_price": 82.9,
    "lat": 31.219451,
    "lng": 121.448417
  },
  {
    "title": "整租·万科翡翠公园三期 4室2厅 南",
    "community": "万科翡翠公园三期",
    "area": "211.30",
    "rooms": "4室2厅",
    "direction": "南",
    "floor": "",
    "price": "20000",
    "tags": "",
    "source": "",
    "url": "https://sh.lianjia.com/zufang/SH2146820704148914176.html",
    "rent_type": "整租",
    "scraped_at": "2026-04-22 16:50:57",
    "region": "zhangjiang",
    "unit_price": 94.7,
    "lat": 31.180094,
    "lng": 121.610047
  },
  {
    "title": "整租·盛大天地青春里2.0 2室1厅 南",
    "community": "盛大天地青春里2.0",
    "area": "45.97",
    "rooms": "2室1厅",
    "direction": "南",
    "floor": "",
    "price": "4500",
    "tags": "",
    "source": "",
    "url": "https://sh.lianjia.com/zufang/SH2157494182669713408.html",
    "rent_type": "整租",
    "scraped_at": "2026-04-22 16:50:57",
    "region": "zhangjiang",
    "unit_price": 97.9,
    "lat": 31.169751,
    "lng": 121.605652
  },
  {
    "title": "整租·孙桥公寓 3室2厅 南/北",
    "community": "孙桥公寓",
    "area": "120.00",
    "rooms": "3室2厅",
    "direction": "南/北",
    "floor": "",
    "price": "9000",
    "tags": "",
    "source": "",
    "url": "https://sh.lianjia.com/zufang/SH2141201250388017152.html",
    "rent_type": "整租",
    "scraped_at": "2026-04-22 16:50:57",
    "region": "zhangjiang",
    "unit_price": 75.0,
    "lat": null,
    "lng": null
  },
  {
    "title": "整租·绿地MTOWN 1室1厅 南",
    "community": "绿地MTOWN",
    "area": "37.36",
    "rooms": "1室1厅",
    "direction": "南",
    "floor": "",
    "price": "5000",
    "tags": "",
    "source": "",
    "url": "https://sh.lianjia.com/zufang/SH2155895560492548096.html",
    "rent_type": "整租",
    "scraped_at": "2026-04-22 16:50:57",
    "region": "zhangjiang",
    "unit_price": 133.8,
    "lat": 31.177201,
    "lng": 121.603781
  },
  {
    "title": "整租·展想悦廷 1室2厅 南",
    "community": "展想悦廷",
    "area": "105.43",
    "rooms": "1室2厅",
    "direction": "南",
    "floor": "",
    "price": "7500",
    "tags": "",
    "source": "",
    "url": "https://sh.lianjia.com/zufang/SH2111797313142784000.html",
    "rent_type": "整租",
    "scraped_at": "2026-04-22 16:50:57",
    "region": "zhangjiang",
    "unit_price": 71.1,
    "lat": 31.210723,
    "lng": 121.626563
  },
  {
    "title": "整租·汤臣高尔夫(公寓) 3室2厅 南",
    "community": "汤臣高尔夫(公寓)",
    "area": "117.79",
    "rooms": "3室2厅",
    "direction": "南",
    "floor": "",
    "price": "16000",
    "tags": "",
    "source": "",
    "url": "https://sh.lianjia.com/zufang/SH2146537974181920768.html",
    "rent_type": "整租",
    "scraped_at": "2026-04-22 16:50:57",
    "region": "zhangjiang",
    "unit_price": 135.8,
    "lat": 31.218904,
    "lng": 121.582034
  },
  {
    "title": "整租·东郊紫园 4室2厅 复式 南",
    "community": "东郊紫园",
    "area": "377.41",
    "rooms": "4室2厅",
    "direction": "",
    "floor": "",
    "price": "50000",
    "tags": "",
    "source": "",
    "url": "https://sh.lianjia.com/zufang/SH2075535813352882176.html",
    "rent_type": "整租",
    "scraped_at": "2026-04-22 16:50:57",
    "region": "zhangjiang",
    "unit_price": 132.5,
    "lat": 31.178775,
    "lng": 121.624074
  },
  {
    "title": "整租·张江汤臣豪园(二期) 3室1厅 南",
    "community": "张江汤臣豪园(二期)",
    "area": "118.26",
    "rooms": "3室1厅",
    "direction": "南",
    "floor": "",
    "price": "12000",
    "tags": "",
    "source": "",
    "url": "https://sh.lianjia.com/zufang/SH2102284924571615232.html",
    "rent_type": "整租",
    "scraped_at": "2026-04-22 16:50:57",
    "region": "zhangjiang",
    "unit_price": 101.5,
    "lat": 31.202498,
    "lng": 121.597512
  },
  {
    "title": "整租·丹芳苑 3室2厅 南",
    "community": "丹芳苑",
    "area": "174.67",
    "rooms": "3室2厅",
    "direction": "南",
    "floor": "",
    "price": "12600",
    "tags": "",
    "source": "",
    "url": "https://sh.lianjia.com/zufang/SH1872909295796879360.html",
    "rent_type": "整租",
    "scraped_at": "2026-04-22 16:51:05",
    "region": "zhangjiang",
    "unit_price": 72.1,
    "lat": 31.202251,
    "lng": 121.611451
  },
  {
    "title": "整租·盛大天地青春里2.0 1室1厅 南",
    "community": "盛大天地青春里2.0",
    "area": "44.91",
    "rooms": "1室1厅",
    "direction": "南",
    "floor": "",
    "price": "4900",
    "tags": "",
    "source": "",
    "url": "https://sh.lianjia.com/zufang/SH1877993836018401280.html",
    "rent_type": "整租",
    "scraped_at": "2026-04-22 16:51:05",
    "region": "zhangjiang",
    "unit_price": 109.1,
    "lat": 31.169751,
    "lng": 121.605652
  },
  {
    "title": "整租·汤臣高尔夫(公寓) 4室2厅 南",
    "community": "汤臣高尔夫(公寓)",
    "area": "188.49",
    "rooms": "4室2厅",
    "direction": "南",
    "floor": "",
    "price": "18600",
    "tags": "",
    "source": "",
    "url": "https://sh.lianjia.com/zufang/SH1878063925962997760.html",
    "rent_type": "整租",
    "scraped_at": "2026-04-22 16:51:05",
    "region": "zhangjiang",
    "unit_price": 98.7,
    "lat": 31.218904,
    "lng": 121.582034
  },
  {
    "title": "整租·城市经典四期高迪 1室1厅 南",
    "community": "城市经典四期高迪",
    "area": "63.79",
    "rooms": "1室1厅",
    "direction": "南",
    "floor": "",
    "price": "6100",
    "tags": "",
    "source": "",
    "url": "https://sh.lianjia.com/zufang/SH1885623954081579008.html",
    "rent_type": "整租",
    "scraped_at": "2026-04-22 16:51:05",
    "region": "zhangjiang",
    "unit_price": 95.6,
    "lat": 31.212907,
    "lng": 121.618681
  },
  {
    "title": "整租·中芯花园199弄 1室1厅 南",
    "community": "中芯花园199弄",
    "area": "67.05",
    "rooms": "1室1厅",
    "direction": "南",
    "floor": "",
    "price": "5200",
    "tags": "",
    "source": "",
    "url": "https://sh.lianjia.com/zufang/SH1892228484181262336.html",
    "rent_type": "整租",
    "scraped_at": "2026-04-22 16:51:05",
    "region": "zhangjiang",
    "unit_price": 77.6,
    "lat": 31.220081,
    "lng": 121.621991
  },
  {
    "title": "整租·展想悦廷 1室1厅 南",
    "community": "展想悦廷",
    "area": "52.83",
    "rooms": "1室1厅",
    "direction": "南",
    "floor": "",
    "price": "4500",
    "tags": "",
    "source": "",
    "url": "https://sh.lianjia.com/zufang/SH1909472568658624512.html",
    "rent_type": "整租",
    "scraped_at": "2026-04-22 16:51:05",
    "region": "zhangjiang",
    "unit_price": 85.2,
    "lat": 31.210723,
    "lng": 121.626563
  },
  {
    "title": "整租·香楠小区 3室1厅 南",
    "community": "香楠小区",
    "area": "76.54",
    "rooms": "3室1厅",
    "direction": "南",
    "floor": "",
    "price": "5775",
    "tags": "",
    "source": "",
    "url": "https://sh.lianjia.com/zufang/SH2012472828820979712.html",
    "rent_type": "整租",
    "scraped_at": "2026-04-22 16:51:05",
    "region": "zhangjiang",
    "unit_price": 75.5,
    "lat": 31.21652,
    "lng": 121.614476
  },
  {
    "title": "整租·汇智湖畔家园 2室2厅 南/北",
    "community": "汇智湖畔家园",
    "area": "89.36",
    "rooms": "2室2厅",
    "direction": "南/北",
    "floor": "",
    "price": "10080",
    "tags": "",
    "source": "",
    "url": "https://sh.lianjia.com/zufang/SH2015279479403839488.html",
    "rent_type": "整租",
    "scraped_at": "2026-04-22 16:51:05",
    "region": "zhangjiang",
    "unit_price": 112.8,
    "lat": 31.199759,
    "lng": 121.606217
  },
  {
    "title": "整租·玉兰香苑(三期) 3室1厅 南",
    "community": "玉兰香苑(三期)",
    "area": "93.65",
    "rooms": "3室1厅",
    "direction": "南",
    "floor": "",
    "price": "5880",
    "tags": "",
    "source": "",
    "url": "https://sh.lianjia.com/zufang/SH2015011567384395776.html",
    "rent_type": "整租",
    "scraped_at": "2026-04-22 16:51:05",
    "region": "zhangjiang",
    "unit_price": 62.8,
    "lat": 31.198022,
    "lng": 121.634851
  },
  {
    "title": "独栋·纳仕云庐 张江国际C区 张江集团自营公寓 直租 150平全屋地暖高端电器家具全配 3室2厅",
    "community": "纳仕云庐 张江国际C区 张江集团自营公寓 直租 150平全屋地暖高端电器家具全配",
    "area": "150.00",
    "rooms": "3室2厅",
    "direction": "",
    "floor": "",
    "price": "16408",
    "tags": "",
    "source": "",
    "url": "https://sh.lianjia.com/apartment/90534.html",
    "rent_type": "独栋",
    "scraped_at": "2026-04-22 16:51:05",
    "region": "zhangjiang",
    "unit_price": 109.4,
    "lat": 31.168606,
    "lng": 121.624907
  },
  {
    "title": "独栋·蓝光公寓 张江店 字节跳动附近/全屋宜家家具/可以养猫 开间",
    "community": "蓝光公寓 张江店 字节跳动附近/全屋宜家家具/可以养猫 开间",
    "area": "32.00",
    "rooms": "",
    "direction": "",
    "floor": "",
    "price": "3400",
    "tags": "",
    "source": "",
    "url": "https://sh.lianjia.com/apartment/45535.html",
    "rent_type": "独栋",
    "scraped_at": "2026-04-22 16:51:05",
    "region": "zhangjiang",
    "unit_price": 106.2,
    "lat": 31.214356,
    "lng": 121.63669
  },
  {
    "title": "整租·川杨新苑(四期) 1室1厅 南",
    "community": "川杨新苑(四期)",
    "area": "57.00",
    "rooms": "1室1厅",
    "direction": "南",
    "floor": "",
    "price": "4725",
    "tags": "",
    "source": "",
    "url": "https://sh.lianjia.com/zufang/SH2030190477289979904.html",
    "rent_type": "整租",
    "scraped_at": "2026-04-22 16:51:05",
    "region": "zhangjiang",
    "unit_price": 82.9,
    "lat": 31.189052,
    "lng": 121.63772
  },
  {
    "title": "整租·科雅苑 2室1厅 南",
    "community": "科雅苑",
    "area": "60.00",
    "rooms": "2室1厅",
    "direction": "南",
    "floor": "",
    "price": "4410",
    "tags": "",
    "source": "",
    "url": "https://sh.lianjia.com/zufang/SH2032086983743897600.html",
    "rent_type": "整租",
    "scraped_at": "2026-04-22 16:51:05",
    "region": "zhangjiang",
    "unit_price": 73.5,
    "lat": 31.16647,
    "lng": 121.623478
  },
  {
    "title": "整租·陈家宅小区(浦东大道) 2室1厅 南",
    "community": "陈家宅小区(浦东大道)",
    "area": "60.32",
    "rooms": "2室1厅",
    "direction": "南",
    "floor": "",
    "price": "4095",
    "tags": "",
    "source": "",
    "url": "https://sh.lianjia.com/zufang/SH2103765161041985536.html",
    "rent_type": "整租",
    "scraped_at": "2026-04-22 16:55:35",
    "region": "jinqiao",
    "unit_price": 67.9,
    "lat": 31.266066,
    "lng": 121.572987
  },
  {
    "title": "整租·碧海现代苑 1室1厅 南",
    "community": "碧海现代苑",
    "area": "100.77",
    "rooms": "1室1厅",
    "direction": "南",
    "floor": "",
    "price": "5500",
    "tags": "",
    "source": "",
    "url": "https://sh.lianjia.com/zufang/SH2140997962132619264.html",
    "rent_type": "整租",
    "scraped_at": "2026-04-22 16:55:35",
    "region": "jinqiao",
    "unit_price": 54.6,
    "lat": 31.252566,
    "lng": 121.600769
  },
  {
    "title": "整租·融创精彩天地 2室1厅 南",
    "community": "融创精彩天地",
    "area": "54.56",
    "rooms": "2室1厅",
    "direction": "南",
    "floor": "",
    "price": "5000",
    "tags": "",
    "source": "",
    "url": "https://sh.lianjia.com/zufang/SH2112125018342162432.html",
    "rent_type": "整租",
    "scraped_at": "2026-04-22 16:55:35",
    "region": "jinqiao",
    "unit_price": 91.6,
    "lat": 31.276572,
    "lng": 121.597766
  },
  {
    "title": "独栋·森邻寓 金桥店 直达世纪大道近地铁/复式一室户/免费健身房无中介 1室1厅",
    "community": "森邻寓 金桥店 直达世纪大道近地铁/复式一室户/免费健身房无中介",
    "area": "18.00",
    "rooms": "1室1厅",
    "direction": "",
    "floor": "",
    "price": "2650",
    "tags": "",
    "source": "",
    "url": "https://sh.lianjia.com/apartment/72268.html",
    "rent_type": "独栋",
    "scraped_at": "2026-04-22 16:56:30",
    "region": "jinqiao",
    "unit_price": 147.2,
    "lat": null,
    "lng": null
  },
  {
    "title": "整租·碧云东壹栋 1室1厅 南",
    "community": "碧云东壹栋",
    "area": "60.16",
    "rooms": "1室1厅",
    "direction": "南",
    "floor": "",
    "price": "3800",
    "tags": "",
    "source": "",
    "url": "https://sh.lianjia.com/zufang/SH2137844556652085248.html",
    "rent_type": "整租",
    "scraped_at": "2026-04-22 16:55:35",
    "region": "jinqiao",
    "unit_price": 63.2,
    "lat": 31.250368,
    "lng": 121.596964
  },
  {
    "title": "独栋·九宸公寓 九宸公寓 甄选LOFT一居室 1室1厅",
    "community": "九宸公寓 九宸公寓 甄选LOFT一居室",
    "area": "28.00",
    "rooms": "1室1厅",
    "direction": "",
    "floor": "",
    "price": "3500",
    "tags": "",
    "source": "",
    "url": "https://sh.lianjia.com/apartment/105100.html",
    "rent_type": "独栋",
    "scraped_at": "2026-04-22 16:56:30",
    "region": "jinqiao",
    "unit_price": 125.0,
    "lat": 31.187056,
    "lng": 121.221408
  },
  {
    "title": "整租·东方丽景 2室1厅 南",
    "community": "东方丽景",
    "area": "96.86",
    "rooms": "2室1厅",
    "direction": "南",
    "floor": "",
    "price": "6800",
    "tags": "",
    "source": "",
    "url": "https://sh.lianjia.com/zufang/SH2141815573921660928.html",
    "rent_type": "整租",
    "scraped_at": "2026-04-22 16:55:35",
    "region": "jinqiao",
    "unit_price": 70.2,
    "lat": 31.280379,
    "lng": 121.586845
  },
  {
    "title": "整租·福建天安大厦 4室2厅 东",
    "community": "福建天安大厦",
    "area": "170.00",
    "rooms": "4室2厅",
    "direction": "东",
    "floor": "",
    "price": "15000",
    "tags": "",
    "source": "",
    "url": "https://sh.lianjia.com/zufang/SH2074860722210209792.html",
    "rent_type": "整租",
    "scraped_at": "2026-04-22 16:55:35",
    "region": "jinqiao",
    "unit_price": 88.2,
    "lat": null,
    "lng": null
  },
  {
    "title": "整租·同方锦城（C区） 3室2厅 南",
    "community": "同方锦城（C区）",
    "area": "120.00",
    "rooms": "3室2厅",
    "direction": "南",
    "floor": "",
    "price": "7800",
    "tags": "",
    "source": "",
    "url": "https://sh.lianjia.com/zufang/SH2142939218094063616.html",
    "rent_type": "整租",
    "scraped_at": "2026-04-22 16:55:35",
    "region": "jinqiao",
    "unit_price": 65.0,
    "lat": 31.26752,
    "lng": 121.586415
  },
  {
    "title": "整租·东陆新村九街坊 2室1厅 南",
    "community": "东陆新村九街坊",
    "area": "67.39",
    "rooms": "2室1厅",
    "direction": "南",
    "floor": "",
    "price": "4200",
    "tags": "",
    "source": "",
    "url": "https://sh.lianjia.com/zufang/SH2142560295225131008.html",
    "rent_type": "整租",
    "scraped_at": "2026-04-22 16:55:35",
    "region": "jinqiao",
    "unit_price": 62.3,
    "lat": 31.275364,
    "lng": 121.601293
  },
  {
    "title": "独栋·寓青春公寓 金桥店 近华为，东方万国，锦绣申江，直租无中介费 开间",
    "community": "寓青春公寓 金桥店 近华为，东方万国，锦绣申江，直租无中介费 开间",
    "area": "20.00",
    "rooms": "",
    "direction": "",
    "floor": "",
    "price": "2500",
    "tags": "",
    "source": "",
    "url": "https://sh.lianjia.com/apartment/585.html",
    "rent_type": "独栋",
    "scraped_at": "2026-04-22 16:55:35",
    "region": "jinqiao",
    "unit_price": 125.0,
    "lat": 31.254253,
    "lng": 121.621803
  },
  {
    "title": "整租·伟业金锦苑二村 2室1厅 南",
    "community": "伟业金锦苑二村",
    "area": "78.66",
    "rooms": "2室1厅",
    "direction": "南",
    "floor": "",
    "price": "5700",
    "tags": "",
    "source": "",
    "url": "https://sh.lianjia.com/zufang/SH2143204528546119680.html",
    "rent_type": "整租",
    "scraped_at": "2026-04-22 16:55:35",
    "region": "jinqiao",
    "unit_price": 72.5,
    "lat": 31.230525,
    "lng": 121.473667
  },
  {
    "title": "整租·同方锦城（C区） 3室2厅 南",
    "community": "同方锦城（C区）",
    "area": "120.22",
    "rooms": "3室2厅",
    "direction": "南",
    "floor": "",
    "price": "7800",
    "tags": "",
    "source": "",
    "url": "https://sh.lianjia.com/zufang/SH2144014982516310016.html",
    "rent_type": "整租",
    "scraped_at": "2026-04-22 16:55:35",
    "region": "jinqiao",
    "unit_price": 64.9,
    "lat": 31.26752,
    "lng": 121.586415
  },
  {
    "title": "整租·上泰雅苑 3室2厅 南",
    "community": "上泰雅苑",
    "area": "106.07",
    "rooms": "3室2厅",
    "direction": "南",
    "floor": "",
    "price": "6900",
    "tags": "",
    "source": "",
    "url": "https://sh.lianjia.com/zufang/SH2144322673990172672.html",
    "rent_type": "整租",
    "scraped_at": "2026-04-22 16:55:35",
    "region": "jinqiao",
    "unit_price": 65.1,
    "lat": 31.278808,
    "lng": 121.582534
  },
  {
    "title": "整租·碧云东壹栋 1室1厅 北",
    "community": "碧云东壹栋",
    "area": "42.26",
    "rooms": "1室1厅",
    "direction": "北",
    "floor": "",
    "price": "4300",
    "tags": "",
    "source": "",
    "url": "https://sh.lianjia.com/zufang/SH2095448939275747328.html",
    "rent_type": "整租",
    "scraped_at": "2026-04-22 16:55:35",
    "region": "jinqiao",
    "unit_price": 101.8,
    "lat": 31.250368,
    "lng": 121.596964
  },
  {
    "title": "整租·永业小区 3室1厅 南/北",
    "community": "永业小区",
    "area": "96.00",
    "rooms": "3室1厅",
    "direction": "南/北",
    "floor": "",
    "price": "5800",
    "tags": "",
    "source": "",
    "url": "https://sh.lianjia.com/zufang/SH2146947090889048064.html",
    "rent_type": "整租",
    "scraped_at": "2026-04-22 16:55:35",
    "region": "jinqiao",
    "unit_price": 60.4,
    "lat": 31.265612,
    "lng": 121.612962
  },
  {
    "title": "整租·梵克雅堡 7室3厅 南",
    "community": "梵克雅堡",
    "area": "666.00",
    "rooms": "7室3厅",
    "direction": "南",
    "floor": "",
    "price": "130000",
    "tags": "",
    "source": "",
    "url": "https://sh.lianjia.com/zufang/SH2114604110631141376.html",
    "rent_type": "整租",
    "scraped_at": "2026-04-22 16:55:35",
    "region": "jinqiao",
    "unit_price": 195.2,
    "lat": 31.271765,
    "lng": 121.615723
  },
  {
    "title": "整租·寿二小区 2室1厅 南",
    "community": "寿二小区",
    "area": "64.00",
    "rooms": "2室1厅",
    "direction": "南",
    "floor": "",
    "price": "4300",
    "tags": "",
    "source": "",
    "url": "https://sh.lianjia.com/zufang/SH2148673995254267904.html",
    "rent_type": "整租",
    "scraped_at": "2026-04-22 16:55:35",
    "region": "jinqiao",
    "unit_price": 67.2,
    "lat": 31.274641,
    "lng": 121.584828
  },
  {
    "title": "独栋·诺一公寓 诺一公寓金桥社区 精致可采光一居室 开间",
    "community": "诺一公寓 诺一公寓金桥社区 精致可采光一居室 开间",
    "area": "23.00",
    "rooms": "",
    "direction": "",
    "floor": "",
    "price": "2600",
    "tags": "",
    "source": "",
    "url": "https://sh.lianjia.com/apartment/105195.html",
    "rent_type": "独栋",
    "scraped_at": "2026-04-22 16:55:39",
    "region": "jinqiao",
    "unit_price": 113.0,
    "lat": 31.259649,
    "lng": 121.638681
  },
  {
    "title": "整租·证大家园(四期) 2室2厅 南",
    "community": "证大家园(四期)",
    "area": "106.04",
    "rooms": "2室2厅",
    "direction": "南",
    "floor": "",
    "price": "7000",
    "tags": "",
    "source": "",
    "url": "https://sh.lianjia.com/zufang/SH2148810273383776256.html",
    "rent_type": "整租",
    "scraped_at": "2026-04-22 16:55:35",
    "region": "jinqiao",
    "unit_price": 66.0,
    "lat": 31.283374,
    "lng": 121.595857
  },