[
  {
    "title": "整租·乾耀东港 2室1厅 南/北",
    "community": "乾耀东港",
    "area": "67.15",
    "rooms": "2室1厅",
    "direction": "南/北",
    "floor": "",
    "price": "1700",
    "tags": "",
    "source": "",
    "url": "https://sh.lianjia.com/zufang/SH2139974512400138240.html",
    "rent_type": "整租",
    "location": "浦东-泥城镇-乾耀东港",
    "scraped_at": "2026-04-23 10:24:32",
    "region": "nichengzhen",
    "unit_price": 25.3,
    "lat": 30.9028,
    "lng": 121.80445
  },
  {
    "title": "整租·乾耀东港 2室1厅 南",
    "community": "乾耀东港",
    "area": "87.05",
    "rooms": "2室1厅",
    "direction": "南",
    "floor": "",
    "price": "2600",
    "tags": "",
    "source": "",
    "url": "https://sh.lianjia.com/zufang/SH2126160603557920768.html",
    "rent_type": "整租",
    "location": "浦东-泥城镇-乾耀东港",
    "scraped_at": "2026-04-23 10:24:32",
    "region": "nichengzhen",
    "unit_price": 29.9,
    "lat": 30.9028,
    "lng": 121.80445
  },
  {
    "title": "整租·丽都华庭 2室2厅 西南",
    "community": "丽都华庭",
    "area": "119.20",
    "rooms": "2室2厅",
    "direction": "西南",
    "floor": "",
    "price": "2500",
    "tags": "",
    "source": "",
    "url": "https://sh.lianjia.com/zufang/SH1890422739609583616.html",
    "rent_type": "整租",
    "location": "浦东-泥城镇-丽都华庭",
    "scraped_at": "2026-04-23 10:24:32",
    "region": "nichengzhen",
    "unit_price": 21.0,
    "lat": 30.901756,
    "lng": 121.807584
  },
  {
    "title": "整租·清风雅苑 2室2厅 南/北",
    "community": "清风雅苑",
    "area": "82.00",
    "rooms": "2室2厅",
    "direction": "南/北",
    "floor": "",
    "price": "1890",
    "tags": "",
    "source": "",
    "url": "https://sh.lianjia.com/zufang/SH2012740762248151040.html",
    "rent_type": "整租",
    "location": "浦东-泥城镇-清风雅苑",
    "scraped_at": "2026-04-23 10:24:32",
    "region": "nichengzhen",
    "unit_price": 23.0,
    "lat": 30.911484,
    "lng": 121.813121
  },
  {
    "title": "整租·丽都璟庭 3室2厅 南",
    "community": "丽都璟庭",
    "area": "90.68",
    "rooms": "3室2厅",
    "direction": "南",
    "floor": "",
    "price": "3360",
    "tags": "",
    "source": "",
    "url": "https://sh.lianjia.com/zufang/SH2002250098754453504.html",
    "rent_type": "整租",
    "location": "浦东-泥城镇-丽都璟庭",
    "scraped_at": "2026-04-23 10:24:32",
    "region": "nichengzhen",
    "unit_price": 37.1,
    "lat": 30.905719,
    "lng": 121.813183
  },
  {
    "title": "整租·云锦丽苑 2室1厅 南",
    "community": "云锦丽苑",
    "area": "84.40",
    "rooms": "2室1厅",
    "direction": "南",
    "floor": "",
    "price": "1785",
    "tags": "",
    "source": "",
    "url": "https://sh.lianjia.com/zufang/SH2002297968878682112.html",
    "rent_type": "整租",
    "location": "浦东-泥城镇-云锦丽苑",
    "scraped_at": "2026-04-23 10:24:32",
    "region": "nichengzhen",
    "unit_price": 21.1,
    "lat": 30.901018,
    "lng": 121.825471
  },
  {
    "title": "整租·荷风翠庭 2室2厅 南/北",
    "community": "荷风翠庭",
    "area": "81.63",
    "rooms": "2室2厅",
    "direction": "南/北",
    "floor": "",
    "price": "1890",
    "tags": "",
    "source": "",
    "url": "https://sh.lianjia.com/zufang/SH2032446208219283456.html",
    "rent_type": "整租",
    "location": "浦东-泥城镇-荷风翠庭",
    "scraped_at": "2026-04-23 10:24:32",
    "region": "nichengzhen",
    "unit_price": 23.2,
    "lat": 30.910041,
    "lng": 121.807501
  },
  {
    "title": "整租·乾耀东港 4室2厅 南",
    "community": "乾耀东港",
    "area": "172.00",
    "rooms": "4室2厅",
    "direction": "南",
    "floor": "",
    "price": "5500",
    "tags": "",
    "source": "",
    "url": "https://sh.lianjia.com/zufang/SH2154172604267626496.html",
    "rent_type": "整租",
    "location": "浦东-泥城镇-乾耀东港",
    "scraped_at": "2026-04-23 10:24:32",
    "region": "nichengzhen",
    "unit_price": 32.0,
    "lat": 30.9028,
    "lng": 121.80445
  },
  {
    "title": "整租·云帆花苑 3室1厅 南/北",
    "community": "云帆花苑",
    "area": "82.30",
    "rooms": "3室1厅",
    "direction": "南/北",
    "floor": "",
    "price": "2300",
    "tags": "",
    "source": "",
    "url": "https://sh.lianjia.com/zufang/SH2016067609941770240.html",
    "rent_type": "整租",
    "location": "浦东-泥城镇-云帆花苑",
    "scraped_at": "2026-04-23 10:24:32",
    "region": "nichengzhen",
    "unit_price": 27.9,
    "lat": 30.900097,
    "lng": 121.814274
  },
  {
    "title": "整租·清风丽苑 3室2厅 南",
    "community": "清风丽苑",
    "area": "100.90",
    "rooms": "3室2厅",
    "direction": "南",
    "floor": "",
    "price": "2520",
    "tags": "",
    "source": "",
    "url": "https://sh.lianjia.com/zufang/SH1915746767933014016.html",
    "rent_type": "整租",
    "location": "浦东-泥城镇-清风丽苑",
    "scraped_at": "2026-04-23 10:24:32",
    "region": "nichengzhen",
    "unit_price": 25.0,
    "lat": 30.908797,
    "lng": 121.810752
  },
  {
    "title": "整租·云帆佳苑 2室2厅 南",
    "community": "云帆佳苑",
    "area": "83.67",
    "rooms": "2室2厅",
    "direction": "南",
    "floor": "",
    "price": "1995",
    "tags": "",
    "source": "",
    "url": "https://sh.lianjia.com/zufang/SH1931254200864342016.html",
    "rent_type": "整租",
    "location": "浦东-泥城镇-云帆佳苑",
    "scraped_at": "2026-04-23 10:24:32",
    "region": "nichengzhen",
    "unit_price": 23.8,
    "lat": 30.897592,
    "lng": 121.817928
  },
  {
    "title": "整租·云松景庭 2室1厅 南",
    "community": "云松景庭",
    "area": "103.45",
    "rooms": "2室1厅",
    "direction": "南",
    "floor": "",
    "price": "2652",
    "tags": "",
    "source": "",
    "url": "https://sh.lianjia.com/zufang/SH1797081488546594816.html",
    "rent_type": "整租",
    "location": "浦东-泥城镇-云松景庭",
    "scraped_at": "2026-04-23 10:24:32",
    "region": "nichengzhen",
    "unit_price": 25.6,
    "lat": 30.899034,
    "lng": 121.807745
  },
  {
    "title": "整租·云锦新苑 1室1厅 南",
    "community": "云锦新苑",
    "area": "47.00",
    "rooms": "1室1厅",
    "direction": "南",
    "floor": "",
    "price": "1575",
    "tags": "",
    "source": "",
    "url": "https://sh.lianjia.com/zufang/SH1923611409631936512.html",
    "rent_type": "整租",
    "location": "浦东-泥城镇-云锦新苑",
    "scraped_at": "2026-04-23 10:24:32",
    "region": "nichengzhen",
    "unit_price": 33.5,
    "lat": 30.897574,
    "lng": 121.826511
  },
  {
    "title": "整租·丽都璟庭 4室2厅 南",
    "community": "丽都璟庭",
    "area": "151.09",
    "rooms": "4室2厅",
    "direction": "南",
    "floor": "",
    "price": "3465",
    "tags": "",
    "source": "",
    "url": "https://sh.lianjia.com/zufang/SH1999486933071298560.html",
    "rent_type": "整租",
    "location": "浦东-泥城镇-丽都璟庭",
    "scraped_at": "2026-04-23 10:24:32",
    "region": "nichengzhen",
    "unit_price": 22.9,
    "lat": 30.905719,
    "lng": 121.813183
  },
  {
    "title": "整租·云树雅居 1室1厅 南/北",
    "community": "云树雅居",
    "area": "49.00",
    "rooms": "1室1厅",
    "direction": "南/北",
    "floor": "",
    "price": "1600",
    "tags": "",
    "source": "",
    "url": "https://sh.lianjia.com/zufang/SH1649647495610892288.html",
    "rent_type": "整租",
    "location": "浦东-泥城镇-云树雅居",
    "scraped_at": "2026-04-23 10:24:32",
    "region": "nichengzhen",
    "unit_price": 32.7,
    "lat": 30.899629,
    "lng": 121.803601
  },
  {
    "title": "整租·云树仁居 1室1厅 南",
    "community": "云树仁居",
    "area": "61.04",
    "rooms": "1室1厅",
    "direction": "南",
    "floor": "",
    "price": "2000",
    "tags": "",
    "source": "",
    "url": "https://sh.lianjia.com/zufang/SH1950237911567826944.html",
    "rent_type": "整租",
    "location": "浦东-泥城镇-云树仁居",
    "scraped_at": "2026-04-23 10:24:32",
    "region": "nichengzhen",
    "unit_price": 32.8,
    "lat": 30.898501,
    "lng": 121.800783
  },
  {
    "title": "整租·鸿音广场 1室0厅 南",
    "community": "鸿音广场",
    "area": "45.47",
    "rooms": "1室0厅",
    "direction": "南",
    "floor": "",
    "price": "1500",
    "tags": "",
    "source": "",
    "url": "https://sh.lianjia.com/zufang/SH2020154403423518720.html",
    "rent_type": "整租",
    "location": "浦东-泥城镇-鸿音广场",
    "scraped_at": "2026-04-23 10:24:32",
    "region": "nichengzhen",
    "unit_price": 33.0,
    "lat": 30.910018,
    "lng": 121.820083
  },
  {
    "title": "整租·荷风翠庭 3室2厅 东南/南",
    "community": "荷风翠庭",
    "area": "100.90",
    "rooms": "3室2厅",
    "direction": "东南/南",
    "floor": "",
    "price": "2600",
    "tags": "",
    "source": "",
    "url": "https://sh.lianjia.com/zufang/SH2143605000134197248.html",
    "rent_type": "整租",
    "location": "浦东-泥城镇-荷风翠庭",
    "scraped_at": "2026-04-23 10:24:32",
    "region": "nichengzhen",
    "unit_price": 25.8,
    "lat": 30.910041,
    "lng": 121.807501
  },
  {
    "title": "整租·东亚阳光里 1室1厅 南",
    "community": "东亚阳光里",
    "area": "62.00",
    "rooms": "1室1厅",
    "direction": "南",
    "floor": "",
    "price": "2200",
    "tags": "",
    "source": "",
    "url": "https://sh.lianjia.com/zufang/SH1898342413873709056.html",
    "rent_type": "整租",
    "location": "浦东-泥城镇-东亚阳光里",
    "scraped_at": "2026-04-23 10:24:32",
    "region": "nichengzhen",
    "unit_price": 35.5,
    "lat": 30.906288,
    "lng": 121.809144
  },
  {
    "title": "整租·云锦新苑 1室1厅 东南",
    "community": "云锦新苑",
    "area": "47.01",
    "rooms": "1室1厅",
    "direction": "东南",
    "floor": "",
    "price": "1733",
    "tags": "",
    "source": "",
    "url": "https://sh.lianjia.com/zufang/SH1946469880249188352.html",
    "rent_type": "整租",
    "location": "浦东-泥城镇-云锦新苑",
    "scraped_at": "2026-04-23 10:24:32",
    "region": "nichengzhen",
    "unit_price": 36.9,
    "lat": 30.897574,
    "lng": 121.826511
  },
  {
    "title": "整租·荷风景庭 2室2厅 南/北",
    "community": "荷风景庭",
    "area": "81.63",
    "rooms": "2室2厅",
    "direction": "南/北",
    "floor": "",
    "price": "2400",
    "tags": "",
    "source": "",
    "url": "https://sh.lianjia.com/zufang/SH2139004197369020416.html",
    "rent_type": "整租",
    "location": "浦东-泥城镇-荷风景庭",
    "scraped_at": "2026-04-23 10:24:32",
    "region": "nichengzhen",
    "unit_price": 29.4,
    "lat": 30.911424,
    "lng": 121.809413
  },
  {
    "title": "整租·乾耀东港 3室1厅 南",
    "community": "乾耀东港",
    "area": "88.00",
    "rooms": "3室1厅",
    "direction": "南",
    "floor": "",
    "price": "2415",
    "tags": "",
    "source": "",
    "url": "https://sh.lianjia.com/zufang/SH2075938160243638272.html",
    "rent_type": "整租",
    "location": "浦东-泥城镇-乾耀东港",
    "scraped_at": "2026-04-23 10:24:32",
    "region": "nichengzhen",
    "unit_price": 27.4,
    "lat": 30.9028,
    "lng": 121.80445
  },
  {
    "title": "整租·丽都华庭 2室1厅 南",
    "community": "丽都华庭",
    "area": "69.11",
    "rooms": "2室1厅",
    "direction": "南",
    "floor": "",
    "price": "2400",
    "tags": "",
    "source": "",
    "url": "https://sh.lianjia.com/zufang/SH2151563847884865536.html",
    "rent_type": "整租",
    "location": "浦东-泥城镇-丽都华庭",
    "scraped_at": "2026-04-23 10:24:32",
    "region": "nichengzhen",
    "unit_price": 34.7,
    "lat": 30.901756,
    "lng": 121.807584
  },
  {
    "title": "整租·云松华庭 2室2厅 南",
    "community": "云松华庭",
    "area": "96.67",
    "rooms": "2室2厅",
    "direction": "南",
    "floor": "",
    "price": "2500",
    "tags": "",
    "source": "",
    "url": "https://sh.lianjia.com/zufang/SH1722952427805605888.html",
    "rent_type": "整租",
    "location": "浦东-泥城镇-云松华庭",
    "scraped_at": "2026-04-23 10:24:32",
    "region": "nichengzhen",
    "unit_price": 25.9,
    "lat": 30.899625,
    "lng": 121.807372
  },
  {
    "title": "整租·鸿音广场 1室1厅 南",
    "community": "鸿音广场",
    "area": "49.64",
    "rooms": "1室1厅",
    "direction": "南",
    "floor": "",
    "price": "1400",
    "tags": "",
    "source": "",
    "url": "https://sh.lianjia.com/zufang/SH2153837190650527744.html",
    "rent_type": "整租",
    "location": "浦东-泥城镇-鸿音广场",
    "scraped_at": "2026-04-23 10:24:32",
    "region": "nichengzhen",
    "unit_price": 28.2,
    "lat": 30.910018,
    "lng": 121.820083
  },
  {
    "title": "整租·清风名苑 1室1厅 南",
    "community": "清风名苑",
    "area": "60.00",
    "rooms": "1室1厅",
    "direction": "南",
    "floor": "",
    "price": "2000",
    "tags": "",
    "source": "",
    "url": "https://sh.lianjia.com/zufang/SH1964580415444353024.html",
    "rent_type": "整租",
    "location": "浦东-泥城镇-清风名苑",
    "scraped_at": "2026-04-23 10:24:32",
    "region": "nichengzhen",
    "unit_price": 33.3,
    "lat": 30.909184,
    "lng": 121.813866
  },
  {
    "title": "整租·潮海公寓 1室0厅 南",
    "community": "潮海公寓",
    "area": "53.30",
    "rooms": "1室0厅",
    "direction": "南",
    "floor": "",
    "price": "1550",
    "tags": "",
    "source": "",
    "url": "https://sh.lianjia.com/zufang/SH2152654536014036992.html",
    "rent_type": "整租",
    "location": "浦东-泥城镇-潮海公寓",
    "scraped_at": "2026-04-23 10:24:32",
    "region": "nichengzhen",
    "unit_price": 29.1,
    "lat": 30.903841,
    "lng": 121.816657
  },
  {
    "title": "整租·万达未来城 3室1厅 南/北",
    "community": "万达未来城",
    "area": "108.12",
    "rooms": "3室1厅",
    "direction": "南/北",
    "floor": "",
    "price": "4000",
    "tags": "",
    "source": "",
    "url": "https://sh.lianjia.com/zufang/SH2154923460835409920.html",
    "rent_type": "整租",
    "location": "浦东-泥城镇-万达未来城",
    "scraped_at": "2026-04-23 10:24:32",
    "region": "nichengzhen",
    "unit_price": 37.0,
    "lat": 30.89016,
    "lng": 121.814627
  },
  {
    "title": "整租·鸿音广场 1室0厅 北",
    "community": "鸿音广场",
    "area": "45.41",
    "rooms": "1室0厅",
    "direction": "北",
    "floor": "",
    "price": "1400",
    "tags": "",
    "source": "",
    "url": "https://sh.lianjia.com/zufang/SH2097184687725215744.html",
    "rent_type": "整租",
    "location": "浦东-泥城镇-鸿音广场",
    "scraped_at": "2026-04-23 10:24:32",
    "region": "nichengzhen",
    "unit_price": 30.8,
    "lat": 30.910018,
    "lng": 121.820083
  },
  {
    "title": "整租·云树仁居 2室1厅 南/北",
    "community": "云树仁居",
    "area": "81.74",
    "rooms": "2室1厅",
    "direction": "南/北",
    "floor": "",
    "price": "1900",
    "tags": "",
    "source": "",
    "url": "https://sh.lianjia.com/zufang/SH2150443492747247616.html",
    "rent_type": "整租",
    "location": "浦东-泥城镇-云树仁居",
    "scraped_at": "2026-04-23 10:24:32",
    "region": "nichengzhen",
    "unit_price": 23.2,
    "lat": 30.898501,
    "lng": 121.800783
  }
]