[
  {
    "title": "整租·新泾八村 2室1厅 南",
    "community": "新泾八村",
    "area": "56.25",
    "rooms": "2室1厅",
    "direction": "南",
    "floor": "",
    "price": "6000",
    "tags": "",
    "source": "",
    "url": "https://sh.lianjia.com/zufang/SH2140330410255581184.html",
    "rent_type": "整租",
    "location": "长宁-北新泾-新泾八村",
    "scraped_at": "2026-04-23 13:14:22",
    "region": "beixinjing",
    "unit_price": 106.7,
    "lat": 31.21883,
    "lng": 121.3587
  },
  {
    "title": "整租·广友小区 1室1厅 南",
    "community": "广友小区",
    "area": "43.62",
    "rooms": "1室1厅",
    "direction": "南",
    "floor": "",
    "price": "4900",
    "tags": "",
    "source": "",
    "url": "https://sh.lianjia.com/zufang/SH2152729367631888384.html",
    "rent_type": "整租",
    "location": "长宁-北新泾-广友小区",
    "scraped_at": "2026-04-23 13:14:22",
    "region": "beixinjing",
    "unit_price": 112.3,
    "lat": 31.2173,
    "lng": 121.35475
  },
  {
    "title": "整租·仙霞大郡 3室2厅 南",
    "community": "仙霞大郡",
    "area": "106.68",
    "rooms": "3室2厅",
    "direction": "南",
    "floor": "",
    "price": "8000",
    "tags": "",
    "source": "",
    "url": "https://sh.lianjia.com/zufang/SH2148337004067160064.html",
    "rent_type": "整租",
    "location": "长宁-北新泾-仙霞大郡",
    "scraped_at": "2026-04-23 13:14:22",
    "region": "beixinjing",
    "unit_price": 75.0,
    "lat": 31.2112,
    "lng": 121.3698
  },
  {
    "title": "独栋·中海友里 虹桥国际公寓 品质留学生人才公寓 最高可以减免4000元/月 开间",
    "community": "中海友里 虹桥国际公寓 品质留学生人才公寓 最高可以减免4000元/月 开间",
    "area": "33.00",
    "rooms": "",
    "direction": "",
    "floor": "",
    "price": "5500",
    "tags": "",
    "source": "",
    "url": "https://sh.lianjia.com/apartment/54055.html",
    "rent_type": "独栋",
    "location": "",
    "scraped_at": "2026-04-23 13:14:22",
    "region": "beixinjing",
    "unit_price": 166.7,
    "lat": 31.204382,
    "lng": 121.484343
  },
  {
    "title": "整租·永馨小区 2室0厅 南",
    "community": "永馨小区",
    "area": "46.79",
    "rooms": "2室0厅",
    "direction": "南",
    "floor": "",
    "price": "4500",
    "tags": "",
    "source": "",
    "url": "https://sh.lianjia.com/zufang/SH2142208543300780032.html",
    "rent_type": "整租",
    "location": "长宁-北新泾-永馨小区",
    "scraped_at": "2026-04-23 13:14:22",
    "region": "beixinjing",
    "unit_price": 96.2,
    "lat": 31.21083,
    "lng": 121.36886
  },
  {
    "title": "独栋·城家公寓 城家公寓上海虹桥一元社区店 24H安保系统！电子门禁系统！高安全保障！ 开间",
    "community": "城家公寓 城家公寓上海虹桥一元社区店 24H安保系统！电子门禁系统！高安全保障！ 开间",
    "area": "32.30",
    "rooms": "",
    "direction": "",
    "floor": "",
    "price": "2100-2800",
    "tags": "",
    "source": "",
    "url": "https://sh.lianjia.com/apartment/94295.html",
    "rent_type": "独栋",
    "location": "",
    "scraped_at": "2026-04-23 13:14:22",
    "region": "beixinjing",
    "unit_price": "",
    "lat": 31.262481,
    "lng": 121.335426
  },
  {
    "title": "整租·金菊小区 2室1厅 南/北",
    "community": "金菊小区",
    "area": "60.58",
    "rooms": "2室1厅",
    "direction": "南/北",
    "floor": "",
    "price": "5600",
    "tags": "",
    "source": "",
    "url": "https://sh.lianjia.com/zufang/SH2154591460891033600.html",
    "rent_type": "整租",
    "location": "长宁-北新泾-金菊小区",
    "scraped_at": "2026-04-23 13:14:22",
    "region": "beixinjing",
    "unit_price": 92.4,
    "lat": 48.068095,
    "lng": 86.412001
  },
  {
    "title": "整租·仙霞里 3室2厅 南",
    "community": "仙霞里",
    "area": "131.03",
    "rooms": "3室2厅",
    "direction": "南",
    "floor": "",
    "price": "10000",
    "tags": "",
    "source": "",
    "url": "https://sh.lianjia.com/zufang/SH2154106552003330048.html",
    "rent_type": "整租",
    "location": "长宁-北新泾-仙霞里",
    "scraped_at": "2026-04-23 13:14:22",
    "region": "beixinjing",
    "unit_price": 76.3,
    "lat": 40.11647,
    "lng": 116.44741
  },
  {
    "title": "整租·紫竹小区 1室1厅 南",
    "community": "紫竹小区",
    "area": "33.81",
    "rooms": "1室1厅",
    "direction": "南",
    "floor": "",
    "price": "4600",
    "tags": "",
    "source": "",
    "url": "https://sh.lianjia.com/zufang/SH2151332835837870080.html",
    "rent_type": "整租",
    "location": "长宁-北新泾-紫竹小区",
    "scraped_at": "2026-04-23 13:14:22",
    "region": "beixinjing",
    "unit_price": 136.1,
    "lat": 31.21603,
    "lng": 121.36462
  },
  {
    "title": "独栋·城家公寓 城家高级公寓上海虹桥临空淞虹路地铁站店 近2号线地铁沿线地段/【免费健身房】 2号线淞虹路站200米！近携程！ 开间",
    "community": "城家公寓 城家高级公寓上海虹桥临空淞虹路地铁站店 近2号线地铁沿线地段/【免费健身房】 2号线淞虹路站200米！近携程！ 开间",
    "area": "40.00",
    "rooms": "",
    "direction": "",
    "floor": "",
    "price": "5800",
    "tags": "",
    "source": "",
    "url": "https://sh.lianjia.com/apartment/521.html",
    "rent_type": "独栋",
    "location": "",
    "scraped_at": "2026-04-23 13:14:22",
    "region": "beixinjing",
    "unit_price": 145.0,
    "lat": 31.229644,
    "lng": 121.333322
  },
  {
    "title": "整租·华松西区（仙霞西路700弄） 2室1厅 南",
    "community": "华松西区（仙霞西路700弄）",
    "area": "78.84",
    "rooms": "2室1厅",
    "direction": "南",
    "floor": "",
    "price": "5600",
    "tags": "",
    "source": "",
    "url": "https://sh.lianjia.com/zufang/SH2417449680314580992.html",
    "rent_type": "整租",
    "location": "长宁-北新泾-华松西区",
    "scraped_at": "2026-04-23 13:14:22",
    "region": "beixinjing",
    "unit_price": 71.0,
    "lat": 31.21305,
    "lng": 121.35266
  },
  {
    "title": "独栋·创湾里公寓 北翟路店 临空SOHO性价比房源 1室1厅",
    "community": "创湾里公寓 北翟路店 临空SOHO性价比房源",
    "area": "40.00",
    "rooms": "1室1厅",
    "direction": "",
    "floor": "",
    "price": "3700",
    "tags": "",
    "source": "",
    "url": "https://sh.lianjia.com/apartment/61223.html",
    "rent_type": "独栋",
    "location": "",
    "scraped_at": "2026-04-23 13:14:22",
    "region": "beixinjing",
    "unit_price": 92.5,
    "lat": 31.222853,
    "lng": 121.345192
  },
  {
    "title": "整租·绿园十二村 2室1厅 南",
    "community": "绿园十二村",
    "area": "60.40",
    "rooms": "2室1厅",
    "direction": "南",
    "floor": "",
    "price": "4700",
    "tags": "",
    "source": "",
    "url": "https://sh.lianjia.com/zufang/SH2144413057823014912.html",
    "rent_type": "整租",
    "location": "长宁-北新泾-绿园十二村",
    "scraped_at": "2026-04-23 13:14:22",
    "region": "beixinjing",
    "unit_price": 77.8,
    "lat": 31.20559,
    "lng": 121.35483
  },
  {
    "title": "独栋·创湾里公寓 北翟路店 临空天会IBP小一室一厅房源 1室1厅",
    "community": "创湾里公寓 北翟路店 临空天会IBP小一室一厅房源",
    "area": "32.00",
    "rooms": "1室1厅",
    "direction": "",
    "floor": "",
    "price": "3150-3400",
    "tags": "",
    "source": "",
    "url": "https://sh.lianjia.com/apartment/61223.html",
    "rent_type": "独栋",
    "location": "",
    "scraped_at": "2026-04-23 13:14:22",
    "region": "beixinjing",
    "unit_price": "",
    "lat": 31.222853,
    "lng": 121.345192
  },
  {
    "title": "整租·华松西区（仙霞西路700弄） 1室1厅 南",
    "community": "华松西区（仙霞西路700弄）",
    "area": "56.86",
    "rooms": "1室1厅",
    "direction": "南",
    "floor": "",
    "price": "4515",
    "tags": "",
    "source": "",
    "url": "https://sh.lianjia.com/zufang/SH1925791540806942720.html",
    "rent_type": "整租",
    "location": "长宁-北新泾-华松西区",
    "scraped_at": "2026-04-23 13:14:22",
    "region": "beixinjing",
    "unit_price": 79.4,
    "lat": 31.21305,
    "lng": 121.35266
  },
  {
    "title": "独栋·创湾里公寓 北翟路店 半年起租 凌空临空经济园区 开间一室户 1室1厅",
    "community": "创湾里公寓 北翟路店 半年起租 凌空临空经济园区 开间一室户",
    "area": "35.00",
    "rooms": "1室1厅",
    "direction": "",
    "floor": "",
    "price": "3350",
    "tags": "",
    "source": "",
    "url": "https://sh.lianjia.com/apartment/61223.html",
    "rent_type": "独栋",
    "location": "",
    "scraped_at": "2026-04-23 13:14:22",
    "region": "beixinjing",
    "unit_price": 95.7,
    "lat": 31.222853,
    "lng": 121.345192
  },
  {
    "title": "整租·馨兰小区 2室1厅 南/北",
    "community": "馨兰小区",
    "area": "58.74",
    "rooms": "2室1厅",
    "direction": "南/北",
    "floor": "",
    "price": "4935",
    "tags": "",
    "source": "",
    "url": "https://sh.lianjia.com/zufang/SH2000948312626167808.html",
    "rent_type": "整租",
    "location": "长宁-北新泾-馨兰小区",
    "scraped_at": "2026-04-23 13:14:22",
    "region": "beixinjing",
    "unit_price": 84.0,
    "lat": 31.20957,
    "lng": 121.357
  },
  {
    "title": "整租·天蒲小区 1室0厅 南",
    "community": "天蒲小区",
    "area": "44.68",
    "rooms": "1室0厅",
    "direction": "南",
    "floor": "",
    "price": "5500",
    "tags": "",
    "source": "",
    "url": "https://sh.lianjia.com/zufang/SH2154801747401375744.html",
    "rent_type": "整租",
    "location": "长宁-北新泾-天蒲小区",
    "scraped_at": "2026-04-23 13:14:22",
    "region": "beixinjing",
    "unit_price": 123.1,
    "lat": 31.21897,
    "lng": 121.36976
  },
  {
    "title": "独栋·城家公寓 城家公寓上海虹桥一元社区店 品质装修！拎包入住！免费班车！品牌家具！家电全配！ 开间",
    "community": "城家公寓 城家公寓上海虹桥一元社区店 品质装修！拎包入住！免费班车！品牌家具！家电全配！ 开间",
    "area": "41.00",
    "rooms": "",
    "direction": "",
    "floor": "",
    "price": "3500",
    "tags": "",
    "source": "",
    "url": "https://sh.lianjia.com/apartment/94295.html",
    "rent_type": "独栋",
    "location": "",
    "scraped_at": "2026-04-23 13:14:22",
    "region": "beixinjing",
    "unit_price": 85.4,
    "lat": 31.262481,
    "lng": 121.335426
  },
  {
    "title": "整租·长宁馥邦苑 2室2厅 南",
    "community": "长宁馥邦苑",
    "area": "102.59",
    "rooms": "2室2厅",
    "direction": "南",
    "floor": "",
    "price": "9500",
    "tags": "",
    "source": "",
    "url": "https://sh.lianjia.com/zufang/SH2143310640557588480.html",
    "rent_type": "整租",
    "location": "长宁-北新泾-长宁馥邦苑",
    "scraped_at": "2026-04-23 13:14:22",
    "region": "beixinjing",
    "unit_price": 92.6,
    "lat": 31.220014,
    "lng": 121.36886
  },
  {
    "title": "整租·新泾五村 2室1厅 南",
    "community": "新泾五村",
    "area": "76.87",
    "rooms": "2室1厅",
    "direction": "南",
    "floor": "",
    "price": "7200",
    "tags": "",
    "source": "",
    "url": "https://sh.lianjia.com/zufang/SH2155174686634278912.html",
    "rent_type": "整租",
    "location": "长宁-北新泾-新泾五村",
    "scraped_at": "2026-04-23 13:14:22",
    "region": "beixinjing",
    "unit_price": 93.7,
    "lat": 31.22105,
    "lng": 121.36189
  },
  {
    "title": "独栋·城家公寓 城家公寓上海虹桥一元社区店 24H安保系统！电子门禁系统！免费班车！拎包入住！ 开间",
    "community": "城家公寓 城家公寓上海虹桥一元社区店 24H安保系统！电子门禁系统！免费班车！拎包入住！ 开间",
    "area": "23.80",
    "rooms": "",
    "direction": "",
    "floor": "",
    "price": "2650",
    "tags": "",
    "source": "",
    "url": "https://sh.lianjia.com/apartment/94295.html",
    "rent_type": "独栋",
    "location": "",
    "scraped_at": "2026-04-23 13:14:22",
    "region": "beixinjing",
    "unit_price": 111.3,
    "lat": 31.262481,
    "lng": 121.335426
  },
  {
    "title": "整租·新泾七村 2室1厅 南",
    "community": "新泾七村",
    "area": "43.74",
    "rooms": "2室1厅",
    "direction": "南",
    "floor": "",
    "price": "4800",
    "tags": "",
    "source": "",
    "url": "https://sh.lianjia.com/zufang/SH1858810743651041280.html",
    "rent_type": "整租",
    "location": "长宁-北新泾-新泾七村",
    "scraped_at": "2026-04-23 13:14:22",
    "region": "beixinjing",
    "unit_price": 109.7,
    "lat": 31.22115,
    "lng": 121.35865
  },
  {
    "title": "独栋·城家公寓 城家高级公寓上海虹桥临空淞虹路地铁站店 【特价房】免费健身！凌空SOHO！无中介费！2号线200米！ 开间",
    "community": "城家公寓 城家高级公寓上海虹桥临空淞虹路地铁站店 【特价房】免费健身！凌空SOHO！无中介费！2号线200米！ 开间",
    "area": "28.00",
    "rooms": "",
    "direction": "",
    "floor": "",
    "price": "4500",
    "tags": "",
    "source": "",
    "url": "https://sh.lianjia.com/apartment/521.html",
    "rent_type": "独栋",
    "location": "",
    "scraped_at": "2026-04-23 13:14:22",
    "region": "beixinjing",
    "unit_price": 160.7,
    "lat": 31.212414,
    "lng": 121.362889
  },
  {
    "title": "整租·可乐公馆 2室1厅 南",
    "community": "可乐公馆",
    "area": "35.83",
    "rooms": "2室1厅",
    "direction": "南",
    "floor": "",
    "price": "4300",
    "tags": "",
    "source": "",
    "url": "https://sh.lianjia.com/zufang/SH1895793157178654720.html",
    "rent_type": "整租",
    "location": "长宁-北新泾-可乐公馆",
    "scraped_at": "2026-04-23 13:14:22",
    "region": "beixinjing",
    "unit_price": 120.0,
    "lat": 31.208,
    "lng": 121.35535
  },
  {
    "title": "独栋·城家公寓 城家高级公寓上海虹桥临空淞虹路地铁站店 毕业季押金减半/近凌空SOHO广场/荟聚/大融城/地铁直达中山公园/静安寺/外滩 开间",
    "community": "城家公寓 城家高级公寓上海虹桥临空淞虹路地铁站店 毕业季押金减半/近凌空SOHO广场/荟聚/大融城/地铁直达中山公园/静安寺/外滩 开间",
    "area": "40.00",
    "rooms": "",
    "direction": "",
    "floor": "",
    "price": "5800",
    "tags": "",
    "source": "",
    "url": "https://sh.lianjia.com/apartment/521.html",
    "rent_type": "独栋",
    "location": "",
    "scraped_at": "2026-04-23 13:14:22",
    "region": "beixinjing",
    "unit_price": 145.0,
    "lat": 31.216708,
    "lng": 121.353335
  },
  {
    "title": "整租·永馨小区 2室1厅 南/北",
    "community": "永馨小区",
    "area": "81.15",
    "rooms": "2室1厅",
    "direction": "南/北",
    "floor": "",
    "price": "7500",
    "tags": "",
    "source": "",
    "url": "https://sh.lianjia.com/zufang/SH2156362222694039552.html",
    "rent_type": "整租",
    "location": "长宁-北新泾-永馨小区",
    "scraped_at": "2026-04-23 13:14:22",
    "region": "beixinjing",
    "unit_price": 92.4,
    "lat": 31.21083,
    "lng": 121.36886
  },
  {
    "title": "整租·可乐公馆 2室1厅 南",
    "community": "可乐公馆",
    "area": "56.15",
    "rooms": "2室1厅",
    "direction": "南",
    "floor": "",
    "price": "6200",
    "tags": "",
    "source": "",
    "url": "https://sh.lianjia.com/zufang/SH2151552032236896256.html",
    "rent_type": "整租",
    "location": "长宁-北新泾-可乐公馆",
    "scraped_at": "2026-04-23 13:14:22",
    "region": "beixinjing",
    "unit_price": 110.4,
    "lat": 31.208,
    "lng": 121.35535
  },
  {
    "title": "整租·通协小区 2室2厅 南/北",
    "community": "通协小区",
    "area": "103.44",
    "rooms": "2室2厅",
    "direction": "南/北",
    "floor": "",
    "price": "8200",
    "tags": "",
    "source": "",
    "url": "https://sh.lianjia.com/zufang/SH2144647119917547520.html",
    "rent_type": "整租",
    "location": "长宁-北新泾-通协小区",
    "scraped_at": "2026-04-23 13:14:22",
    "region": "beixinjing",
    "unit_price": 79.3,
    "lat": 31.22733,
    "lng": 121.3548
  },
  {
    "title": "整租·樱源晶舍 3室2厅 南",
    "community": "樱源晶舍",
    "area": "123.47",
    "rooms": "3室2厅",
    "direction": "南",
    "floor": "",
    "price": "11500",
    "tags": "",
    "source": "",
    "url": "https://sh.lianjia.com/zufang/SH2145104756664696832.html",
    "rent_type": "整租",
    "location": "长宁-北新泾-樱源晶舍",
    "scraped_at": "2026-04-23 13:14:22",
    "region": "beixinjing",
    "unit_price": 93.1,
    "lat": 31.20444,
    "lng": 121.3567
  },
  {
    "title": "整租·沁秋小区 1室0厅 南",
    "community": "沁秋小区",
    "area": "36.07",
    "rooms": "1室0厅",
    "direction": "南",
    "floor": "",
    "price": "4300",
    "tags": "",
    "source": "",
    "url": "https://sh.lianjia.com/zufang/SH2017541121923612672.html",
    "rent_type": "整租",
    "location": "长宁-北新泾-沁秋小区",
    "scraped_at": "2026-04-23 13:14:28",
    "region": "beixinjing",
    "unit_price": 119.2,
    "lat": 31.21255,
    "lng": 121.35696
  },
  {
    "title": "整租·樱源晶舍 3室2厅 南/北",
    "community": "樱源晶舍",
    "area": "127.00",
    "rooms": "3室2厅",
    "direction": "南/北",
    "floor": "",
    "price": "13000",
    "tags": "",
    "source": "",
    "url": "https://sh.lianjia.com/zufang/SH2146110661782929408.html",
    "rent_type": "整租",
    "location": "长宁-北新泾-樱源晶舍",
    "scraped_at": "2026-04-23 13:14:28",
    "region": "beixinjing",
    "unit_price": 102.4,
    "lat": 31.20444,
    "lng": 121.3567
  },
  {
    "title": "整租·瑞冬小区 2室1厅 南",
    "community": "瑞冬小区",
    "area": "66.94",
    "rooms": "2室1厅",
    "direction": "南",
    "floor": "",
    "price": "6500",
    "tags": "",
    "source": "",
    "url": "https://sh.lianjia.com/zufang/SH2009627326559551488.html",
    "rent_type": "整租",
    "location": "长宁-北新泾-瑞冬小区",
    "scraped_at": "2026-04-23 13:14:28",
    "region": "beixinjing",
    "unit_price": 97.1,
    "lat": 31.21629,
    "lng": 121.3615
  },
  {
    "title": "独栋·创湾里公寓 北翟路店 凌空建滔 西式岛台房 1室1厅",
    "community": "创湾里公寓 北翟路店 凌空建滔 西式岛台房",
    "area": "45.00",
    "rooms": "1室1厅",
    "direction": "",
    "floor": "",
    "price": "4600",
    "tags": "",
    "source": "",
    "url": "https://sh.lianjia.com/apartment/61223.html",
    "rent_type": "独栋",
    "location": "",
    "scraped_at": "2026-04-23 13:14:28",
    "region": "beixinjing",
    "unit_price": 102.2,
    "lat": 31.201767,
    "lng": 121.583756
  },
  {
    "title": "整租·新泾二村 1室1厅 南",
    "community": "新泾二村",
    "area": "32.00",
    "rooms": "1室1厅",
    "direction": "南",
    "floor": "",
    "price": "4500",
    "tags": "",
    "source": "",
    "url": "https://sh.lianjia.com/zufang/SH2026900579246145536.html",
    "rent_type": "整租",
    "location": "长宁-北新泾-新泾二村",
    "scraped_at": "2026-04-23 13:14:28",
    "region": "beixinjing",
    "unit_price": 140.6,
    "lat": 31.2173,
    "lng": 121.36875
  },
  {
    "title": "独栋·创湾里公寓 北翟路店 虹桥商务区 凌空soho岛台户型 1室1厅",
    "community": "创湾里公寓 北翟路店 虹桥商务区 凌空soho岛台户型",
    "area": "45.00",
    "rooms": "1室1厅",
    "direction": "",
    "floor": "",
    "price": "3750",
    "tags": "",
    "source": "",
    "url": "https://sh.lianjia.com/apartment/61223.html",
    "rent_type": "独栋",
    "location": "",
    "scraped_at": "2026-04-23 13:14:28",
    "region": "beixinjing",
    "unit_price": 83.3,
    "lat": 31.178596,
    "lng": 121.330912
  },
  {
    "title": "整租·永馨小区 1室0厅 南",
    "community": "永馨小区",
    "area": "32.21",
    "rooms": "1室0厅",
    "direction": "南",
    "floor": "",
    "price": "3675",
    "tags": "",
    "source": "",
    "url": "https://sh.lianjia.com/zufang/SH2067597748470808576.html",
    "rent_type": "整租",
    "location": "长宁-北新泾-永馨小区",
    "scraped_at": "2026-04-23 13:14:28",
    "region": "beixinjing",
    "unit_price": 114.1,
    "lat": 31.21083,
    "lng": 121.36886
  },
  {
    "title": "整租·剑河家苑 2室1厅 南",
    "community": "剑河家苑",
    "area": "55.00",
    "rooms": "2室1厅",
    "direction": "南",
    "floor": "",
    "price": "6800",
    "tags": "",
    "source": "",
    "url": "https://sh.lianjia.com/zufang/SH2142215786670850048.html",
    "rent_type": "整租",
    "location": "长宁-北新泾-剑河家苑",
    "scraped_at": "2026-04-23 13:14:28",
    "region": "beixinjing",
    "unit_price": 123.6,
    "lat": 31.22264,
    "lng": 121.36526
  },
  {
    "title": "整租·新泾三村 1室0厅 南",
    "community": "新泾三村",
    "area": "29.95",
    "rooms": "1室0厅",
    "direction": "南",
    "floor": "",
    "price": "4000",
    "tags": "",
    "source": "",
    "url": "https://sh.lianjia.com/zufang/SH1972570872786976768.html",
    "rent_type": "整租",
    "location": "长宁-北新泾-新泾三村",
    "scraped_at": "2026-04-23 13:14:28",
    "region": "beixinjing",
    "unit_price": 133.6,
    "lat": 31.21793,
    "lng": 121.36461
  },
  {
    "title": "独栋·创湾里公寓 北翟路店 2号线淞虹路超大阳台房 开间",
    "community": "创湾里公寓 北翟路店 2号线淞虹路超大阳台房 开间",
    "area": "55.00",
    "rooms": "",
    "direction": "",
    "floor": "",
    "price": "5000",
    "tags": "",
    "source": "",
    "url": "https://sh.lianjia.com/apartment/61223.html",
    "rent_type": "独栋",
    "location": "",
    "scraped_at": "2026-04-23 13:14:28",
    "region": "beixinjing",
    "unit_price": 90.9,
    "lat": 31.222853,
    "lng": 121.345192
  },
  {
    "title": "整租·剑河家苑 1室1厅 南",
    "community": "剑河家苑",
    "area": "55.00",
    "rooms": "1室1厅",
    "direction": "南",
    "floor": "",
    "price": "5250",
    "tags": "",
    "source": "",
    "url": "https://sh.lianjia.com/zufang/SH2044079475301285888.html",
    "rent_type": "整租",
    "location": "长宁-北新泾-剑河家苑",
    "scraped_at": "2026-04-23 13:14:28",
    "region": "beixinjing",
    "unit_price": 95.5,
    "lat": 31.22264,
    "lng": 121.36526
  },
  {
    "title": "整租·通协小区 1室1厅 南",
    "community": "通协小区",
    "area": "54.31",
    "rooms": "1室1厅",
    "direction": "南",
    "floor": "",
    "price": "5560",
    "tags": "",
    "source": "",
    "url": "https://sh.lianjia.com/zufang/SH1982275693815267328.html",
    "rent_type": "整租",
    "location": "长宁-北新泾-通协小区",
    "scraped_at": "2026-04-23 13:14:28",
    "region": "beixinjing",
    "unit_price": 102.4,
    "lat": 31.22733,
    "lng": 121.3548
  },
  {
    "title": "整租·新泾七村 1室0厅 南",
    "community": "新泾七村",
    "area": "33.31",
    "rooms": "1室0厅",
    "direction": "南",
    "floor": "",
    "price": "4700",
    "tags": "",
    "source": "",
    "url": "https://sh.lianjia.com/zufang/SH1850153724014493696.html",
    "rent_type": "整租",
    "location": "长宁-北新泾-新泾七村",
    "scraped_at": "2026-04-23 13:14:28",
    "region": "beixinjing",
    "unit_price": 141.1,
    "lat": 31.22115,
    "lng": 121.35865
  },
  {
    "title": "整租·新泾七村 2室1厅 南",
    "community": "新泾七村",
    "area": "46.05",
    "rooms": "2室1厅",
    "direction": "南",
    "floor": "",
    "price": "4782",
    "tags": "",
    "source": "",
    "url": "https://sh.lianjia.com/zufang/SH1980967602997952512.html",
    "rent_type": "整租",
    "location": "长宁-北新泾-新泾七村",
    "scraped_at": "2026-04-23 13:14:28",
    "region": "beixinjing",
    "unit_price": 103.8,
    "lat": 31.22115,
    "lng": 121.35865
  },
  {
    "title": "整租·馨兰小区 2室1厅 南",
    "community": "馨兰小区",
    "area": "69.65",
    "rooms": "2室1厅",
    "direction": "南",
    "floor": "",
    "price": "5565",
    "tags": "",
    "source": "",
    "url": "https://sh.lianjia.com/zufang/SH2047291652850057216.html",
    "rent_type": "整租",
    "location": "长宁-北新泾-馨兰小区",
    "scraped_at": "2026-04-23 13:14:28",
    "region": "beixinjing",
    "unit_price": 79.9,
    "lat": 31.20957,
    "lng": 121.357
  },
  {
    "title": "整租·蒲淞北路35号 1室1厅 南",
    "community": "蒲淞北路35号",
    "area": "41.38",
    "rooms": "1室1厅",
    "direction": "南",
    "floor": "",
    "price": "5260",
    "tags": "",
    "source": "",
    "url": "https://sh.lianjia.com/zufang/SH1781136030854807552.html",
    "rent_type": "整租",
    "location": "长宁-北新泾-蒲淞北路",
    "scraped_at": "2026-04-23 13:14:28",
    "region": "beixinjing",
    "unit_price": 127.1,
    "lat": 31.218843,
    "lng": 121.375153
  },
  {
    "title": "整租·馨兰小区 2室1厅 南",
    "community": "馨兰小区",
    "area": "58.54",
    "rooms": "2室1厅",
    "direction": "南",
    "floor": "",
    "price": "5460",
    "tags": "",
    "source": "",
    "url": "https://sh.lianjia.com/zufang/SH2031650356177403904.html",
    "rent_type": "整租",
    "location": "长宁-北新泾-馨兰小区",
    "scraped_at": "2026-04-23 13:14:28",
    "region": "beixinjing",
    "unit_price": 93.3,
    "lat": 31.20957,
    "lng": 121.357
  },
  {
    "title": "整租·淞虹公寓 2室1厅 南",
    "community": "淞虹公寓",
    "area": "76.33",
    "rooms": "2室1厅",
    "direction": "南",
    "floor": "",
    "price": "7200",
    "tags": "",
    "source": "",
    "url": "https://sh.lianjia.com/zufang/SH2150426244951310336.html",
    "rent_type": "整租",
    "location": "长宁-北新泾-淞虹公寓",
    "scraped_at": "2026-04-23 13:14:28",
    "region": "beixinjing",
    "unit_price": 94.3,
    "lat": 31.21515,
    "lng": 121.35368
  },
  {
    "title": "整租·金菊小区 2室1厅 南",
    "community": "金菊小区",
    "area": "56.28",
    "rooms": "2室1厅",
    "direction": "南",
    "floor": "",
    "price": "4937",
    "tags": "",
    "source": "",
    "url": "https://sh.lianjia.com/zufang/SH1898596725648523264.html",
    "rent_type": "整租",
    "location": "长宁-北新泾-金菊小区",
    "scraped_at": "2026-04-23 13:14:28",
    "region": "beixinjing",
    "unit_price": 87.7,
    "lat": 48.068095,
    "lng": 86.412001
  },
  {
    "title": "整租·新泾一村 1室1厅 南",
    "community": "新泾一村",
    "area": "32.00",
    "rooms": "1室1厅",
    "direction": "南",
    "floor": "",
    "price": "4400",
    "tags": "",
    "source": "",
    "url": "https://sh.lianjia.com/zufang/SH1776117434722287616.html",
    "rent_type": "整租",
    "location": "长宁-北新泾-新泾一村",
    "scraped_at": "2026-04-23 13:14:28",
    "region": "beixinjing",
    "unit_price": 137.5,
    "lat": 31.22044,
    "lng": 121.36651
  },
  {
    "title": "整租·铭晖西郊苑 2室2厅 南",
    "community": "铭晖西郊苑",
    "area": "92.00",
    "rooms": "2室2厅",
    "direction": "南",
    "floor": "",
    "price": "8500",
    "tags": "",
    "source": "",
    "url": "https://sh.lianjia.com/zufang/SH2148270494137188352.html",
    "rent_type": "整租",
    "location": "长宁-北新泾-铭晖西郊苑",
    "scraped_at": "2026-04-23 13:14:28",
    "region": "beixinjing",
    "unit_price": 92.4,
    "lat": 31.21363,
    "lng": 121.37108
  },
  {
    "title": "整租·新泾二村 2室1厅 南",
    "community": "新泾二村",
    "area": "52.78",
    "rooms": "2室1厅",
    "direction": "南",
    "floor": "",
    "price": "6390",
    "tags": "",
    "source": "",
    "url": "https://sh.lianjia.com/zufang/SH1823699897308676096.html",
    "rent_type": "整租",
    "location": "长宁-北新泾-新泾二村",
    "scraped_at": "2026-04-23 13:14:28",
    "region": "beixinjing",
    "unit_price": 121.1,
    "lat": 31.2173,
    "lng": 121.36875
  },
  {
    "title": "整租·天蒲小区 2室1厅 南",
    "community": "天蒲小区",
    "area": "59.04",
    "rooms": "2室1厅",
    "direction": "南",
    "floor": "",
    "price": "6900",
    "tags": "",
    "source": "",
    "url": "https://sh.lianjia.com/zufang/SH1925793557721907200.html",
    "rent_type": "整租",
    "location": "长宁-北新泾-天蒲小区",
    "scraped_at": "2026-04-23 13:14:28",
    "region": "beixinjing",
    "unit_price": 116.9,
    "lat": 31.21897,
    "lng": 121.36976
  },
  {
    "title": "整租·新泾五村 2室1厅 南",
    "community": "新泾五村",
    "area": "60.92",
    "rooms": "2室1厅",
    "direction": "南",
    "floor": "",
    "price": "5990",
    "tags": "",
    "source": "",
    "url": "https://sh.lianjia.com/zufang/SH1906281771364777984.html",
    "rent_type": "整租",
    "location": "长宁-北新泾-新泾五村",
    "scraped_at": "2026-04-23 13:14:28",
    "region": "beixinjing",
    "unit_price": 98.3,
    "lat": 31.22105,
    "lng": 121.36189
  },
  {
    "title": "整租·新泾八村 2室1厅 南",
    "community": "新泾八村",
    "area": "66.40",
    "rooms": "2室1厅",
    "direction": "南",
    "floor": "",
    "price": "6825",
    "tags": "",
    "source": "",
    "url": "https://sh.lianjia.com/zufang/SH1814678459402682368.html",
    "rent_type": "整租",
    "location": "长宁-北新泾-新泾八村",
    "scraped_at": "2026-04-23 13:14:28",
    "region": "beixinjing",
    "unit_price": 102.8,
    "lat": 31.21883,
    "lng": 121.3587
  },
  {
    "title": "独栋·虹桥人才公寓 西区 年租，一眼心动落地窗，24小时安保监控，贴心服务，入住无忧 开间",
    "community": "虹桥人才公寓 西区 年租，一眼心动落地窗，24小时安保监控，贴心服务，入住无忧 开间",
    "area": "40.00",
    "rooms": "",
    "direction": "",
    "floor": "",
    "price": "4437",
    "tags": "",
    "source": "",
    "url": "https://sh.lianjia.com/apartment/95255.html",
    "rent_type": "独栋",
    "location": "",
    "scraped_at": "2026-04-23 13:14:28",
    "region": "beixinjing",
    "unit_price": 110.9,
    "lat": 31.216458,
    "lng": 121.3481
  },
  {
    "title": "整租·新泾一村 2室1厅 南",
    "community": "新泾一村",
    "area": "45.71",
    "rooms": "2室1厅",
    "direction": "南",
    "floor": "",
    "price": "4800",
    "tags": "",
    "source": "",
    "url": "https://sh.lianjia.com/zufang/SH2137894388422934528.html",
    "rent_type": "整租",
    "location": "长宁-北新泾-新泾一村",
    "scraped_at": "2026-04-23 13:14:28",
    "region": "beixinjing",
    "unit_price": 105.0,
    "lat": 31.22044,
    "lng": 121.36651
  },
  {
    "title": "整租·金钟小区 2室1厅 南",
    "community": "金钟小区",
    "area": "59.78",
    "rooms": "2室1厅",
    "direction": "南",
    "floor": "",
    "price": "5900",
    "tags": "",
    "source": "",
    "url": "https://sh.lianjia.com/zufang/SH2122699973958041600.html",
    "rent_type": "整租",
    "location": "长宁-北新泾-金钟小区",
    "scraped_at": "2026-04-23 13:14:28",
    "region": "beixinjing",
    "unit_price": 98.7,
    "lat": 31.220708,
    "lng": 121.363565
  },
  {
    "title": "整租·新泾二村 1室1厅 南",
    "community": "新泾二村",
    "area": "32.00",
    "rooms": "1室1厅",
    "direction": "南",
    "floor": "",
    "price": "4500",
    "tags": "",
    "source": "",
    "url": "https://sh.lianjia.com/zufang/SH2154090654643257344.html",
    "rent_type": "整租",
    "location": "长宁-北新泾-新泾二村",
    "scraped_at": "2026-04-23 13:14:28",
    "region": "beixinjing",
    "unit_price": 140.6,
    "lat": 31.2173,
    "lng": 121.36875
  },
  {
    "title": "整租·新泾四村 2室1厅 南",
    "community": "新泾四村",
    "area": "58.74",
    "rooms": "2室1厅",
    "direction": "南",
    "floor": "",
    "price": "5700",
    "tags": "",
    "source": "",
    "url": "https://sh.lianjia.com/zufang/SH2146515467915755520.html",
    "rent_type": "整租",
    "location": "长宁-北新泾-新泾四村",
    "scraped_at": "2026-04-23 13:14:28",
    "region": "beixinjing",
    "unit_price": 97.0,
    "lat": 31.21885,
    "lng": 121.36217
  },
  {
    "title": "整租·瑞冬小区 1室1厅 南",
    "community": "瑞冬小区",
    "area": "44.63",
    "rooms": "1室1厅",
    "direction": "南",
    "floor": "",
    "price": "4410",
    "tags": "",
    "source": "",
    "url": "https://sh.lianjia.com/zufang/SH1775776569009111040.html",
    "rent_type": "整租",
    "location": "长宁-北新泾-瑞冬小区",
    "scraped_at": "2026-04-23 13:14:31",
    "region": "beixinjing",
    "unit_price": 98.8,
    "lat": 31.21629,
    "lng": 121.3615
  },
  {
    "title": "整租·新泾一村 2室1厅 东南",
    "community": "新泾一村",
    "area": "53.22",
    "rooms": "2室1厅",
    "direction": "东南",
    "floor": "",
    "price": "5800",
    "tags": "",
    "source": "",
    "url": "https://sh.lianjia.com/zufang/SH2148374930721341440.html",
    "rent_type": "整租",
    "location": "长宁-北新泾-新泾一村",
    "scraped_at": "2026-04-23 13:14:31",
    "region": "beixinjing",
    "unit_price": 109.0,
    "lat": 31.22044,
    "lng": 121.36651
  },
  {
    "title": "整租·新泾七村 2室0厅 南",
    "community": "新泾七村",
    "area": "45.00",
    "rooms": "2室0厅",
    "direction": "南",
    "floor": "",
    "price": "5900",
    "tags": "",
    "source": "",
    "url": "https://sh.lianjia.com/zufang/SH1609543381204074496.html",
    "rent_type": "整租",
    "location": "长宁-北新泾-新泾七村",
    "scraped_at": "2026-04-23 13:14:31",
    "region": "beixinjing",
    "unit_price": 131.1,
    "lat": 31.22115,
    "lng": 121.35865
  },
  {
    "title": "整租·新泾二村 2室1厅 南",
    "community": "新泾二村",
    "area": "52.78",
    "rooms": "2室1厅",
    "direction": "南",
    "floor": "",
    "price": "6390",
    "tags": "",
    "source": "",
    "url": "https://sh.lianjia.com/zufang/SH1823699897308676096.html",
    "rent_type": "整租",
    "location": "长宁-北新泾-新泾二村",
    "scraped_at": "2026-04-23 13:14:31",
    "region": "beixinjing",
    "unit_price": 121.1,
    "lat": 31.2173,
    "lng": 121.36875
  },
  {
    "title": "整租·新泾一村 2室0厅 南",
    "community": "新泾一村",
    "area": "50.00",
    "rooms": "2室0厅",
    "direction": "南",
    "floor": "",
    "price": "5100",
    "tags": "",
    "source": "",
    "url": "https://sh.lianjia.com/zufang/SH1908405943008231424.html",
    "rent_type": "整租",
    "location": "长宁-北新泾-新泾一村",
    "scraped_at": "2026-04-23 13:14:31",
    "region": "beixinjing",
    "unit_price": 102.0,
    "lat": 31.22044,
    "lng": 121.36651
  },
  {
    "title": "整租·新泾五村 2室1厅 南",
    "community": "新泾五村",
    "area": "60.92",
    "rooms": "2室1厅",
    "direction": "南",
    "floor": "",
    "price": "5990",
    "tags": "",
    "source": "",
    "url": "https://sh.lianjia.com/zufang/SH1906281771364777984.html",
    "rent_type": "整租",
    "location": "长宁-北新泾-新泾五村",
    "scraped_at": "2026-04-23 13:14:31",
    "region": "beixinjing",
    "unit_price": 98.3,
    "lat": 31.22105,
    "lng": 121.36189
  },
  {
    "title": "整租·新泾三村 1室0厅 南",
    "community": "新泾三村",
    "area": "30.67",
    "rooms": "1室0厅",
    "direction": "南",
    "floor": "",
    "price": "4300",
    "tags": "",
    "source": "",
    "url": "https://sh.lianjia.com/zufang/SH1767421490443059200.html",
    "rent_type": "整租",
    "location": "长宁-北新泾-新泾三村",
    "scraped_at": "2026-04-23 13:14:31",
    "region": "beixinjing",
    "unit_price": 140.2,
    "lat": 31.21793,
    "lng": 121.36461
  },
  {
    "title": "整租·新泾一村 2室1厅 南",
    "community": "新泾一村",
    "area": "45.71",
    "rooms": "2室1厅",
    "direction": "南",
    "floor": "",
    "price": "4800",
    "tags": "",
    "source": "",
    "url": "https://sh.lianjia.com/zufang/SH2137894388422934528.html",
    "rent_type": "整租",
    "location": "长宁-北新泾-新泾一村",
    "scraped_at": "2026-04-23 13:14:31",
    "region": "beixinjing",
    "unit_price": 105.0,
    "lat": 31.22044,
    "lng": 121.36651
  },
  {
    "title": "整租·馨兰小区 2室1厅 南",
    "community": "馨兰小区",
    "area": "69.63",
    "rooms": "2室1厅",
    "direction": "南",
    "floor": "",
    "price": "5550",
    "tags": "",
    "source": "",
    "url": "https://sh.lianjia.com/zufang/SH1896452263577124864.html",
    "rent_type": "整租",
    "location": "长宁-北新泾-馨兰小区",
    "scraped_at": "2026-04-23 13:14:31",
    "region": "beixinjing",
    "unit_price": 79.7,
    "lat": 31.20957,
    "lng": 121.357
  },
  {
    "title": "独栋·虹桥人才公寓 西区 年租，一眼心动落地窗，24小时安保监控，贴心服务，入住无忧 开间",
    "community": "虹桥人才公寓 西区 年租，一眼心动落地窗，24小时安保监控，贴心服务，入住无忧 开间",
    "area": "40.00",
    "rooms": "",
    "direction": "",
    "floor": "",
    "price": "4437",
    "tags": "",
    "source": "",
    "url": "https://sh.lianjia.com/apartment/95255.html",
    "rent_type": "独栋",
    "location": "",
    "scraped_at": "2026-04-23 13:14:31",
    "region": "beixinjing",
    "unit_price": 110.9,
    "lat": 31.216458,
    "lng": 121.3481
  },
  {
    "title": "整租·天蒲小区 1室0厅 南",
    "community": "天蒲小区",
    "area": "33.00",
    "rooms": "1室0厅",
    "direction": "南",
    "floor": "",
    "price": "4800",
    "tags": "",
    "source": "",
    "url": "https://sh.lianjia.com/zufang/SH1737047899923021824.html",
    "rent_type": "整租",
    "location": "长宁-北新泾-天蒲小区",
    "scraped_at": "2026-04-23 13:14:31",
    "region": "beixinjing",
    "unit_price": 145.5,
    "lat": 31.21897,
    "lng": 121.36976
  },
  {
    "title": "独栋·虹桥人才公寓 西区 年租，阳光落地窗，宠物友好，可办居住证，拎包入住 开间",
    "community": "虹桥人才公寓 西区 年租，阳光落地窗，宠物友好，可办居住证，拎包入住 开间",
    "area": "42.00",
    "rooms": "",
    "direction": "",
    "floor": "",
    "price": "4525",
    "tags": "",
    "source": "",
    "url": "https://sh.lianjia.com/apartment/95255.html",
    "rent_type": "独栋",
    "location": "",
    "scraped_at": "2026-04-23 13:14:31",
    "region": "beixinjing",
    "unit_price": 107.7,
    "lat": 31.216458,
    "lng": 121.3481
  },
  {
    "title": "整租·天蒲小区 1室0厅 南",
    "community": "天蒲小区",
    "area": "34.80",
    "rooms": "1室0厅",
    "direction": "南",
    "floor": "",
    "price": "4000",
    "tags": "",
    "source": "",
    "url": "https://sh.lianjia.com/zufang/SH2014699672110628864.html",
    "rent_type": "整租",
    "location": "长宁-北新泾-天蒲小区",
    "scraped_at": "2026-04-23 13:14:31",
    "region": "beixinjing",
    "unit_price": 114.9,
    "lat": 31.21897,
    "lng": 121.36976
  },
  {
    "title": "独栋·虹桥人才公寓 西区 户型方正两居室/限时福利/ 采光通透/开放式厨房 2室1厅",
    "community": "虹桥人才公寓 西区 户型方正两居室/限时福利/ 采光通透/开放式厨房",
    "area": "78.17",
    "rooms": "2室1厅",
    "direction": "",
    "floor": "",
    "price": "7573-7581",
    "tags": "",
    "source": "",
    "url": "https://sh.lianjia.com/apartment/95255.html",
    "rent_type": "独栋",
    "location": "",
    "scraped_at": "2026-04-23 13:14:31",
    "region": "beixinjing",
    "unit_price": "",
    "lat": 31.216458,
    "lng": 121.3481
  },
  {
    "title": "整租·新泾二村 1室1厅 南",
    "community": "新泾二村",
    "area": "32.00",
    "rooms": "1室1厅",
    "direction": "南",
    "floor": "",
    "price": "4500",
    "tags": "",
    "source": "",
    "url": "https://sh.lianjia.com/zufang/SH2154090654643257344.html",
    "rent_type": "整租",
    "location": "长宁-北新泾-新泾二村",
    "scraped_at": "2026-04-23 13:14:31",
    "region": "beixinjing",
    "unit_price": 140.6,
    "lat": 31.2173,
    "lng": 121.36875
  },
  {
    "title": "独栋·虹桥人才公寓 虹桥店-南区 国企直租 燃气明火 民用水电 宠物友好 3室1厅",
    "community": "虹桥人才公寓 虹桥店-南区 国企直租 燃气明火 民用水电 宠物友好",
    "area": "101.00",
    "rooms": "3室1厅",
    "direction": "",
    "floor": "",
    "price": "9720",
    "tags": "",
    "source": "",
    "url": "https://sh.lianjia.com/apartment/81526.html",
    "rent_type": "独栋",
    "location": "",
    "scraped_at": "2026-04-23 13:14:31",
    "region": "beixinjing",
    "unit_price": 96.2,
    "lat": 31.213846,
    "lng": 121.349025
  },
  {
    "title": "整租·新泾四村 2室1厅 南",
    "community": "新泾四村",
    "area": "58.74",
    "rooms": "2室1厅",
    "direction": "南",
    "floor": "",
    "price": "5700",
    "tags": "",
    "source": "",
    "url": "https://sh.lianjia.com/zufang/SH2146515467915755520.html",
    "rent_type": "整租",
    "location": "长宁-北新泾-新泾四村",
    "scraped_at": "2026-04-23 13:14:31",
    "region": "beixinjing",
    "unit_price": 97.0,
    "lat": 31.21885,
    "lng": 121.36217
  },
  {
    "title": "整租·虹康花苑(二期) 3室2厅 南",
    "community": "虹康花苑(二期)",
    "area": "123.37",
    "rooms": "3室2厅",
    "direction": "南",
    "floor": "",
    "price": "11000",
    "tags": "",
    "source": "",
    "url": "https://sh.lianjia.com/zufang/SH2153729623970545664.html",
    "rent_type": "整租",
    "location": "长宁-北新泾-虹康花苑(二期)",
    "scraped_at": "2026-04-23 13:14:31",
    "region": "beixinjing",
    "unit_price": 89.2,
    "lat": 31.21168,
    "lng": 121.36229
  },
  {
    "title": "独栋·虹桥人才公寓 西区 保租房，整租外窗一居室、实体墙、干湿分离、洗烘一体，年租 开间",
    "community": "虹桥人才公寓 西区 保租房，整租外窗一居室、实体墙、干湿分离、洗烘一体，年租 开间",
    "area": "42.00",
    "rooms": "",
    "direction": "",
    "floor": "",
    "price": "4393",
    "tags": "",
    "source": "",
    "url": "https://sh.lianjia.com/apartment/95255.html",
    "rent_type": "独栋",
    "location": "",
    "scraped_at": "2026-04-23 13:14:31",
    "region": "beixinjing",
    "unit_price": 104.6,
    "lat": 31.216458,
    "lng": 121.3481
  },
  {
    "title": "整租·淞虹新苑 2室2厅 南",
    "community": "淞虹新苑",
    "area": "89.11",
    "rooms": "2室2厅",
    "direction": "南",
    "floor": "",
    "price": "7000",
    "tags": "",
    "source": "",
    "url": "https://sh.lianjia.com/zufang/SH2156726107112472576.html",
    "rent_type": "整租",
    "location": "长宁-北新泾-淞虹新苑",
    "scraped_at": "2026-04-23 13:14:31",
    "region": "beixinjing",
    "unit_price": 78.6,
    "lat": 31.278298,
    "lng": 121.477916
  },
  {
    "title": "整租·北平家园 3室1厅 南/北",
    "community": "北平家园",
    "area": "86.00",
    "rooms": "3室1厅",
    "direction": "南/北",
    "floor": "",
    "price": "8100",
    "tags": "",
    "source": "",
    "url": "https://sh.lianjia.com/zufang/SH2151633942673883136.html",
    "rent_type": "整租",
    "location": "长宁-北新泾-北平家园",
    "scraped_at": "2026-04-23 13:14:31",
    "region": "beixinjing",
    "unit_price": 94.2,
    "lat": 31.22509,
    "lng": 121.35969
  },
  {
    "title": "独栋·虹桥人才公寓 西区 【国企公寓】租房首选/品质公寓/拎包入住/舒适大一居 1室1厅",
    "community": "虹桥人才公寓 西区 【国企公寓】租房首选/品质公寓/拎包入住/舒适大一居",
    "area": "78.17",
    "rooms": "1室1厅",
    "direction": "",
    "floor": "",
    "price": "9191",
    "tags": "",
    "source": "",
    "url": "https://sh.lianjia.com/apartment/95255.html",
    "rent_type": "独栋",
    "location": "",
    "scraped_at": "2026-04-23 13:14:31",
    "region": "beixinjing",
    "unit_price": 117.6,
    "lat": 31.216458,
    "lng": 121.3481
  },
  {
    "title": "整租·虹康花苑(二期) 2室2厅 南/北",
    "community": "虹康花苑(二期)",
    "area": "86.68",
    "rooms": "2室2厅",
    "direction": "南/北",
    "floor": "",
    "price": "7000",
    "tags": "",
    "source": "",
    "url": "https://sh.lianjia.com/zufang/SH2091466242840854528.html",
    "rent_type": "整租",
    "location": "长宁-北新泾-虹康花苑(二期)",
    "scraped_at": "2026-04-23 13:14:31",
    "region": "beixinjing",
    "unit_price": 80.8,
    "lat": 31.21168,
    "lng": 121.36229
  },
  {
    "title": "整租·新泾二村 1室1厅 南",
    "community": "新泾二村",
    "area": "37.10",
    "rooms": "1室1厅",
    "direction": "南",
    "floor": "",
    "price": "4800",
    "tags": "",
    "source": "",
    "url": "https://sh.lianjia.com/zufang/SH2149781142822191104.html",
    "rent_type": "整租",
    "location": "长宁-北新泾-新泾二村",
    "scraped_at": "2026-04-23 13:14:31",
    "region": "beixinjing",
    "unit_price": 129.4,
    "lat": 31.2173,
    "lng": 121.36875
  },
  {
    "title": "整租·广友小区 2室1厅 南",
    "community": "广友小区",
    "area": "59.35",
    "rooms": "2室1厅",
    "direction": "南",
    "floor": "",
    "price": "7200",
    "tags": "",
    "source": "",
    "url": "https://sh.lianjia.com/zufang/SH2155577690487259136.html",
    "rent_type": "整租",
    "location": "长宁-北新泾-广友小区",
    "scraped_at": "2026-04-23 13:14:31",
    "region": "beixinjing",
    "unit_price": 121.3,
    "lat": 31.2173,
    "lng": 121.35475
  },
  {
    "title": "整租·淞虹公寓 2室2厅 南",
    "community": "淞虹公寓",
    "area": "81.64",
    "rooms": "2室2厅",
    "direction": "南",
    "floor": "",
    "price": "5800",
    "tags": "",
    "source": "",
    "url": "https://sh.lianjia.com/zufang/SH2151195189832581120.html",
    "rent_type": "整租",
    "location": "长宁-北新泾-淞虹公寓",
    "scraped_at": "2026-04-23 13:14:31",
    "region": "beixinjing",
    "unit_price": 71.0,
    "lat": 31.21515,
    "lng": 121.35368
  },
  {
    "title": "整租·淞虹苑 2室1厅 南",
    "community": "淞虹苑",
    "area": "60.31",
    "rooms": "2室1厅",
    "direction": "南",
    "floor": "",
    "price": "5500",
    "tags": "",
    "source": "",
    "url": "https://sh.lianjia.com/zufang/SH2153837212217638912.html",
    "rent_type": "整租",
    "location": "长宁-北新泾-淞虹苑",
    "scraped_at": "2026-04-23 13:14:31",
    "region": "beixinjing",
    "unit_price": 91.2,
    "lat": 31.21418,
    "lng": 121.35817
  },
  {
    "title": "整租·华松西区（仙霞西路700弄） 2室1厅 南",
    "community": "华松西区（仙霞西路700弄）",
    "area": "58.90",
    "rooms": "2室1厅",
    "direction": "南",
    "floor": "",
    "price": "5600",
    "tags": "",
    "source": "",
    "url": "https://sh.lianjia.com/zufang/SH2154453960654585856.html",
    "rent_type": "整租",
    "location": "长宁-北新泾-华松西区",
    "scraped_at": "2026-04-23 13:14:31",
    "region": "beixinjing",
    "unit_price": 95.1,
    "lat": 31.21305,
    "lng": 121.35266
  },
  {
    "title": "整租·广友小区 1室1厅 南",
    "community": "广友小区",
    "area": "43.00",
    "rooms": "1室1厅",
    "direction": "南",
    "floor": "",
    "price": "5000",
    "tags": "",
    "source": "",
    "url": "https://sh.lianjia.com/zufang/SH2153015364844257280.html",
    "rent_type": "整租",
    "location": "长宁-北新泾-广友小区",
    "scraped_at": "2026-04-23 13:14:31",
    "region": "beixinjing",
    "unit_price": 116.3,
    "lat": 31.2173,
    "lng": 121.35475
  },
  {
    "title": "整租·馨兰小区 2室1厅 南",
    "community": "馨兰小区",
    "area": "58.86",
    "rooms": "2室1厅",
    "direction": "南",
    "floor": "",
    "price": "4900",
    "tags": "",
    "source": "",
    "url": "https://sh.lianjia.com/zufang/SH2156290546652413952.html",
    "rent_type": "整租",
    "location": "长宁-北新泾-馨兰小区",
    "scraped_at": "2026-04-23 13:14:31",
    "region": "beixinjing",
    "unit_price": 83.2,
    "lat": 31.20957,
    "lng": 121.357
  },
  {
    "title": "整租·广友小区 1室1厅 南",
    "community": "广友小区",
    "area": "43.00",
    "rooms": "1室1厅",
    "direction": "南",
    "floor": "",
    "price": "5000",
    "tags": "",
    "source": "",
    "url": "https://sh.lianjia.com/zufang/SH2153015364844257280.html",
    "rent_type": "整租",
    "location": "长宁-北新泾-广友小区",
    "scraped_at": "2026-04-23 13:14:34",
    "region": "beixinjing",
    "unit_price": 116.3,
    "lat": 31.2173,
    "lng": 121.35475
  },
  {
    "title": "整租·金菊小区 1室1厅 南",
    "community": "金菊小区",
    "area": "46.97",
    "rooms": "1室1厅",
    "direction": "南",
    "floor": "",
    "price": "5000",
    "tags": "",
    "source": "",
    "url": "https://sh.lianjia.com/zufang/SH2145059577626886144.html",
    "rent_type": "整租",
    "location": "长宁-北新泾-金菊小区",
    "scraped_at": "2026-04-23 13:14:34",
    "region": "beixinjing",
    "unit_price": 106.5,
    "lat": 48.068095,
    "lng": 86.412001
  },
  {
    "title": "整租·兴霞小区 1室1厅 南",
    "community": "兴霞小区",
    "area": "51.35",
    "rooms": "1室1厅",
    "direction": "南",
    "floor": "",
    "price": "4800",
    "tags": "",
    "source": "",
    "url": "https://sh.lianjia.com/zufang/SH2144341917666639872.html",
    "rent_type": "整租",
    "location": "长宁-北新泾-兴霞小区",
    "scraped_at": "2026-04-23 13:14:34",
    "region": "beixinjing",
    "unit_price": 93.5,
    "lat": 31.210462,
    "lng": 121.367953
  },
  {
    "title": "整租·樱源晶舍 3室2厅 南",
    "community": "樱源晶舍",
    "area": "126.89",
    "rooms": "3室2厅",
    "direction": "南",
    "floor": "",
    "price": "16000",
    "tags": "",
    "source": "",
    "url": "https://sh.lianjia.com/zufang/SH2154484662787899392.html",
    "rent_type": "整租",
    "location": "长宁-北新泾-樱源晶舍",
    "scraped_at": "2026-04-23 13:14:34",
    "region": "beixinjing",
    "unit_price": 126.1,
    "lat": 31.20444,
    "lng": 121.3567
  },
  {
    "title": "整租·仙霞里 2室1厅 东",
    "community": "仙霞里",
    "area": "78.00",
    "rooms": "2室1厅",
    "direction": "东",
    "floor": "",
    "price": "7800",
    "tags": "",
    "source": "",
    "url": "https://sh.lianjia.com/zufang/SH2143260651689082880.html",
    "rent_type": "整租",
    "location": "长宁-北新泾-仙霞里",
    "scraped_at": "2026-04-23 13:14:34",
    "region": "beixinjing",
    "unit_price": 100.0,
    "lat": 40.11647,
    "lng": 116.44741
  },
  {
    "title": "整租·新泾一村 2室1厅 西南",
    "community": "新泾一村",
    "area": "46.74",
    "rooms": "2室1厅",
    "direction": "西南",
    "floor": "",
    "price": "5750",
    "tags": "",
    "source": "",
    "url": "https://sh.lianjia.com/zufang/SH2146190775501717504.html",
    "rent_type": "整租",
    "location": "长宁-北新泾-新泾一村",
    "scraped_at": "2026-04-23 13:14:34",
    "region": "beixinjing",
    "unit_price": 123.0,
    "lat": 31.22044,
    "lng": 121.36651
  },
  {
    "title": "整租·紫竹小区 1室1厅 南",
    "community": "紫竹小区",
    "area": "29.40",
    "rooms": "1室1厅",
    "direction": "南",
    "floor": "",
    "price": "4200",
    "tags": "",
    "source": "",
    "url": "https://sh.lianjia.com/zufang/SH2124759864587583488.html",
    "rent_type": "整租",
    "location": "长宁-北新泾-紫竹小区",
    "scraped_at": "2026-04-23 13:14:34",
    "region": "beixinjing",
    "unit_price": 142.9,
    "lat": 31.21603,
    "lng": 121.36462
  },
  {
    "title": "整租·北虹公寓 3室2厅 南",
    "community": "北虹公寓",
    "area": "125.56",
    "rooms": "3室2厅",
    "direction": "南",
    "floor": "",
    "price": "8800",
    "tags": "",
    "source": "",
    "url": "https://sh.lianjia.com/zufang/SH2133614663970062336.html",
    "rent_type": "整租",
    "location": "长宁-北新泾-北虹公寓",
    "scraped_at": "2026-04-23 13:14:34",
    "region": "beixinjing",
    "unit_price": 70.1,
    "lat": 31.21031,
    "lng": 121.37384
  },
  {
    "title": "整租·剑河小区 3室1厅 南",
    "community": "剑河小区",
    "area": "86.40",
    "rooms": "3室1厅",
    "direction": "南",
    "floor": "",
    "price": "7600",
    "tags": "",
    "source": "",
    "url": "https://sh.lianjia.com/zufang/SH2142294197053423616.html",
    "rent_type": "整租",
    "location": "长宁-北新泾-剑河小区",
    "scraped_at": "2026-04-23 13:14:34",
    "region": "beixinjing",
    "unit_price": 88.0,
    "lat": 31.22003,
    "lng": 121.36445
  },
  {
    "title": "整租·金菊小区 2室1厅 南",
    "community": "金菊小区",
    "area": "61.33",
    "rooms": "2室1厅",
    "direction": "南",
    "floor": "",
    "price": "6200",
    "tags": "",
    "source": "",
    "url": "https://sh.lianjia.com/zufang/SH2144660641544142848.html",
    "rent_type": "整租",
    "location": "长宁-北新泾-金菊小区",
    "scraped_at": "2026-04-23 13:14:34",
    "region": "beixinjing",
    "unit_price": 101.1,
    "lat": 48.068095,
    "lng": 86.412001
  },
  {
    "title": "整租·瑞冬小区 2室1厅 南",
    "community": "瑞冬小区",
    "area": "86.04",
    "rooms": "2室1厅",
    "direction": "南",
    "floor": "",
    "price": "7000",
    "tags": "",
    "source": "",
    "url": "https://sh.lianjia.com/zufang/SH2150500751514796032.html",
    "rent_type": "整租",
    "location": "长宁-北新泾-瑞冬小区",
    "scraped_at": "2026-04-23 13:14:34",
    "region": "beixinjing",
    "unit_price": 81.4,
    "lat": 31.21629,
    "lng": 121.3615
  },
  {
    "title": "整租·新泾五村 1室1厅 南",
    "community": "新泾五村",
    "area": "59.29",
    "rooms": "1室1厅",
    "direction": "南",
    "floor": "",
    "price": "6000",
    "tags": "",
    "source": "",
    "url": "https://sh.lianjia.com/zufang/SH2141157742843265024.html",
    "rent_type": "整租",
    "location": "长宁-北新泾-新泾五村",
    "scraped_at": "2026-04-23 13:14:34",
    "region": "beixinjing",
    "unit_price": 101.2,
    "lat": 31.22105,
    "lng": 121.36189
  },
  {
    "title": "整租·新泾一村 1室1厅 南/北",
    "community": "新泾一村",
    "area": "51.73",
    "rooms": "1室1厅",
    "direction": "南/北",
    "floor": "",
    "price": "5100",
    "tags": "",
    "source": "",
    "url": "https://sh.lianjia.com/zufang/SH2109136857538232320.html",
    "rent_type": "整租",
    "location": "长宁-北新泾-新泾一村",
    "scraped_at": "2026-04-23 13:14:34",
    "region": "beixinjing",
    "unit_price": 98.6,
    "lat": 31.22044,
    "lng": 121.36651
  },
  {
    "title": "整租·新泾一村 1室1厅 南",
    "community": "新泾一村",
    "area": "36.29",
    "rooms": "1室1厅",
    "direction": "南",
    "floor": "",
    "price": "5000",
    "tags": "",
    "source": "",
    "url": "https://sh.lianjia.com/zufang/SH2141098240110493696.html",
    "rent_type": "整租",
    "location": "长宁-北新泾-新泾一村",
    "scraped_at": "2026-04-23 13:14:34",
    "region": "beixinjing",
    "unit_price": 137.8,
    "lat": 31.22044,
    "lng": 121.36651
  },
  {
    "title": "整租·瑞冬小区 1室0厅 南",
    "community": "瑞冬小区",
    "area": "41.07",
    "rooms": "1室0厅",
    "direction": "南",
    "floor": "",
    "price": "4600",
    "tags": "",
    "source": "",
    "url": "https://sh.lianjia.com/zufang/SH2148374027347951616.html",
    "rent_type": "整租",
    "location": "长宁-北新泾-瑞冬小区",
    "scraped_at": "2026-04-23 13:14:34",
    "region": "beixinjing",
    "unit_price": 112.0,
    "lat": 31.21629,
    "lng": 121.3615
  },
  {
    "title": "整租·新泾四村 1室1厅 南",
    "community": "新泾四村",
    "area": "39.59",
    "rooms": "1室1厅",
    "direction": "南",
    "floor": "",
    "price": "5200",
    "tags": "",
    "source": "",
    "url": "https://sh.lianjia.com/zufang/SH2124074268739239936.html",
    "rent_type": "整租",
    "location": "长宁-北新泾-新泾四村",
    "scraped_at": "2026-04-23 13:14:34",
    "region": "beixinjing",
    "unit_price": 131.3,
    "lat": 31.21885,
    "lng": 121.36217
  },
  {
    "title": "整租·樱源晶舍 2室1厅 南",
    "community": "樱源晶舍",
    "area": "102.46",
    "rooms": "2室1厅",
    "direction": "南",
    "floor": "",
    "price": "8800",
    "tags": "",
    "source": "",
    "url": "https://sh.lianjia.com/zufang/SH2154834655776342016.html",
    "rent_type": "整租",
    "location": "长宁-北新泾-樱源晶舍",
    "scraped_at": "2026-04-23 13:14:34",
    "region": "beixinjing",
    "unit_price": 85.9,
    "lat": 31.20444,
    "lng": 121.3567
  },
  {
    "title": "整租·华松西区（仙霞西路700弄） 2室0厅 南",
    "community": "华松西区（仙霞西路700弄）",
    "area": "64.94",
    "rooms": "2室0厅",
    "direction": "南",
    "floor": "",
    "price": "5800",
    "tags": "",
    "source": "",
    "url": "https://sh.lianjia.com/zufang/SH2155135660711739392.html",
    "rent_type": "整租",
    "location": "长宁-北新泾-华松西区",
    "scraped_at": "2026-04-23 13:14:34",
    "region": "beixinjing",
    "unit_price": 89.3,
    "lat": 31.21305,
    "lng": 121.35266
  },
  {
    "title": "整租·新泾三村 1室1厅 南",
    "community": "新泾三村",
    "area": "40.54",
    "rooms": "1室1厅",
    "direction": "南",
    "floor": "",
    "price": "4700",
    "tags": "",
    "source": "",
    "url": "https://sh.lianjia.com/zufang/SH2147215473148690432.html",
    "rent_type": "整租",
    "location": "长宁-北新泾-新泾三村",
    "scraped_at": "2026-04-23 13:14:34",
    "region": "beixinjing",
    "unit_price": 115.9,
    "lat": 31.21793,
    "lng": 121.36461
  },
  {
    "title": "整租·新泾四村 2室1厅 南",
    "community": "新泾四村",
    "area": "70.41",
    "rooms": "2室1厅",
    "direction": "南",
    "floor": "",
    "price": "6500",
    "tags": "",
    "source": "",
    "url": "https://sh.lianjia.com/zufang/SH2142560657160011776.html",
    "rent_type": "整租",
    "location": "长宁-北新泾-新泾四村",
    "scraped_at": "2026-04-23 13:14:34",
    "region": "beixinjing",
    "unit_price": 92.3,
    "lat": 31.21885,
    "lng": 121.36217
  },
  {
    "title": "整租·可乐公馆 2室2厅 南",
    "community": "可乐公馆",
    "area": "69.00",
    "rooms": "2室2厅",
    "direction": "南",
    "floor": "",
    "price": "9000",
    "tags": "",
    "source": "",
    "url": "https://sh.lianjia.com/zufang/SH2100200230694682624.html",
    "rent_type": "整租",
    "location": "长宁-北新泾-可乐公馆",
    "scraped_at": "2026-04-23 13:14:34",
    "region": "beixinjing",
    "unit_price": 130.4,
    "lat": 31.208,
    "lng": 121.35535
  },
  {
    "title": "整租·可乐公馆 2室1厅 南",
    "community": "可乐公馆",
    "area": "52.00",
    "rooms": "2室1厅",
    "direction": "南",
    "floor": "",
    "price": "6200",
    "tags": "",
    "source": "",
    "url": "https://sh.lianjia.com/zufang/SH2132068829461741568.html",
    "rent_type": "整租",
    "location": "长宁-北新泾-可乐公馆",
    "scraped_at": "2026-04-23 13:14:34",
    "region": "beixinjing",
    "unit_price": 119.2,
    "lat": 31.208,
    "lng": 121.35535
  },
  {
    "title": "整租·金虹苑小区 2室1厅 南",
    "community": "金虹苑小区",
    "area": "65.64",
    "rooms": "2室1厅",
    "direction": "南",
    "floor": "",
    "price": "5400",
    "tags": "",
    "source": "",
    "url": "https://sh.lianjia.com/zufang/SH2113951275358879744.html",
    "rent_type": "整租",
    "location": "长宁-北新泾-金虹苑小区",
    "scraped_at": "2026-04-23 13:14:34",
    "region": "beixinjing",
    "unit_price": 82.3,
    "lat": 31.207101,
    "lng": 121.367915
  },
  {
    "title": "整租·金菊小区 1室1厅 南",
    "community": "金菊小区",
    "area": "35.04",
    "rooms": "1室1厅",
    "direction": "南",
    "floor": "",
    "price": "4500",
    "tags": "",
    "source": "",
    "url": "https://sh.lianjia.com/zufang/SH2143266841970081792.html",
    "rent_type": "整租",
    "location": "长宁-北新泾-金菊小区",
    "scraped_at": "2026-04-23 13:14:34",
    "region": "beixinjing",
    "unit_price": 128.4,
    "lat": 48.068095,
    "lng": 86.412001
  },
  {
    "title": "整租·绿园一村 2室1厅 南",
    "community": "绿园一村",
    "area": "72.26",
    "rooms": "2室1厅",
    "direction": "南",
    "floor": "",
    "price": "5500",
    "tags": "",
    "source": "",
    "url": "https://sh.lianjia.com/zufang/SH2146501670564003840.html",
    "rent_type": "整租",
    "location": "长宁-北新泾-绿园一村",
    "scraped_at": "2026-04-23 13:14:34",
    "region": "beixinjing",
    "unit_price": 76.1,
    "lat": 31.21495,
    "lng": 121.35527
  },
  {
    "title": "整租·沁秋小区 1室1厅 南",
    "community": "沁秋小区",
    "area": "41.00",
    "rooms": "1室1厅",
    "direction": "南",
    "floor": "",
    "price": "4300",
    "tags": "",
    "source": "",
    "url": "https://sh.lianjia.com/zufang/SH2153827318890496000.html",
    "rent_type": "整租",
    "location": "长宁-北新泾-沁秋小区",
    "scraped_at": "2026-04-23 13:14:34",
    "region": "beixinjing",
    "unit_price": 104.9,
    "lat": 31.21255,
    "lng": 121.35696
  },
  {
    "title": "整租·新泾七村 2室1厅 南/北",
    "community": "新泾七村",
    "area": "45.62",
    "rooms": "2室1厅",
    "direction": "南/北",
    "floor": "",
    "price": "5300",
    "tags": "",
    "source": "",
    "url": "https://sh.lianjia.com/zufang/SH2143593063837073408.html",
    "rent_type": "整租",
    "location": "长宁-北新泾-新泾七村",
    "scraped_at": "2026-04-23 13:14:34",
    "region": "beixinjing",
    "unit_price": 116.2,
    "lat": 31.22115,
    "lng": 121.35865
  },
  {
    "title": "整租·新泾七村 1室1厅 南",
    "community": "新泾七村",
    "area": "32.95",
    "rooms": "1室1厅",
    "direction": "南",
    "floor": "",
    "price": "4000",
    "tags": "",
    "source": "",
    "url": "https://sh.lianjia.com/zufang/SH2147200399222767616.html",
    "rent_type": "整租",
    "location": "长宁-北新泾-新泾七村",
    "scraped_at": "2026-04-23 13:14:34",
    "region": "beixinjing",
    "unit_price": 121.4,
    "lat": 31.22115,
    "lng": 121.35865
  },
  {
    "title": "整租·金菊小区 1室0厅 南",
    "community": "金菊小区",
    "area": "35.04",
    "rooms": "1室0厅",
    "direction": "南",
    "floor": "",
    "price": "4300",
    "tags": "",
    "source": "",
    "url": "https://sh.lianjia.com/zufang/SH2145065233037656064.html",
    "rent_type": "整租",
    "location": "长宁-北新泾-金菊小区",
    "scraped_at": "2026-04-23 13:14:34",
    "region": "beixinjing",
    "unit_price": 122.7,
    "lat": 48.068095,
    "lng": 86.412001
  },
  {
    "title": "整租·长宁馥邦苑 2室1厅 南",
    "community": "长宁馥邦苑",
    "area": "102.00",
    "rooms": "2室1厅",
    "direction": "南",
    "floor": "",
    "price": "12000",
    "tags": "",
    "source": "",
    "url": "https://sh.lianjia.com/zufang/SH2152638349821607936.html",
    "rent_type": "整租",
    "location": "长宁-北新泾-长宁馥邦苑",
    "scraped_at": "2026-04-23 13:14:34",
    "region": "beixinjing",
    "unit_price": 117.6,
    "lat": 31.220014,
    "lng": 121.36886
  },
  {
    "title": "整租·长宁馥邦苑 2室1厅 南",
    "community": "长宁馥邦苑",
    "area": "102.00",
    "rooms": "2室1厅",
    "direction": "南",
    "floor": "",
    "price": "12000",
    "tags": "",
    "source": "",
    "url": "https://sh.lianjia.com/zufang/SH2152638349821607936.html",
    "rent_type": "整租",
    "location": "长宁-北新泾-长宁馥邦苑",
    "scraped_at": "2026-04-23 13:14:37",
    "region": "beixinjing",
    "unit_price": 117.6,
    "lat": 31.220014,
    "lng": 121.36886
  },
  {
    "title": "整租·剑河家苑 1室1厅 南",
    "community": "剑河家苑",
    "area": "56.00",
    "rooms": "1室1厅",
    "direction": "南",
    "floor": "",
    "price": "6500",
    "tags": "",
    "source": "",
    "url": "https://sh.lianjia.com/zufang/SH2153051788482183168.html",
    "rent_type": "整租",
    "location": "长宁-北新泾-剑河家苑",
    "scraped_at": "2026-04-23 13:14:37",
    "region": "beixinjing",
    "unit_price": 116.1,
    "lat": 31.22264,
    "lng": 121.36526
  },
  {
    "title": "整租·中海长宁第 4室2厅 南",
    "community": "中海长宁第",
    "area": "157.85",
    "rooms": "4室2厅",
    "direction": "南",
    "floor": "",
    "price": "18500",
    "tags": "",
    "source": "",
    "url": "https://sh.lianjia.com/zufang/SH2153361586041913344.html",
    "rent_type": "整租",
    "location": "长宁-北新泾-中海长宁第",
    "scraped_at": "2026-04-23 13:14:37",
    "region": "beixinjing",
    "unit_price": 117.2,
    "lat": 31.230525,
    "lng": 121.473667
  },
  {
    "title": "整租·新泾四村 2室1厅 南",
    "community": "新泾四村",
    "area": "60.23",
    "rooms": "2室1厅",
    "direction": "南",
    "floor": "",
    "price": "5800",
    "tags": "",
    "source": "",
    "url": "https://sh.lianjia.com/zufang/SH2146149438018551808.html",
    "rent_type": "整租",
    "location": "长宁-北新泾-新泾四村",
    "scraped_at": "2026-04-23 13:14:37",
    "region": "beixinjing",
    "unit_price": 96.3,
    "lat": 31.21885,
    "lng": 121.36217
  },
  {
    "title": "整租·新泾七村 2室0厅 南",
    "community": "新泾七村",
    "area": "45.81",
    "rooms": "2室0厅",
    "direction": "南",
    "floor": "",
    "price": "4700",
    "tags": "",
    "source": "",
    "url": "https://sh.lianjia.com/zufang/SH2152702815296815104.html",
    "rent_type": "整租",
    "location": "长宁-北新泾-新泾七村",
    "scraped_at": "2026-04-23 13:14:37",
    "region": "beixinjing",
    "unit_price": 102.6,
    "lat": 31.22115,
    "lng": 121.35865
  },
  {
    "title": "整租·春房小区 3室1厅 南",
    "community": "春房小区",
    "area": "70.00",
    "rooms": "3室1厅",
    "direction": "南",
    "floor": "",
    "price": "6500",
    "tags": "",
    "source": "",
    "url": "https://sh.lianjia.com/zufang/SH2153057059480797184.html",
    "rent_type": "整租",
    "location": "长宁-北新泾-春房小区",
    "scraped_at": "2026-04-23 13:14:37",
    "region": "beixinjing",
    "unit_price": 92.9,
    "lat": 31.22375,
    "lng": 121.35958
  },
  {
    "title": "整租·仙霞大郡 4室2厅 复式 南/北",
    "community": "仙霞大郡",
    "area": "150.56",
    "rooms": "4室2厅",
    "direction": "",
    "floor": "",
    "price": "9500",
    "tags": "",
    "source": "",
    "url": "https://sh.lianjia.com/zufang/SH2154584240916791296.html",
    "rent_type": "整租",
    "location": "长宁-北新泾-仙霞大郡",
    "scraped_at": "2026-04-23 13:14:37",
    "region": "beixinjing",
    "unit_price": 63.1,
    "lat": 31.2112,
    "lng": 121.3698
  },
  {
    "title": "整租·绿园一村 3室1厅 南/北",
    "community": "绿园一村",
    "area": "83.50",
    "rooms": "3室1厅",
    "direction": "南/北",
    "floor": "",
    "price": "7300",
    "tags": "",
    "source": "",
    "url": "https://sh.lianjia.com/zufang/SH2146850559653576704.html",
    "rent_type": "整租",
    "location": "长宁-北新泾-绿园一村",
    "scraped_at": "2026-04-23 13:14:37",
    "region": "beixinjing",
    "unit_price": 87.4,
    "lat": 31.21495,
    "lng": 121.35527
  },
  {
    "title": "整租·绿园十村 1室1厅 南",
    "community": "绿园十村",
    "area": "50.00",
    "rooms": "1室1厅",
    "direction": "南",
    "floor": "",
    "price": "4100",
    "tags": "",
    "source": "",
    "url": "https://sh.lianjia.com/zufang/SH2154232388501110784.html",
    "rent_type": "整租",
    "location": "长宁-北新泾-绿园十村",
    "scraped_at": "2026-04-23 13:14:37",
    "region": "beixinjing",
    "unit_price": 82.0,
    "lat": 31.20962,
    "lng": 121.35406
  },
  {
    "title": "整租·虹康花苑(三期) 2室1厅 南",
    "community": "虹康花苑(三期)",
    "area": "78.00",
    "rooms": "2室1厅",
    "direction": "南",
    "floor": "",
    "price": "7600",
    "tags": "",
    "source": "",
    "url": "https://sh.lianjia.com/zufang/SH2153861626950844416.html",
    "rent_type": "整租",
    "location": "长宁-北新泾-虹康花苑(三期)",
    "scraped_at": "2026-04-23 13:14:37",
    "region": "beixinjing",
    "unit_price": 97.4,
    "lat": 31.21176,
    "lng": 121.35922
  },
  {
    "title": "整租·新泾六村 2室0厅 南",
    "community": "新泾六村",
    "area": "47.38",
    "rooms": "2室0厅",
    "direction": "南",
    "floor": "",
    "price": "5200",
    "tags": "",
    "source": "",
    "url": "https://sh.lianjia.com/zufang/SH2146473752160894976.html",
    "rent_type": "整租",
    "location": "长宁-北新泾-新泾六村",
    "scraped_at": "2026-04-23 13:14:37",
    "region": "beixinjing",
    "unit_price": 109.8,
    "lat": 31.2231,
    "lng": 121.36165
  },
  {
    "title": "整租·华松西区（仙霞西路700弄） 1室1厅 南",
    "community": "华松西区（仙霞西路700弄）",
    "area": "54.00",
    "rooms": "1室1厅",
    "direction": "南",
    "floor": "",
    "price": "4800",
    "tags": "",
    "source": "",
    "url": "https://sh.lianjia.com/zufang/SH2152297722038714368.html",
    "rent_type": "整租",
    "location": "长宁-北新泾-华松西区",
    "scraped_at": "2026-04-23 13:14:37",
    "region": "beixinjing",
    "unit_price": 88.9,
    "lat": 31.21305,
    "lng": 121.35266
  },
  {
    "title": "整租·可乐公馆 2室1厅 南/北",
    "community": "可乐公馆",
    "area": "50.14",
    "rooms": "2室1厅",
    "direction": "南/北",
    "floor": "",
    "price": "7000",
    "tags": "",
    "source": "",
    "url": "https://sh.lianjia.com/zufang/SH2109951632178413568.html",
    "rent_type": "整租",
    "location": "长宁-北新泾-可乐公馆",
    "scraped_at": "2026-04-23 13:14:37",
    "region": "beixinjing",
    "unit_price": 139.6,
    "lat": 31.208,
    "lng": 121.35535
  },
  {
    "title": "整租·通协小区 2室1厅 南",
    "community": "通协小区",
    "area": "83.00",
    "rooms": "2室1厅",
    "direction": "南",
    "floor": "",
    "price": "7800",
    "tags": "",
    "source": "",
    "url": "https://sh.lianjia.com/zufang/SH2111406644599455744.html",
    "rent_type": "整租",
    "location": "长宁-北新泾-通协小区",
    "scraped_at": "2026-04-23 13:14:37",
    "region": "beixinjing",
    "unit_price": 94.0,
    "lat": 31.22733,
    "lng": 121.3548
  },
  {
    "title": "整租·金菊小区 2室1厅 南",
    "community": "金菊小区",
    "area": "53.71",
    "rooms": "2室1厅",
    "direction": "南",
    "floor": "",
    "price": "4500",
    "tags": "",
    "source": "",
    "url": "https://sh.lianjia.com/zufang/SH2150057339149877248.html",
    "rent_type": "整租",
    "location": "长宁-北新泾-金菊小区",
    "scraped_at": "2026-04-23 13:14:37",
    "region": "beixinjing",
    "unit_price": 83.8,
    "lat": 48.068095,
    "lng": 86.412001
  },
  {
    "title": "整租·新泾一村 2室0厅 南",
    "community": "新泾一村",
    "area": "47.50",
    "rooms": "2室0厅",
    "direction": "南",
    "floor": "",
    "price": "4700",
    "tags": "",
    "source": "",
    "url": "https://sh.lianjia.com/zufang/SH2148815154454724608.html",
    "rent_type": "整租",
    "location": "长宁-北新泾-新泾一村",
    "scraped_at": "2026-04-23 13:14:37",
    "region": "beixinjing",
    "unit_price": 98.9,
    "lat": 31.22044,
    "lng": 121.36651
  },
  {
    "title": "整租·新泾二村 2室1厅 南",
    "community": "新泾二村",
    "area": "51.87",
    "rooms": "2室1厅",
    "direction": "南",
    "floor": "",
    "price": "5000",
    "tags": "",
    "source": "",
    "url": "https://sh.lianjia.com/zufang/SH2149773369334038528.html",
    "rent_type": "整租",
    "location": "长宁-北新泾-新泾二村",
    "scraped_at": "2026-04-23 13:14:37",
    "region": "beixinjing",
    "unit_price": 96.4,
    "lat": 31.2173,
    "lng": 121.36875
  },
  {
    "title": "整租·仙霞大郡 1室1厅 南",
    "community": "仙霞大郡",
    "area": "51.21",
    "rooms": "1室1厅",
    "direction": "南",
    "floor": "",
    "price": "5000",
    "tags": "",
    "source": "",
    "url": "https://sh.lianjia.com/zufang/SH2150966393913212928.html",
    "rent_type": "整租",
    "location": "长宁-北新泾-仙霞大郡",
    "scraped_at": "2026-04-23 13:14:37",
    "region": "beixinjing",
    "unit_price": 97.6,
    "lat": 31.2112,
    "lng": 121.3698
  },
  {
    "title": "整租·可乐公馆 3室1厅 南",
    "community": "可乐公馆",
    "area": "68.62",
    "rooms": "3室1厅",
    "direction": "南",
    "floor": "",
    "price": "7000",
    "tags": "",
    "source": "",
    "url": "https://sh.lianjia.com/zufang/SH2080159299811672064.html",
    "rent_type": "整租",
    "location": "长宁-北新泾-可乐公馆",
    "scraped_at": "2026-04-23 13:14:37",
    "region": "beixinjing",
    "unit_price": 102.0,
    "lat": 31.208,
    "lng": 121.35535
  },
  {
    "title": "整租·铭晖西郊苑 3室1厅 南",
    "community": "铭晖西郊苑",
    "area": "97.47",
    "rooms": "3室1厅",
    "direction": "南",
    "floor": "",
    "price": "9200",
    "tags": "",
    "source": "",
    "url": "https://sh.lianjia.com/zufang/SH2140506404782342144.html",
    "rent_type": "整租",
    "location": "长宁-北新泾-铭晖西郊苑",
    "scraped_at": "2026-04-23 13:14:37",
    "region": "beixinjing",
    "unit_price": 94.4,
    "lat": 31.21363,
    "lng": 121.37108
  },
  {
    "title": "整租·中海长宁第 3室2厅 南",
    "community": "中海长宁第",
    "area": "96.51",
    "rooms": "3室2厅",
    "direction": "南",
    "floor": "",
    "price": "15800",
    "tags": "",
    "source": "",
    "url": "https://sh.lianjia.com/zufang/SH2129554687093899264.html",
    "rent_type": "整租",
    "location": "长宁-北新泾-中海长宁第",
    "scraped_at": "2026-04-23 13:14:37",
    "region": "beixinjing",
    "unit_price": 163.7,
    "lat": 31.230525,
    "lng": 121.473667
  },
  {
    "title": "整租·新泾一村 2室1厅 南",
    "community": "新泾一村",
    "area": "60.56",
    "rooms": "2室1厅",
    "direction": "南",
    "floor": "",
    "price": "6200",
    "tags": "",
    "source": "",
    "url": "https://sh.lianjia.com/zufang/SH2137560390060474368.html",
    "rent_type": "整租",
    "location": "长宁-北新泾-新泾一村",
    "scraped_at": "2026-04-23 13:14:37",
    "region": "beixinjing",
    "unit_price": 102.4,
    "lat": 31.22044,
    "lng": 121.36651
  },
  {
    "title": "整租·新泾七村 2室1厅 南",
    "community": "新泾七村",
    "area": "59.40",
    "rooms": "2室1厅",
    "direction": "南",
    "floor": "",
    "price": "6500",
    "tags": "",
    "source": "",
    "url": "https://sh.lianjia.com/zufang/SH2152348735852511232.html",
    "rent_type": "整租",
    "location": "长宁-北新泾-新泾七村",
    "scraped_at": "2026-04-23 13:14:37",
    "region": "beixinjing",
    "unit_price": 109.4,
    "lat": 31.22115,
    "lng": 121.35865
  },
  {
    "title": "整租·可乐公馆 1室1厅 南",
    "community": "可乐公馆",
    "area": "43.29",
    "rooms": "1室1厅",
    "direction": "南",
    "floor": "",
    "price": "4600",
    "tags": "",
    "source": "",
    "url": "https://sh.lianjia.com/zufang/SH2073361301685403648.html",
    "rent_type": "整租",
    "location": "长宁-北新泾-可乐公馆",
    "scraped_at": "2026-04-23 13:14:37",
    "region": "beixinjing",
    "unit_price": 106.3,
    "lat": 31.208,
    "lng": 121.35535
  },
  {
    "title": "整租·可乐公馆 1室1厅 西",
    "community": "可乐公馆",
    "area": "25.51",
    "rooms": "1室1厅",
    "direction": "西",
    "floor": "",
    "price": "4500",
    "tags": "",
    "source": "",
    "url": "https://sh.lianjia.com/zufang/SH2153384123027161088.html",
    "rent_type": "整租",
    "location": "长宁-北新泾-可乐公馆",
    "scraped_at": "2026-04-23 13:14:37",
    "region": "beixinjing",
    "unit_price": 176.4,
    "lat": 31.208,
    "lng": 121.35535
  },
  {
    "title": "整租·绿园一村 2室1厅 南",
    "community": "绿园一村",
    "area": "58.00",
    "rooms": "2室1厅",
    "direction": "南",
    "floor": "",
    "price": "5200",
    "tags": "",
    "source": "",
    "url": "https://sh.lianjia.com/zufang/SH2002255441605689344.html",
    "rent_type": "整租",
    "location": "长宁-北新泾-绿园一村",
    "scraped_at": "2026-04-23 13:14:37",
    "region": "beixinjing",
    "unit_price": 89.7,
    "lat": 31.21495,
    "lng": 121.35527
  },
  {
    "title": "整租·剑河家苑 1室1厅 南",
    "community": "剑河家苑",
    "area": "55.00",
    "rooms": "1室1厅",
    "direction": "南",
    "floor": "",
    "price": "6500",
    "tags": "",
    "source": "",
    "url": "https://sh.lianjia.com/zufang/SH2152710423902683136.html",
    "rent_type": "整租",
    "location": "长宁-北新泾-剑河家苑",
    "scraped_at": "2026-04-23 13:14:37",
    "region": "beixinjing",
    "unit_price": 118.2,
    "lat": 31.22264,
    "lng": 121.36526
  },
  {
    "title": "整租·可乐公馆 2室1厅 南",
    "community": "可乐公馆",
    "area": "35.00",
    "rooms": "2室1厅",
    "direction": "南",
    "floor": "",
    "price": "4500",
    "tags": "",
    "source": "",
    "url": "https://sh.lianjia.com/zufang/SH2153000878699708416.html",
    "rent_type": "整租",
    "location": "长宁-北新泾-可乐公馆",
    "scraped_at": "2026-04-23 13:14:37",
    "region": "beixinjing",
    "unit_price": 128.6,
    "lat": 31.208,
    "lng": 121.35535
  },
  {
    "title": "整租·瑞冬小区 2室1厅 西南",
    "community": "瑞冬小区",
    "area": "59.71",
    "rooms": "2室1厅",
    "direction": "西南",
    "floor": "",
    "price": "5600",
    "tags": "",
    "source": "",
    "url": "https://sh.lianjia.com/zufang/SH2149502433879916544.html",
    "rent_type": "整租",
    "location": "长宁-北新泾-瑞冬小区",
    "scraped_at": "2026-04-23 13:14:37",
    "region": "beixinjing",
    "unit_price": 93.8,
    "lat": 31.21629,
    "lng": 121.3615
  },
  {
    "title": "整租·虹园一村 1室1厅 南",
    "community": "虹园一村",
    "area": "39.50",
    "rooms": "1室1厅",
    "direction": "南",
    "floor": "",
    "price": "4800",
    "tags": "",
    "source": "",
    "url": "https://sh.lianjia.com/zufang/SH2147639722673963008.html",
    "rent_type": "整租",
    "location": "长宁-北新泾-虹园一村",
    "scraped_at": "2026-04-23 13:14:37",
    "region": "beixinjing",
    "unit_price": 121.5,
    "lat": 31.213912,
    "lng": 121.372401
  },
  {
    "title": "整租·新泾七村 2室1厅 南",
    "community": "新泾七村",
    "area": "59.40",
    "rooms": "2室1厅",
    "direction": "南",
    "floor": "",
    "price": "6500",
    "tags": "",
    "source": "",
    "url": "https://sh.lianjia.com/zufang/SH2152348735852511232.html",
    "rent_type": "整租",
    "location": "长宁-北新泾-新泾七村",
    "scraped_at": "2026-04-23 13:14:39",
    "region": "beixinjing",
    "unit_price": 109.4,
    "lat": 31.22115,
    "lng": 121.35865
  },
  {
    "title": "整租·绿园一村 2室1厅 南",
    "community": "绿园一村",
    "area": "58.00",
    "rooms": "2室1厅",
    "direction": "南",
    "floor": "",
    "price": "5200",
    "tags": "",
    "source": "",
    "url": "https://sh.lianjia.com/zufang/SH2002255441605689344.html",
    "rent_type": "整租",
    "location": "长宁-北新泾-绿园一村",
    "scraped_at": "2026-04-23 13:14:39",
    "region": "beixinjing",
    "unit_price": 89.7,
    "lat": 31.21495,
    "lng": 121.35527
  },
  {
    "title": "整租·可乐公馆 2室1厅 南",
    "community": "可乐公馆",
    "area": "35.00",
    "rooms": "2室1厅",
    "direction": "南",
    "floor": "",
    "price": "4500",
    "tags": "",
    "source": "",
    "url": "https://sh.lianjia.com/zufang/SH2153000878699708416.html",
    "rent_type": "整租",
    "location": "长宁-北新泾-可乐公馆",
    "scraped_at": "2026-04-23 13:14:39",
    "region": "beixinjing",
    "unit_price": 128.6,
    "lat": 31.208,
    "lng": 121.35535
  },
  {
    "title": "整租·新泾六村 1室1厅 南",
    "community": "新泾六村",
    "area": "47.00",
    "rooms": "1室1厅",
    "direction": "南",
    "floor": "",
    "price": "4200",
    "tags": "",
    "source": "",
    "url": "https://sh.lianjia.com/zufang/SH2155312583039516672.html",
    "rent_type": "整租",
    "location": "长宁-北新泾-新泾六村",
    "scraped_at": "2026-04-23 13:14:39",
    "region": "beixinjing",
    "unit_price": 89.4,
    "lat": 31.2231,
    "lng": 121.36165
  },
  {
    "title": "整租·虹园一村 1室1厅 南",
    "community": "虹园一村",
    "area": "39.50",
    "rooms": "1室1厅",
    "direction": "南",
    "floor": "",
    "price": "4800",
    "tags": "",
    "source": "",
    "url": "https://sh.lianjia.com/zufang/SH2147639722673963008.html",
    "rent_type": "整租",
    "location": "长宁-北新泾-虹园一村",
    "scraped_at": "2026-04-23 13:14:39",
    "region": "beixinjing",
    "unit_price": 121.5,
    "lat": 31.213912,
    "lng": 121.372401
  },
  {
    "title": "整租·仙霞大郡 2室1厅 南",
    "community": "仙霞大郡",
    "area": "84.70",
    "rooms": "2室1厅",
    "direction": "南",
    "floor": "",
    "price": "7000",
    "tags": "",
    "source": "",
    "url": "https://sh.lianjia.com/zufang/SH2062922830936276992.html",
    "rent_type": "整租",
    "location": "长宁-北新泾-仙霞大郡",
    "scraped_at": "2026-04-23 13:14:39",
    "region": "beixinjing",
    "unit_price": 82.6,
    "lat": 31.2112,
    "lng": 121.3698
  },
  {
    "title": "整租·天蒲小区 2室1厅 南",
    "community": "天蒲小区",
    "area": "49.69",
    "rooms": "2室1厅",
    "direction": "南",
    "floor": "",
    "price": "5300",
    "tags": "",
    "source": "",
    "url": "https://sh.lianjia.com/zufang/SH2154448701630709760.html",
    "rent_type": "整租",
    "location": "长宁-北新泾-天蒲小区",
    "scraped_at": "2026-04-23 13:14:39",
    "region": "beixinjing",
    "unit_price": 106.7,
    "lat": 31.21897,
    "lng": 121.36976
  },
  {
    "title": "整租·新泾七村 1室0厅 南",
    "community": "新泾七村",
    "area": "33.00",
    "rooms": "1室0厅",
    "direction": "南",
    "floor": "",
    "price": "5000",
    "tags": "",
    "source": "",
    "url": "https://sh.lianjia.com/zufang/SH2108898287149907968.html",
    "rent_type": "整租",
    "location": "长宁-北新泾-新泾七村",
    "scraped_at": "2026-04-23 13:14:39",
    "region": "beixinjing",
    "unit_price": 151.5,
    "lat": 31.22115,
    "lng": 121.35865
  },
  {
    "title": "整租·新泾一村 1室0厅 南/北",
    "community": "新泾一村",
    "area": "32.00",
    "rooms": "1室0厅",
    "direction": "南/北",
    "floor": "",
    "price": "5300",
    "tags": "",
    "source": "",
    "url": "https://sh.lianjia.com/zufang/SH2148383982499135488.html",
    "rent_type": "整租",
    "location": "长宁-北新泾-新泾一村",
    "scraped_at": "2026-04-23 13:14:39",
    "region": "beixinjing",
    "unit_price": 165.6,
    "lat": 31.22044,
    "lng": 121.36651
  },
  {
    "title": "整租·广顺小区 2室1厅 南",
    "community": "广顺小区",
    "area": "72.59",
    "rooms": "2室1厅",
    "direction": "南",
    "floor": "",
    "price": "6800",
    "tags": "",
    "source": "",
    "url": "https://sh.lianjia.com/zufang/SH2151194367405064192.html",
    "rent_type": "整租",
    "location": "长宁-北新泾-广顺小区",
    "scraped_at": "2026-04-23 13:14:39",
    "region": "beixinjing",
    "unit_price": 93.7,
    "lat": 31.2171,
    "lng": 121.34836
  },
  {
    "title": "整租·新泾三村 1室1厅 南",
    "community": "新泾三村",
    "area": "36.56",
    "rooms": "1室1厅",
    "direction": "南",
    "floor": "",
    "price": "4800",
    "tags": "",
    "source": "",
    "url": "https://sh.lianjia.com/zufang/SH2152635220963098624.html",
    "rent_type": "整租",
    "location": "长宁-北新泾-新泾三村",
    "scraped_at": "2026-04-23 13:14:39",
    "region": "beixinjing",
    "unit_price": 131.3,
    "lat": 31.21793,
    "lng": 121.36461
  },
  {
    "title": "整租·新泾六村 2室1厅 南",
    "community": "新泾六村",
    "area": "57.78",
    "rooms": "2室1厅",
    "direction": "南",
    "floor": "",
    "price": "5200",
    "tags": "",
    "source": "",
    "url": "https://sh.lianjia.com/zufang/SH2100074891964317696.html",
    "rent_type": "整租",
    "location": "长宁-北新泾-新泾六村",
    "scraped_at": "2026-04-23 13:14:39",
    "region": "beixinjing",
    "unit_price": 90.0,
    "lat": 31.2231,
    "lng": 121.36165
  },
  {
    "title": "整租·新泾一村 1室0厅 南",
    "community": "新泾一村",
    "area": "28.41",
    "rooms": "1室0厅",
    "direction": "南",
    "floor": "",
    "price": "4300",
    "tags": "",
    "source": "",
    "url": "https://sh.lianjia.com/zufang/SH2149029653287796736.html",
    "rent_type": "整租",
    "location": "长宁-北新泾-新泾一村",
    "scraped_at": "2026-04-23 13:14:39",
    "region": "beixinjing",
    "unit_price": 151.4,
    "lat": 31.22044,
    "lng": 121.36651
  },
  {
    "title": "整租·新泾六村 1室0厅 南",
    "community": "新泾六村",
    "area": "34.76",
    "rooms": "1室0厅",
    "direction": "南",
    "floor": "",
    "price": "4600",
    "tags": "",
    "source": "",
    "url": "https://sh.lianjia.com/zufang/SH2144476958568742912.html",
    "rent_type": "整租",
    "location": "长宁-北新泾-新泾六村",
    "scraped_at": "2026-04-23 13:14:39",
    "region": "beixinjing",
    "unit_price": 132.3,
    "lat": 31.2231,
    "lng": 121.36165
  },
  {
    "title": "整租·新泾四村 2室1厅 南",
    "community": "新泾四村",
    "area": "50.54",
    "rooms": "2室1厅",
    "direction": "南",
    "floor": "",
    "price": "4800",
    "tags": "",
    "source": "",
    "url": "https://sh.lianjia.com/zufang/SH2085925716305641472.html",
    "rent_type": "整租",
    "location": "长宁-北新泾-新泾四村",
    "scraped_at": "2026-04-23 13:14:39",
    "region": "beixinjing",
    "unit_price": 95.0,
    "lat": 31.21885,
    "lng": 121.36217
  },
  {
    "title": "整租·虹康新苑 2室1厅 南",
    "community": "虹康新苑",
    "area": "77.89",
    "rooms": "2室1厅",
    "direction": "南",
    "floor": "",
    "price": "6120",
    "tags": "",
    "source": "",
    "url": "https://sh.lianjia.com/zufang/SH2061383540301365248.html",
    "rent_type": "整租",
    "location": "长宁-北新泾-虹康新苑",
    "scraped_at": "2026-04-23 13:14:39",
    "region": "beixinjing",
    "unit_price": 78.6,
    "lat": 31.21004,
    "lng": 121.3597
  },
  {
    "title": "整租·绿园五村 2室1厅 南",
    "community": "绿园五村",
    "area": "66.40",
    "rooms": "2室1厅",
    "direction": "南",
    "floor": "",
    "price": "5000",
    "tags": "",
    "source": "",
    "url": "https://sh.lianjia.com/zufang/SH2104882683673837568.html",
    "rent_type": "整租",
    "location": "长宁-北新泾-绿园五村",
    "scraped_at": "2026-04-23 13:14:39",
    "region": "beixinjing",
    "unit_price": 75.3,
    "lat": 31.20472,
    "lng": 121.35887
  },
  {
    "title": "整租·仙霞大郡 1室1厅 南",
    "community": "仙霞大郡",
    "area": "51.46",
    "rooms": "1室1厅",
    "direction": "南",
    "floor": "",
    "price": "4500",
    "tags": "",
    "source": "",
    "url": "https://sh.lianjia.com/zufang/SH2129116447031427072.html",
    "rent_type": "整租",
    "location": "长宁-北新泾-仙霞大郡",
    "scraped_at": "2026-04-23 13:14:39",
    "region": "beixinjing",
    "unit_price": 87.4,
    "lat": 31.2112,
    "lng": 121.3698
  },
  {
    "title": "整租·虹园一村 1室0厅 南",
    "community": "虹园一村",
    "area": "39.50",
    "rooms": "1室0厅",
    "direction": "南",
    "floor": "",
    "price": "4200",
    "tags": "",
    "source": "",
    "url": "https://sh.lianjia.com/zufang/SH2121917517680082944.html",
    "rent_type": "整租",
    "location": "长宁-北新泾-虹园一村",
    "scraped_at": "2026-04-23 13:14:39",
    "region": "beixinjing",
    "unit_price": 106.3,
    "lat": 31.213912,
    "lng": 121.372401
  },
  {
    "title": "整租·世纪之春花园 2室1厅 南",
    "community": "世纪之春花园",
    "area": "86.66",
    "rooms": "2室1厅",
    "direction": "南",
    "floor": "",
    "price": "9000",
    "tags": "",
    "source": "",
    "url": "https://sh.lianjia.com/zufang/SH2116163896942264320.html",
    "rent_type": "整租",
    "location": "长宁-北新泾-世纪之春花园",
    "scraped_at": "2026-04-23 13:14:39",
    "region": "beixinjing",
    "unit_price": 103.9,
    "lat": 31.21779,
    "lng": 121.35247
  },
  {
    "title": "整租·新泾一村 1室0厅 南",
    "community": "新泾一村",
    "area": "20.00",
    "rooms": "1室0厅",
    "direction": "南",
    "floor": "",
    "price": "3300",
    "tags": "",
    "source": "",
    "url": "https://sh.lianjia.com/zufang/SH2148697487043461120.html",
    "rent_type": "整租",
    "location": "长宁-北新泾-新泾一村",
    "scraped_at": "2026-04-23 13:14:39",
    "region": "beixinjing",
    "unit_price": 165.0,
    "lat": 31.22044,
    "lng": 121.36651
  },
  {
    "title": "整租·新泾三村 1室0厅 南/北",
    "community": "新泾三村",
    "area": "29.00",
    "rooms": "1室0厅",
    "direction": "南/北",
    "floor": "",
    "price": "4000",
    "tags": "",
    "source": "",
    "url": "https://sh.lianjia.com/zufang/SH2151224301351600128.html",
    "rent_type": "整租",
    "location": "长宁-北新泾-新泾三村",
    "scraped_at": "2026-04-23 13:14:39",
    "region": "beixinjing",
    "unit_price": 137.9,
    "lat": 31.21793,
    "lng": 121.36461
  },
  {
    "title": "整租·红梅小区(长宁) 2室1厅 南",
    "community": "红梅小区(长宁)",
    "area": "57.93",
    "rooms": "2室1厅",
    "direction": "南",
    "floor": "",
    "price": "6500",
    "tags": "",
    "source": "",
    "url": "https://sh.lianjia.com/zufang/SH2146228947627540480.html",
    "rent_type": "整租",
    "location": "长宁-北新泾-红梅小区(长宁)",
    "scraped_at": "2026-04-23 13:14:39",
    "region": "beixinjing",
    "unit_price": 112.2,
    "lat": 31.21685,
    "lng": 121.35852
  },
  {
    "title": "整租·新泾七村 2室1厅 南",
    "community": "新泾七村",
    "area": "41.70",
    "rooms": "2室1厅",
    "direction": "南",
    "floor": "",
    "price": "5000",
    "tags": "",
    "source": "",
    "url": "https://sh.lianjia.com/zufang/SH2152603643717615616.html",
    "rent_type": "整租",
    "location": "长宁-北新泾-新泾七村",
    "scraped_at": "2026-04-23 13:14:39",
    "region": "beixinjing",
    "unit_price": 119.9,
    "lat": 31.22115,
    "lng": 121.35865
  },
  {
    "title": "整租·剑河家苑 2室1厅 南",
    "community": "剑河家苑",
    "area": "77.86",
    "rooms": "2室1厅",
    "direction": "南",
    "floor": "",
    "price": "8500",
    "tags": "",
    "source": "",
    "url": "https://sh.lianjia.com/zufang/SH2153055850862739456.html",
    "rent_type": "整租",
    "location": "长宁-北新泾-剑河家苑",
    "scraped_at": "2026-04-23 13:14:39",
    "region": "beixinjing",
    "unit_price": 109.2,
    "lat": 31.22264,
    "lng": 121.36526
  },
  {
    "title": "整租·新泾八村 2室1厅 南",
    "community": "新泾八村",
    "area": "66.00",
    "rooms": "2室1厅",
    "direction": "南",
    "floor": "",
    "price": "5700",
    "tags": "",
    "source": "",
    "url": "https://sh.lianjia.com/zufang/SH2153063946003677184.html",
    "rent_type": "整租",
    "location": "长宁-北新泾-新泾八村",
    "scraped_at": "2026-04-23 13:14:39",
    "region": "beixinjing",
    "unit_price": 86.4,
    "lat": 31.21883,
    "lng": 121.3587
  },
  {
    "title": "整租·淞虹苑 2室1厅 南",
    "community": "淞虹苑",
    "area": "48.06",
    "rooms": "2室1厅",
    "direction": "南",
    "floor": "",
    "price": "5600",
    "tags": "",
    "source": "",
    "url": "https://sh.lianjia.com/zufang/SH2153576014272266240.html",
    "rent_type": "整租",
    "location": "长宁-北新泾-淞虹苑",
    "scraped_at": "2026-04-23 13:14:39",
    "region": "beixinjing",
    "unit_price": 116.5,
    "lat": 31.21418,
    "lng": 121.35817
  },
  {
    "title": "整租·馨兰小区 2室0厅 南",
    "community": "馨兰小区",
    "area": "50.00",
    "rooms": "2室0厅",
    "direction": "南",
    "floor": "",
    "price": "4500",
    "tags": "",
    "source": "",
    "url": "https://sh.lianjia.com/zufang/SH2154865086743707648.html",
    "rent_type": "整租",
    "location": "长宁-北新泾-馨兰小区",
    "scraped_at": "2026-04-23 13:14:39",
    "region": "beixinjing",
    "unit_price": 90.0,
    "lat": 31.20957,
    "lng": 121.357
  },
  {
    "title": "整租·绿园五村 1室1厅 南",
    "community": "绿园五村",
    "area": "42.58",
    "rooms": "1室1厅",
    "direction": "南",
    "floor": "",
    "price": "4000",
    "tags": "",
    "source": "",
    "url": "https://sh.lianjia.com/zufang/SH2145742556590243840.html",
    "rent_type": "整租",
    "location": "长宁-北新泾-绿园五村",
    "scraped_at": "2026-04-23 13:14:39",
    "region": "beixinjing",
    "unit_price": 93.9,
    "lat": 31.20472,
    "lng": 121.35887
  },
  {
    "title": "整租·虹园六村 2室1厅 南",
    "community": "虹园六村",
    "area": "52.86",
    "rooms": "2室1厅",
    "direction": "南",
    "floor": "",
    "price": "5500",
    "tags": "",
    "source": "",
    "url": "https://sh.lianjia.com/zufang/SH2146216517220433920.html",
    "rent_type": "整租",
    "location": "长宁-北新泾-虹园六村",
    "scraped_at": "2026-04-23 13:14:39",
    "region": "beixinjing",
    "unit_price": 104.0,
    "lat": 31.21328,
    "lng": 121.3613
  },
  {
    "title": "整租·新泾二村 1室1厅 南",
    "community": "新泾二村",
    "area": "32.00",
    "rooms": "1室1厅",
    "direction": "南",
    "floor": "",
    "price": "4500",
    "tags": "",
    "source": "",
    "url": "https://sh.lianjia.com/zufang/SH2026900579246145536.html",
    "rent_type": "整租",
    "location": "长宁-北新泾-新泾二村",
    "scraped_at": "2026-04-23 13:14:42",
    "region": "beixinjing",
    "unit_price": 140.6,
    "lat": 31.2173,
    "lng": 121.36875
  },
  {
    "title": "整租·瑞冬小区 1室1厅 南",
    "community": "瑞冬小区",
    "area": "32.00",
    "rooms": "1室1厅",
    "direction": "南",
    "floor": "",
    "price": "4095",
    "tags": "",
    "source": "",
    "url": "https://sh.lianjia.com/zufang/SH1950505516253839360.html",
    "rent_type": "整租",
    "location": "长宁-北新泾-瑞冬小区",
    "scraped_at": "2026-04-23 13:14:42",
    "region": "beixinjing",
    "unit_price": 128.0,
    "lat": 31.21629,
    "lng": 121.3615
  },
  {
    "title": "整租·瑞冬小区 1室1厅 南/北",
    "community": "瑞冬小区",
    "area": "41.00",
    "rooms": "1室1厅",
    "direction": "南/北",
    "floor": "",
    "price": "4500",
    "tags": "",
    "source": "",
    "url": "https://sh.lianjia.com/zufang/SH2144398229666529280.html",
    "rent_type": "整租",
    "location": "长宁-北新泾-瑞冬小区",
    "scraped_at": "2026-04-23 13:14:42",
    "region": "beixinjing",
    "unit_price": 109.8,
    "lat": 31.21629,
    "lng": 121.3615
  },
  {
    "title": "整租·绿园十二村 2室1厅 南",
    "community": "绿园十二村",
    "area": "60.40",
    "rooms": "2室1厅",
    "direction": "南",
    "floor": "",
    "price": "4700",
    "tags": "",
    "source": "",
    "url": "https://sh.lianjia.com/zufang/SH2144413057823014912.html",
    "rent_type": "整租",
    "location": "长宁-北新泾-绿园十二村",
    "scraped_at": "2026-04-23 13:14:42",
    "region": "beixinjing",
    "unit_price": 77.8,
    "lat": 31.20559,
    "lng": 121.35483
  },
  {
    "title": "整租·馨兰小区 2室1厅 南/北",
    "community": "馨兰小区",
    "area": "58.74",
    "rooms": "2室1厅",
    "direction": "南/北",
    "floor": "",
    "price": "4935",
    "tags": "",
    "source": "",
    "url": "https://sh.lianjia.com/zufang/SH2000948312626167808.html",
    "rent_type": "整租",
    "location": "长宁-北新泾-馨兰小区",
    "scraped_at": "2026-04-23 13:14:42",
    "region": "beixinjing",
    "unit_price": 84.0,
    "lat": 31.20957,
    "lng": 121.357
  },
  {
    "title": "整租·长宁馥邦苑 3室2厅 南/北",
    "community": "长宁馥邦苑",
    "area": "122.49",
    "rooms": "3室2厅",
    "direction": "南/北",
    "floor": "",
    "price": "12500",
    "tags": "",
    "source": "",
    "url": "https://sh.lianjia.com/zufang/SH2141798321377771520.html",
    "rent_type": "整租",
    "location": "长宁-北新泾-长宁馥邦苑",
    "scraped_at": "2026-04-23 13:14:42",
    "region": "beixinjing",
    "unit_price": 102.0,
    "lat": 31.220014,
    "lng": 121.36886
  },
  {
    "title": "整租·紫竹小区 1室1厅 南",
    "community": "紫竹小区",
    "area": "33.81",
    "rooms": "1室1厅",
    "direction": "南",
    "floor": "",
    "price": "4600",
    "tags": "",
    "source": "",
    "url": "https://sh.lianjia.com/zufang/SH2151332835837870080.html",
    "rent_type": "整租",
    "location": "长宁-北新泾-紫竹小区",
    "scraped_at": "2026-04-23 13:14:42",
    "region": "beixinjing",
    "unit_price": 136.1,
    "lat": 31.21603,
    "lng": 121.36462
  },
  {
    "title": "整租·金菊小区 2室1厅 南/北",
    "community": "金菊小区",
    "area": "60.58",
    "rooms": "2室1厅",
    "direction": "南/北",
    "floor": "",
    "price": "5600",
    "tags": "",
    "source": "",
    "url": "https://sh.lianjia.com/zufang/SH2154591460891033600.html",
    "rent_type": "整租",
    "location": "长宁-北新泾-金菊小区",
    "scraped_at": "2026-04-23 13:14:42",
    "region": "beixinjing",
    "unit_price": 92.4,
    "lat": 48.068095,
    "lng": 86.412001
  },
  {
    "title": "整租·华松西区（仙霞西路700弄） 2室1厅 南",
    "community": "华松西区（仙霞西路700弄）",
    "area": "78.84",
    "rooms": "2室1厅",
    "direction": "南",
    "floor": "",
    "price": "5600",
    "tags": "",
    "source": "",
    "url": "https://sh.lianjia.com/zufang/SH2417449680314580992.html",
    "rent_type": "整租",
    "location": "长宁-北新泾-华松西区",
    "scraped_at": "2026-04-23 13:14:42",
    "region": "beixinjing",
    "unit_price": 71.0,
    "lat": 31.21305,
    "lng": 121.35266
  },
  {
    "title": "整租·新泾一村 1室1厅 南",
    "community": "新泾一村",
    "area": "42.59",
    "rooms": "1室1厅",
    "direction": "南",
    "floor": "",
    "price": "4500",
    "tags": "",
    "source": "",
    "url": "https://sh.lianjia.com/zufang/SH2523914398926913536.html",
    "rent_type": "整租",
    "location": "长宁-北新泾-新泾一村",
    "scraped_at": "2026-04-23 13:14:42",
    "region": "beixinjing",
    "unit_price": 105.7,
    "lat": 31.22044,
    "lng": 121.36651
  },
  {
    "title": "整租·新泾六村 2室1厅 南",
    "community": "新泾六村",
    "area": "55.00",
    "rooms": "2室1厅",
    "direction": "南",
    "floor": "",
    "price": "5800",
    "tags": "",
    "source": "",
    "url": "https://sh.lianjia.com/zufang/SH2609957772993249280.html",
    "rent_type": "整租",
    "location": "长宁-北新泾-新泾六村",
    "scraped_at": "2026-04-23 13:14:42",
    "region": "beixinjing",
    "unit_price": 105.5,
    "lat": 31.2231,
    "lng": 121.36165
  },
  {
    "title": "整租·天蒲小区 1室0厅 南",
    "community": "天蒲小区",
    "area": "33.00",
    "rooms": "1室0厅",
    "direction": "南",
    "floor": "",
    "price": "4800",
    "tags": "",
    "source": "",
    "url": "https://sh.lianjia.com/zufang/SH1737047899923021824.html",
    "rent_type": "整租",
    "location": "长宁-北新泾-天蒲小区",
    "scraped_at": "2026-04-23 13:14:42",
    "region": "beixinjing",
    "unit_price": 145.5,
    "lat": 31.21897,
    "lng": 121.36976
  },
  {
    "title": "整租·瑞冬小区 1室1厅 南",
    "community": "瑞冬小区",
    "area": "44.63",
    "rooms": "1室1厅",
    "direction": "南",
    "floor": "",
    "price": "4410",
    "tags": "",
    "source": "",
    "url": "https://sh.lianjia.com/zufang/SH1775776569009111040.html",
    "rent_type": "整租",
    "location": "长宁-北新泾-瑞冬小区",
    "scraped_at": "2026-04-23 13:14:42",
    "region": "beixinjing",
    "unit_price": 98.8,
    "lat": 31.21629,
    "lng": 121.3615
  },
  {
    "title": "整租·新泾一村 1室1厅 南",
    "community": "新泾一村",
    "area": "32.00",
    "rooms": "1室1厅",
    "direction": "南",
    "floor": "",
    "price": "4400",
    "tags": "",
    "source": "",
    "url": "https://sh.lianjia.com/zufang/SH1776117434722287616.html",
    "rent_type": "整租",
    "location": "长宁-北新泾-新泾一村",
    "scraped_at": "2026-04-23 13:14:42",
    "region": "beixinjing",
    "unit_price": 137.5,
    "lat": 31.22044,
    "lng": 121.36651
  },
  {
    "title": "整租·可乐公馆 2室1厅 南",
    "community": "可乐公馆",
    "area": "35.83",
    "rooms": "2室1厅",
    "direction": "南",
    "floor": "",
    "price": "4300",
    "tags": "",
    "source": "",
    "url": "https://sh.lianjia.com/zufang/SH1895793157178654720.html",
    "rent_type": "整租",
    "location": "长宁-北新泾-可乐公馆",
    "scraped_at": "2026-04-23 13:14:42",
    "region": "beixinjing",
    "unit_price": 120.0,
    "lat": 31.208,
    "lng": 121.35535
  },
  {
    "title": "整租·馨兰小区 2室1厅 南",
    "community": "馨兰小区",
    "area": "69.63",
    "rooms": "2室1厅",
    "direction": "南",
    "floor": "",
    "price": "5550",
    "tags": "",
    "source": "",
    "url": "https://sh.lianjia.com/zufang/SH1896452263577124864.html",
    "rent_type": "整租",
    "location": "长宁-北新泾-馨兰小区",
    "scraped_at": "2026-04-23 13:14:42",
    "region": "beixinjing",
    "unit_price": 79.7,
    "lat": 31.20957,
    "lng": 121.357
  },
  {
    "title": "整租·天蒲小区 2室1厅 南",
    "community": "天蒲小区",
    "area": "59.04",
    "rooms": "2室1厅",
    "direction": "南",
    "floor": "",
    "price": "6900",
    "tags": "",
    "source": "",
    "url": "https://sh.lianjia.com/zufang/SH1925793557721907200.html",
    "rent_type": "整租",
    "location": "长宁-北新泾-天蒲小区",
    "scraped_at": "2026-04-23 13:14:42",
    "region": "beixinjing",
    "unit_price": 116.9,
    "lat": 31.21897,
    "lng": 121.36976
  },
  {
    "title": "整租·华松西区（仙霞西路700弄） 1室1厅 南",
    "community": "华松西区（仙霞西路700弄）",
    "area": "56.86",
    "rooms": "1室1厅",
    "direction": "南",
    "floor": "",
    "price": "4515",
    "tags": "",
    "source": "",
    "url": "https://sh.lianjia.com/zufang/SH1925791540806942720.html",
    "rent_type": "整租",
    "location": "长宁-北新泾-华松西区",
    "scraped_at": "2026-04-23 13:14:42",
    "region": "beixinjing",
    "unit_price": 79.4,
    "lat": 31.21305,
    "lng": 121.35266
  },
  {
    "title": "整租·沁秋小区 1室0厅 南",
    "community": "沁秋小区",
    "area": "36.07",
    "rooms": "1室0厅",
    "direction": "南",
    "floor": "",
    "price": "4300",
    "tags": "",
    "source": "",
    "url": "https://sh.lianjia.com/zufang/SH2017541121923612672.html",
    "rent_type": "整租",
    "location": "长宁-北新泾-沁秋小区",
    "scraped_at": "2026-04-23 13:14:42",
    "region": "beixinjing",
    "unit_price": 119.2,
    "lat": 31.21255,
    "lng": 121.35696
  },
  {
    "title": "整租·广友小区 2室1厅 南",
    "community": "广友小区",
    "area": "52.24",
    "rooms": "2室1厅",
    "direction": "南",
    "floor": "",
    "price": "5500",
    "tags": "",
    "source": "",
    "url": "https://sh.lianjia.com/zufang/SH2149420993779597312.html",
    "rent_type": "整租",
    "location": "长宁-北新泾-广友小区",
    "scraped_at": "2026-04-23 13:14:42",
    "region": "beixinjing",
    "unit_price": 105.3,
    "lat": 31.2173,
    "lng": 121.35475
  },
  {
    "title": "整租·新泾七村 2室0厅 东南/北",
    "community": "新泾七村",
    "area": "45.46",
    "rooms": "2室0厅",
    "direction": "东南/北",
    "floor": "",
    "price": "4700",
    "tags": "",
    "source": "",
    "url": "https://sh.lianjia.com/zufang/SH2157390800172875776.html",
    "rent_type": "整租",
    "location": "长宁-北新泾-新泾七村",
    "scraped_at": "2026-04-23 13:14:42",
    "region": "beixinjing",
    "unit_price": 103.4,
    "lat": 31.22115,
    "lng": 121.35865
  },
  {
    "title": "整租·新泾八村 2室1厅 南",
    "community": "新泾八村",
    "area": "56.25",
    "rooms": "2室1厅",
    "direction": "南",
    "floor": "",
    "price": "6000",
    "tags": "",
    "source": "",
    "url": "https://sh.lianjia.com/zufang/SH2140330410255581184.html",
    "rent_type": "整租",
    "location": "长宁-北新泾-新泾八村",
    "scraped_at": "2026-04-23 13:14:42",
    "region": "beixinjing",
    "unit_price": 106.7,
    "lat": 31.21883,
    "lng": 121.3587
  },
  {
    "title": "整租·永馨小区 2室0厅 南",
    "community": "永馨小区",
    "area": "46.79",
    "rooms": "2室0厅",
    "direction": "南",
    "floor": "",
    "price": "4500",
    "tags": "",
    "source": "",
    "url": "https://sh.lianjia.com/zufang/SH2142208543300780032.html",
    "rent_type": "整租",
    "location": "长宁-北新泾-永馨小区",
    "scraped_at": "2026-04-23 13:14:42",
    "region": "beixinjing",
    "unit_price": 96.2,
    "lat": 31.21083,
    "lng": 121.36886
  },
  {
    "title": "整租·金菊小区 1室1厅 南",
    "community": "金菊小区",
    "area": "45.08",
    "rooms": "1室1厅",
    "direction": "南",
    "floor": "",
    "price": "3500",
    "tags": "",
    "source": "",
    "url": "https://sh.lianjia.com/zufang/SH2138498197876637696.html",
    "rent_type": "整租",
    "location": "长宁-北新泾-金菊小区",
    "scraped_at": "2026-04-23 13:14:42",
    "region": "beixinjing",
    "unit_price": 77.6,
    "lat": 48.068095,
    "lng": 86.412001
  },
  {
    "title": "整租·新泾三村 1室0厅 南",
    "community": "新泾三村",
    "area": "30.67",
    "rooms": "1室0厅",
    "direction": "南",
    "floor": "",
    "price": "4300",
    "tags": "",
    "source": "",
    "url": "https://sh.lianjia.com/zufang/SH1767421490443059200.html",
    "rent_type": "整租",
    "location": "长宁-北新泾-新泾三村",
    "scraped_at": "2026-04-23 13:14:42",
    "region": "beixinjing",
    "unit_price": 140.2,
    "lat": 31.21793,
    "lng": 121.36461
  },
  {
    "title": "整租·天蒲小区 1室0厅 南",
    "community": "天蒲小区",
    "area": "33.40",
    "rooms": "1室0厅",
    "direction": "南",
    "floor": "",
    "price": "4300",
    "tags": "",
    "source": "",
    "url": "https://sh.lianjia.com/zufang/SH1941074557456613376.html",
    "rent_type": "整租",
    "location": "长宁-北新泾-天蒲小区",
    "scraped_at": "2026-04-23 13:14:42",
    "region": "beixinjing",
    "unit_price": 128.7,
    "lat": 31.21897,
    "lng": 121.36976
  },
  {
    "title": "整租·长宁馥邦苑 2室2厅 南",
    "community": "长宁馥邦苑",
    "area": "102.59",
    "rooms": "2室2厅",
    "direction": "南",
    "floor": "",
    "price": "9500",
    "tags": "",
    "source": "",
    "url": "https://sh.lianjia.com/zufang/SH2143310640557588480.html",
    "rent_type": "整租",
    "location": "长宁-北新泾-长宁馥邦苑",
    "scraped_at": "2026-04-23 13:14:42",
    "region": "beixinjing",
    "unit_price": 92.6,
    "lat": 31.220014,
    "lng": 121.36886
  },
  {
    "title": "整租·新泾八村 2室1厅 南",
    "community": "新泾八村",
    "area": "66.40",
    "rooms": "2室1厅",
    "direction": "南",
    "floor": "",
    "price": "6825",
    "tags": "",
    "source": "",
    "url": "https://sh.lianjia.com/zufang/SH1814678459402682368.html",
    "rent_type": "整租",
    "location": "长宁-北新泾-新泾八村",
    "scraped_at": "2026-04-23 13:14:42",
    "region": "beixinjing",
    "unit_price": 102.8,
    "lat": 31.21883,
    "lng": 121.3587
  },
  {
    "title": "整租·新泾一村 2室0厅 南",
    "community": "新泾一村",
    "area": "50.00",
    "rooms": "2室0厅",
    "direction": "南",
    "floor": "",
    "price": "5100",
    "tags": "",
    "source": "",
    "url": "https://sh.lianjia.com/zufang/SH1908405943008231424.html",
    "rent_type": "整租",
    "location": "长宁-北新泾-新泾一村",
    "scraped_at": "2026-04-23 13:14:42",
    "region": "beixinjing",
    "unit_price": 102.0,
    "lat": 31.22044,
    "lng": 121.36651
  },
  {
    "title": "整租·仙霞大郡 4室2厅 南",
    "community": "仙霞大郡",
    "area": "164.76",
    "rooms": "4室2厅",
    "direction": "南",
    "floor": "",
    "price": "12500",
    "tags": "",
    "source": "",
    "url": "https://sh.lianjia.com/zufang/SH2035377053741613056.html",
    "rent_type": "整租",
    "location": "长宁-北新泾-仙霞大郡",
    "scraped_at": "2026-04-23 13:14:42",
    "region": "beixinjing",
    "unit_price": 75.9,
    "lat": 31.2112,
    "lng": 121.3698
  },
  {
    "title": "整租·馨兰小区 2室1厅 南",
    "community": "馨兰小区",
    "area": "69.65",
    "rooms": "2室1厅",
    "direction": "南",
    "floor": "",
    "price": "5565",
    "tags": "",
    "source": "",
    "url": "https://sh.lianjia.com/zufang/SH2047291652850057216.html",
    "rent_type": "整租",
    "location": "长宁-北新泾-馨兰小区",
    "scraped_at": "2026-04-23 13:14:45",
    "region": "beixinjing",
    "unit_price": 79.9,
    "lat": 31.20957,
    "lng": 121.357
  },
  {
    "title": "整租·紫竹小区 1室1厅 南",
    "community": "紫竹小区",
    "area": "33.81",
    "rooms": "1室1厅",
    "direction": "南",
    "floor": "",
    "price": "4600",
    "tags": "",
    "source": "",
    "url": "https://sh.lianjia.com/zufang/SH2151332835837870080.html",
    "rent_type": "整租",
    "location": "长宁-北新泾-紫竹小区",
    "scraped_at": "2026-04-23 13:14:45",
    "region": "beixinjing",
    "unit_price": 136.1,
    "lat": 31.21603,
    "lng": 121.36462
  },
  {
    "title": "整租·天蒲小区 1室0厅 南",
    "community": "天蒲小区",
    "area": "33.00",
    "rooms": "1室0厅",
    "direction": "南",
    "floor": "",
    "price": "4800",
    "tags": "",
    "source": "",
    "url": "https://sh.lianjia.com/zufang/SH1737047899923021824.html",
    "rent_type": "整租",
    "location": "长宁-北新泾-天蒲小区",
    "scraped_at": "2026-04-23 13:14:45",
    "region": "beixinjing",
    "unit_price": 145.5,
    "lat": 31.21897,
    "lng": 121.36976
  },
  {
    "title": "整租·新泾三村 1室0厅 南",
    "community": "新泾三村",
    "area": "30.67",
    "rooms": "1室0厅",
    "direction": "南",
    "floor": "",
    "price": "4300",
    "tags": "",
    "source": "",
    "url": "https://sh.lianjia.com/zufang/SH1767421490443059200.html",
    "rent_type": "整租",
    "location": "长宁-北新泾-新泾三村",
    "scraped_at": "2026-04-23 13:14:45",
    "region": "beixinjing",
    "unit_price": 140.2,
    "lat": 31.21793,
    "lng": 121.36461
  },