[
  {
    "title": "整租·徐汇新城(公寓) 3室2厅 南/北",
    "community": "徐汇新城(公寓)",
    "area": "105.98",
    "rooms": "3室2厅",
    "direction": "南/北",
    "floor": "",
    "price": "8400",
    "tags": "",
    "source": "",
    "url": "https://sh.lianjia.com/zufang/SH2157361598270799872.html",
    "rent_type": "整租",
    "location": "徐汇-长桥-徐汇新城(公寓)",
    "scraped_at": "2026-04-23 14:58:49",
    "region": "changqiao",
    "unit_price": 79.3,
    "lat": 31.131585,
    "lng": 121.452071
  },
  {
    "title": "整租·长桥五村 2室1厅 西南",
    "community": "长桥五村",
    "area": "54.00",
    "rooms": "2室1厅",
    "direction": "西南",
    "floor": "",
    "price": "4500",
    "tags": "",
    "source": "",
    "url": "https://sh.lianjia.com/zufang/SH2141835223338319872.html",
    "rent_type": "整租",
    "location": "徐汇-长桥-长桥五村",
    "scraped_at": "2026-04-23 14:58:49",
    "region": "changqiao",
    "unit_price": 83.3,
    "lat": 31.135979,
    "lng": 121.435571
  },
  {
    "title": "整租·长桥一村 1室1厅 南",
    "community": "长桥一村",
    "area": "36.64",
    "rooms": "1室1厅",
    "direction": "南",
    "floor": "",
    "price": "3700",
    "tags": "",
    "source": "",
    "url": "https://sh.lianjia.com/zufang/SH2156340991072665600.html",
    "rent_type": "整租",
    "location": "徐汇-长桥-长桥一村",
    "scraped_at": "2026-04-23 14:58:49",
    "region": "changqiao",
    "unit_price": 101.0,
    "lat": 31.135865,
    "lng": 121.436789
  },
  {
    "title": "整租·长桥一村 1室1厅 南",
    "community": "长桥一村",
    "area": "48.50",
    "rooms": "1室1厅",
    "direction": "南",
    "floor": "",
    "price": "4790",
    "tags": "",
    "source": "",
    "url": "https://sh.lianjia.com/zufang/SH2012517236127825920.html",
    "rent_type": "整租",
    "location": "徐汇-长桥-长桥一村",
    "scraped_at": "2026-04-23 14:58:49",
    "region": "changqiao",
    "unit_price": 98.8,
    "lat": 31.135865,
    "lng": 121.436789
  },
  {
    "title": "整租·长桥一村 1室1厅 南",
    "community": "长桥一村",
    "area": "36.92",
    "rooms": "1室1厅",
    "direction": "南",
    "floor": "",
    "price": "3500",
    "tags": "",
    "source": "",
    "url": "https://sh.lianjia.com/zufang/SH2151988613527633920.html",
    "rent_type": "整租",
    "location": "徐汇-长桥-长桥一村",
    "scraped_at": "2026-04-23 14:58:49",
    "region": "changqiao",
    "unit_price": 94.8,
    "lat": 31.135865,
    "lng": 121.436789
  },
  {
    "title": "整租·长桥一村 1室1厅 南",
    "community": "长桥一村",
    "area": "38.84",
    "rooms": "1室1厅",
    "direction": "南",
    "floor": "",
    "price": "4130",
    "tags": "",
    "source": "",
    "url": "https://sh.lianjia.com/zufang/SH1943867394770337792.html",
    "rent_type": "整租",
    "location": "徐汇-长桥-长桥一村",
    "scraped_at": "2026-04-23 14:58:49",
    "region": "changqiao",
    "unit_price": 106.3,
    "lat": 31.135865,
    "lng": 121.436789
  },
  {
    "title": "整租·长桥二村 1室0厅 南",
    "community": "长桥二村",
    "area": "30.72",
    "rooms": "1室0厅",
    "direction": "南",
    "floor": "",
    "price": "3300",
    "tags": "",
    "source": "",
    "url": "https://sh.lianjia.com/zufang/SH1832678495768018944.html",
    "rent_type": "整租",
    "location": "徐汇-长桥-长桥二村",
    "scraped_at": "2026-04-23 14:58:49",
    "region": "changqiao",
    "unit_price": 107.4,
    "lat": 31.13799,
    "lng": 121.441471
  },
  {
    "title": "整租·徐汇新城(公寓) 3室2厅 南",
    "community": "徐汇新城(公寓)",
    "area": "101.84",
    "rooms": "3室2厅",
    "direction": "南",
    "floor": "",
    "price": "7000",
    "tags": "",
    "source": "",
    "url": "https://sh.lianjia.com/zufang/SH2148679121834606592.html",
    "rent_type": "整租",
    "location": "徐汇-长桥-徐汇新城(公寓)",
    "scraped_at": "2026-04-23 14:58:49",
    "region": "changqiao",
    "unit_price": 68.7,
    "lat": 31.131585,
    "lng": 121.452071
  },
  {
    "title": "整租·长桥一村 1室1厅 南",
    "community": "长桥一村",
    "area": "39.29",
    "rooms": "1室1厅",
    "direction": "南",
    "floor": "",
    "price": "3900",
    "tags": "",
    "source": "",
    "url": "https://sh.lianjia.com/zufang/SH2083601108567064576.html",
    "rent_type": "整租",
    "location": "徐汇-长桥-长桥一村",
    "scraped_at": "2026-04-23 14:58:49",
    "region": "changqiao",
    "unit_price": 99.3,
    "lat": 31.135865,
    "lng": 121.436789
  },
  {
    "title": "整租·长桥二村 1室1厅 南",
    "community": "长桥二村",
    "area": "30.03",
    "rooms": "1室1厅",
    "direction": "南",
    "floor": "",
    "price": "4530",
    "tags": "",
    "source": "",
    "url": "https://sh.lianjia.com/zufang/SH1982921404219129856.html",
    "rent_type": "整租",
    "location": "徐汇-长桥-长桥二村",
    "scraped_at": "2026-04-23 14:58:49",
    "region": "changqiao",
    "unit_price": 150.8,
    "lat": 31.13799,
    "lng": 121.441471
  },
  {
    "title": "整租·长桥五村 1室1厅 南",
    "community": "长桥五村",
    "area": "44.00",
    "rooms": "1室1厅",
    "direction": "南",
    "floor": "",
    "price": "4305",
    "tags": "",
    "source": "",
    "url": "https://sh.lianjia.com/zufang/SH2093706014229528576.html",
    "rent_type": "整租",
    "location": "徐汇-长桥-长桥五村",
    "scraped_at": "2026-04-23 14:58:49",
    "region": "changqiao",
    "unit_price": 97.8,
    "lat": 31.135979,
    "lng": 121.435571
  },
  {
    "title": "整租·长桥一村 1室1厅 西南",
    "community": "长桥一村",
    "area": "41.96",
    "rooms": "1室1厅",
    "direction": "西南",
    "floor": "",
    "price": "3560",
    "tags": "",
    "source": "",
    "url": "https://sh.lianjia.com/zufang/SH2106263896854626304.html",
    "rent_type": "整租",
    "location": "徐汇-长桥-长桥一村",
    "scraped_at": "2026-04-23 14:58:49",
    "region": "changqiao",
    "unit_price": 84.8,
    "lat": 31.135865,
    "lng": 121.436789
  },
  {
    "title": "整租·长桥四村 1室0厅 南",
    "community": "长桥四村",
    "area": "36.38",
    "rooms": "1室0厅",
    "direction": "南",
    "floor": "",
    "price": "3800",
    "tags": "",
    "source": "",
    "url": "https://sh.lianjia.com/zufang/SH1839611552710262784.html",
    "rent_type": "整租",
    "location": "徐汇-长桥-长桥四村",
    "scraped_at": "2026-04-23 14:58:49",
    "region": "changqiao",
    "unit_price": 104.5,
    "lat": 31.133012,
    "lng": 121.441008
  },
  {
    "title": "整租·长桥三村 1室1厅 南",
    "community": "长桥三村",
    "area": "44.24",
    "rooms": "1室1厅",
    "direction": "南",
    "floor": "",
    "price": "4300",
    "tags": "",
    "source": "",
    "url": "https://sh.lianjia.com/zufang/SH2018378800366092288.html",
    "rent_type": "整租",
    "location": "徐汇-长桥-长桥三村",
    "scraped_at": "2026-04-23 14:58:49",
    "region": "changqiao",
    "unit_price": 97.2,
    "lat": 31.133012,
    "lng": 121.441008
  },
  {
    "title": "整租·长桥一村 1室1厅 东",
    "community": "长桥一村",
    "area": "38.80",
    "rooms": "1室1厅",
    "direction": "东",
    "floor": "",
    "price": "3500",
    "tags": "",
    "source": "",
    "url": "https://sh.lianjia.com/zufang/SH2146870212559896576.html",
    "rent_type": "整租",
    "location": "徐汇-长桥-长桥一村",
    "scraped_at": "2026-04-23 14:58:49",
    "region": "changqiao",
    "unit_price": 90.2,
    "lat": 31.135865,
    "lng": 121.436789
  },
  {
    "title": "整租·长桥一村 1室1厅 南",
    "community": "长桥一村",
    "area": "37.68",
    "rooms": "1室1厅",
    "direction": "南",
    "floor": "",
    "price": "3800",
    "tags": "",
    "source": "",
    "url": "https://sh.lianjia.com/zufang/SH2147192416883441664.html",
    "rent_type": "整租",
    "location": "徐汇-长桥-长桥一村",
    "scraped_at": "2026-04-23 14:58:49",
    "region": "changqiao",
    "unit_price": 100.8,
    "lat": 31.135865,
    "lng": 121.436789
  },
  {
    "title": "整租·长桥一村 1室1厅 南",
    "community": "长桥一村",
    "area": "36.00",
    "rooms": "1室1厅",
    "direction": "南",
    "floor": "",
    "price": "3600",
    "tags": "",
    "source": "",
    "url": "https://sh.lianjia.com/zufang/SH1935970574455013376.html",
    "rent_type": "整租",
    "location": "徐汇-长桥-长桥一村",
    "scraped_at": "2026-04-23 14:58:49",
    "region": "changqiao",
    "unit_price": 100.0,
    "lat": 31.135865,
    "lng": 121.436789
  },
  {
    "title": "整租·徐汇新城(公寓) 2室1厅 南",
    "community": "徐汇新城(公寓)",
    "area": "90.27",
    "rooms": "2室1厅",
    "direction": "南",
    "floor": "",
    "price": "8000",
    "tags": "",
    "source": "",
    "url": "https://sh.lianjia.com/zufang/SH2156784118468182016.html",
    "rent_type": "整租",
    "location": "徐汇-长桥-徐汇新城(公寓)",
    "scraped_at": "2026-04-23 14:58:49",
    "region": "changqiao",
    "unit_price": 88.6,
    "lat": 31.131585,
    "lng": 121.452071
  },
  {
    "title": "整租·长桥一村 1室1厅 南",
    "community": "长桥一村",
    "area": "28.50",
    "rooms": "1室1厅",
    "direction": "南",
    "floor": "",
    "price": "3675",
    "tags": "",
    "source": "",
    "url": "https://sh.lianjia.com/zufang/SH1966470821979357184.html",
    "rent_type": "整租",
    "location": "徐汇-长桥-长桥一村",
    "scraped_at": "2026-04-23 14:58:49",
    "region": "changqiao",
    "unit_price": 128.9,
    "lat": 31.135865,
    "lng": 121.436789
  },
  {
    "title": "整租·长桥一村 1室1厅 南",
    "community": "长桥一村",
    "area": "36.92",
    "rooms": "1室1厅",
    "direction": "南",
    "floor": "",
    "price": "3570",
    "tags": "",
    "source": "",
    "url": "https://sh.lianjia.com/zufang/SH2041154176750190592.html",
    "rent_type": "整租",
    "location": "徐汇-长桥-长桥一村",
    "scraped_at": "2026-04-23 14:58:49",
    "region": "changqiao",
    "unit_price": 96.7,
    "lat": 31.135865,
    "lng": 121.436789
  },
  {
    "title": "整租·罗秀二村 2室0厅 南/北",
    "community": "罗秀二村",
    "area": "52.23",
    "rooms": "2室0厅",
    "direction": "南/北",
    "floor": "",
    "price": "4600",
    "tags": "",
    "source": "",
    "url": "https://sh.lianjia.com/zufang/SH2139291255731912704.html",
    "rent_type": "整租",
    "location": "徐汇-长桥-罗秀二村",
    "scraped_at": "2026-04-23 14:58:49",
    "region": "changqiao",
    "unit_price": 88.1,
    "lat": 31.133268,
    "lng": 121.445449
  },
  {
    "title": "整租·长桥四村 2室0厅 南",
    "community": "长桥四村",
    "area": "51.42",
    "rooms": "2室0厅",
    "direction": "南",
    "floor": "",
    "price": "4410",
    "tags": "",
    "source": "",
    "url": "https://sh.lianjia.com/zufang/SH2024738478520008704.html",
    "rent_type": "整租",
    "location": "徐汇-长桥-长桥四村",
    "scraped_at": "2026-04-23 14:58:49",
    "region": "changqiao",
    "unit_price": 85.8,
    "lat": 31.133012,
    "lng": 121.441008
  },
  {
    "title": "整租·长桥一村 1室0厅 南",
    "community": "长桥一村",
    "area": "38.77",
    "rooms": "1室0厅",
    "direction": "南",
    "floor": "",
    "price": "3760",
    "tags": "",
    "source": "",
    "url": "https://sh.lianjia.com/zufang/SH2017204559939633152.html",
    "rent_type": "整租",
    "location": "徐汇-长桥-长桥一村",
    "scraped_at": "2026-04-23 14:58:49",
    "region": "changqiao",
    "unit_price": 97.0,
    "lat": 31.135865,
    "lng": 121.436789
  },
  {
    "title": "整租·罗秀二村 2室1厅 南",
    "community": "罗秀二村",
    "area": "56.72",
    "rooms": "2室1厅",
    "direction": "南",
    "floor": "",
    "price": "4300",
    "tags": "",
    "source": "",
    "url": "https://sh.lianjia.com/zufang/SH2156040665778094080.html",
    "rent_type": "整租",
    "location": "徐汇-长桥-罗秀二村",
    "scraped_at": "2026-04-23 14:58:49",
    "region": "changqiao",
    "unit_price": 75.8,
    "lat": 31.133268,
    "lng": 121.445449
  },
  {
    "title": "整租·长桥三村 2室1厅 东南",
    "community": "长桥三村",
    "area": "56.63",
    "rooms": "2室1厅",
    "direction": "东南",
    "floor": "",
    "price": "4950",
    "tags": "",
    "source": "",
    "url": "https://sh.lianjia.com/zufang/SH2150226862477934592.html",
    "rent_type": "整租",
    "location": "徐汇-长桥-长桥三村",
    "scraped_at": "2026-04-23 14:58:49",
    "region": "changqiao",
    "unit_price": 87.4,
    "lat": 31.133012,
    "lng": 121.441008
  },
  {
    "title": "整租·华馨公寓 3室2厅 南/北",
    "community": "华馨公寓",
    "area": "114.90",
    "rooms": "3室2厅",
    "direction": "南/北",
    "floor": "",
    "price": "12000",
    "tags": "",
    "source": "",
    "url": "https://sh.lianjia.com/zufang/SH2154129337031327744.html",
    "rent_type": "整租",
    "location": "徐汇-长桥-华馨公寓",
    "scraped_at": "2026-04-23 14:58:49",
    "region": "changqiao",
    "unit_price": 104.4,
    "lat": 31.13414,
    "lng": 121.451923
  },
  {
    "title": "整租·罗秀二村 2室1厅 南",
    "community": "罗秀二村",
    "area": "58.51",
    "rooms": "2室1厅",
    "direction": "南",
    "floor": "",
    "price": "5000",
    "tags": "",
    "source": "",
    "url": "https://sh.lianjia.com/zufang/SH2141862131853688832.html",
    "rent_type": "整租",
    "location": "徐汇-长桥-罗秀二村",
    "scraped_at": "2026-04-23 14:58:49",
    "region": "changqiao",
    "unit_price": 85.5,
    "lat": 31.133268,
    "lng": 121.445449
  },
  {
    "title": "整租·徐汇新城(公寓) 2室2厅 南",
    "community": "徐汇新城(公寓)",
    "area": "106.00",
    "rooms": "2室2厅",
    "direction": "南",
    "floor": "",
    "price": "8200",
    "tags": "",
    "source": "",
    "url": "https://sh.lianjia.com/zufang/SH2112814357556494336.html",
    "rent_type": "整租",
    "location": "徐汇-长桥-徐汇新城(公寓)",
    "scraped_at": "2026-04-23 14:58:49",
    "region": "changqiao",
    "unit_price": 77.4,
    "lat": 31.131585,
    "lng": 121.452071
  },
  {
    "title": "整租·星罗苑 2室2厅 南",
    "community": "星罗苑",
    "area": "95.00",
    "rooms": "2室2厅",
    "direction": "南",
    "floor": "",
    "price": "9500",
    "tags": "",
    "source": "",
    "url": "https://sh.lianjia.com/zufang/SH2154143320702451712.html",
    "rent_type": "整租",
    "location": "徐汇-长桥-星罗苑",
    "scraped_at": "2026-04-23 14:58:49",
    "region": "changqiao",
    "unit_price": 100.0,
    "lat": 31.135451,
    "lng": 121.43887
  },
  {
    "title": "整租·长桥五村 2室1厅 南",
    "community": "长桥五村",
    "area": "55.33",
    "rooms": "2室1厅",
    "direction": "南",
    "floor": "",
    "price": "5300",
    "tags": "",
    "source": "",
    "url": "https://sh.lianjia.com/zufang/SH2157436237634338816.html",
    "rent_type": "整租",
    "location": "徐汇-长桥-长桥五村",
    "scraped_at": "2026-04-23 14:58:49",
    "region": "changqiao",
    "unit_price": 95.8,
    "lat": 31.135979,
    "lng": 121.435571
  },
  {
    "title": "整租·航天新苑 2室1厅 南",
    "community": "航天新苑",
    "area": "70.42",
    "rooms": "2室1厅",
    "direction": "南",
    "floor": "",
    "price": "6300",
    "tags": "",
    "source": "",
    "url": "https://sh.lianjia.com/zufang/SH1966815289739837440.html",
    "rent_type": "整租",
    "location": "徐汇-漕河泾-航天新苑",
    "scraped_at": "2026-04-23 14:36:25",
    "region": "caohejing",
    "unit_price": 89.5,
    "lat": 31.172381,
    "lng": 121.395227
  },
  {
    "title": "整租·华悦家园 2室2厅 南",
    "community": "华悦家园",
    "area": "91.20",
    "rooms": "2室2厅",
    "direction": "南",
    "floor": "",
    "price": "10200",
    "tags": "",
    "source": "",
    "url": "https://sh.lianjia.com/zufang/SH2154823122224676864.html",
    "rent_type": "整租",
    "location": "徐汇-漕河泾-华悦家园",
    "scraped_at": "2026-04-23 14:36:25",
    "region": "caohejing",
    "unit_price": 111.8,
    "lat": 31.166865,
    "lng": 121.410703
  },
  {
    "title": "整租·虹梅小区 3室1厅 南",
    "community": "虹梅小区",
    "area": "94.50",
    "rooms": "3室1厅",
    "direction": "南",
    "floor": "",
    "price": "6699",
    "tags": "",
    "source": "",
    "url": "https://sh.lianjia.com/zufang/SH2016413844242432000.html",
    "rent_type": "整租",
    "location": "徐汇-漕河泾-虹梅小区",
    "scraped_at": "2026-04-23 14:36:25",
    "region": "caohejing",
    "unit_price": 70.9,
    "lat": 31.175388,
    "lng": 121.395542
  },
  {
    "title": "独栋·华迈公寓 华迈公寓 地铁100米/午后温馨阳光小居/独立卫生间/漕河泾商务区 1室1厅",
    "community": "华迈公寓 华迈公寓 地铁100米/午后温馨阳光小居/独立卫生间/漕河泾商务区",
    "area": "36.00",
    "rooms": "1室1厅",
    "direction": "",
    "floor": "",
    "price": "6600",
    "tags": "",
    "source": "",
    "url": "https://sh.lianjia.com/apartment/99069.html",
    "rent_type": "独栋",
    "location": "",
    "scraped_at": "2026-04-23 14:36:25",
    "region": "caohejing",
    "unit_price": 183.3,
    "lat": 31.276065,
    "lng": 121.264737
  },
  {
    "title": "整租·华悦家园 3室1厅 南",
    "community": "华悦家园",
    "area": "90.30",
    "rooms": "3室1厅",
    "direction": "南",
    "floor": "",
    "price": "8900",
    "tags": "",
    "source": "",
    "url": "https://sh.lianjia.com/zufang/SH2074771861886992384.html",
    "rent_type": "整租",
    "location": "徐汇-漕河泾-华悦家园",
    "scraped_at": "2026-04-23 14:36:25",
    "region": "caohejing",
    "unit_price": 98.6,
    "lat": 31.166865,
    "lng": 121.410703
  },
  {
    "title": "整租·欣嘉苑 3室1厅 南/北",
    "community": "欣嘉苑",
    "area": "77.00",
    "rooms": "3室1厅",
    "direction": "南/北",
    "floor": "",
    "price": "8190",
    "tags": "",
    "source": "",
    "url": "https://sh.lianjia.com/zufang/SH2010927843277537280.html",
    "rent_type": "整租",
    "location": "徐汇-漕河泾-欣嘉苑",
    "scraped_at": "2026-04-23 14:36:25",
    "region": "caohejing",
    "unit_price": 106.4,
    "lat": 31.180722,
    "lng": 121.408472
  },
  {
    "title": "整租·华悦家园 2室2厅 南",
    "community": "华悦家园",
    "area": "90.00",
    "rooms": "2室2厅",
    "direction": "南",
    "floor": "",
    "price": "8500",
    "tags": "",
    "source": "",
    "url": "https://sh.lianjia.com/zufang/SH2153013160045445120.html",
    "rent_type": "整租",
    "location": "徐汇-漕河泾-华悦家园",
    "scraped_at": "2026-04-23 14:36:25",
    "region": "caohejing",
    "unit_price": 94.4,
    "lat": 31.166865,
    "lng": 121.410703
  },
  {
    "title": "整租·凯迪虹桥晶舍 2室1厅 南",
    "community": "凯迪虹桥晶舍",
    "area": "86.95",
    "rooms": "2室1厅",
    "direction": "南",
    "floor": "",
    "price": "9950",
    "tags": "",
    "source": "",
    "url": "https://sh.lianjia.com/zufang/SH2148999055705899008.html",
    "rent_type": "整租",
    "location": "徐汇-漕河泾-凯迪虹桥晶舍",
    "scraped_at": "2026-04-23 14:36:25",
    "region": "caohejing",
    "unit_price": 114.4,
    "lat": 31.181495,
    "lng": 121.413716
  },
  {
    "title": "整租·欣嘉苑 1室1厅 南",
    "community": "欣嘉苑",
    "area": "52.64",
    "rooms": "1室1厅",
    "direction": "南",
    "floor": "",
    "price": "5460",
    "tags": "",
    "source": "",
    "url": "https://sh.lianjia.com/zufang/SH2156396743715979264.html",
    "rent_type": "整租",
    "location": "徐汇-漕河泾-欣嘉苑",
    "scraped_at": "2026-04-23 14:36:25",
    "region": "caohejing",
    "unit_price": 103.7,
    "lat": 31.180722,
    "lng": 121.408472
  },
  {
    "title": "整租·虹六小区 1室1厅 南",
    "community": "虹六小区",
    "area": "45.00",
    "rooms": "1室1厅",
    "direction": "南",
    "floor": "",
    "price": "4000",
    "tags": "",
    "source": "",
    "url": "https://sh.lianjia.com/zufang/SH2022293608895348736.html",
    "rent_type": "整租",
    "location": "徐汇-漕河泾-虹六小区",
    "scraped_at": "2026-04-23 14:36:25",
    "region": "caohejing",
    "unit_price": 88.9,
    "lat": 31.188334,
    "lng": 121.436307
  },
  {
    "title": "整租·航天新苑 2室1厅 南/北",
    "community": "航天新苑",
    "area": "76.65",
    "rooms": "2室1厅",
    "direction": "南/北",
    "floor": "",
    "price": "7000",
    "tags": "",
    "source": "",
    "url": "https://sh.lianjia.com/zufang/SH2154547954461966336.html",
    "rent_type": "整租",
    "location": "徐汇-漕河泾-航天新苑",
    "scraped_at": "2026-04-23 14:36:25",
    "region": "caohejing",
    "unit_price": 91.3,
    "lat": 31.172381,
    "lng": 121.395227
  },
  {
    "title": "独栋·白居易公寓 漕河泾店 新春特惠 漕河泾保租房 12号线虹漕路地铁站500百米 开间",
    "community": "白居易公寓 漕河泾店 新春特惠 漕河泾保租房 12号线虹漕路地铁站500百米 开间",
    "area": "20.00",
    "rooms": "",
    "direction": "",
    "floor": "",
    "price": "4100",
    "tags": "",
    "source": "",
    "url": "https://sh.lianjia.com/apartment/86701.html",
    "rent_type": "独栋",
    "location": "",
    "scraped_at": "2026-04-23 14:36:25",
    "region": "caohejing",
    "unit_price": 205.0,
    "lat": 31.034035,
    "lng": 121.402035
  },
  {
    "title": "整租·蒲汇新苑 2室2厅 南",
    "community": "蒲汇新苑",
    "area": "95.00",
    "rooms": "2室2厅",
    "direction": "南",
    "floor": "",
    "price": "11500",
    "tags": "",
    "source": "",
    "url": "https://sh.lianjia.com/zufang/SH2156312702106992640.html",
    "rent_type": "整租",
    "location": "徐汇-漕河泾-蒲汇新苑",
    "scraped_at": "2026-04-23 14:36:25",
    "region": "caohejing",
    "unit_price": 121.1,
    "lat": 31.179088,
    "lng": 121.398457
  },
  {
    "title": "整租·东方康洛 3室2厅 南",
    "community": "东方康洛",
    "area": "145.71",
    "rooms": "3室2厅",
    "direction": "南",
    "floor": "",
    "price": "14500",
    "tags": "",
    "source": "",
    "url": "https://sh.lianjia.com/zufang/SH2138700545999765504.html",
    "rent_type": "整租",
    "location": "徐汇-漕河泾-东方康洛",
    "scraped_at": "2026-04-23 14:36:25",
    "region": "caohejing",
    "unit_price": 99.5,
    "lat": 31.177621,
    "lng": 121.412288
  },
  {
    "title": "整租·航天公寓一期 4室2厅 南/北",
    "community": "航天公寓一期",
    "area": "146.38",
    "rooms": "4室2厅",
    "direction": "南/北",
    "floor": "",
    "price": "15600",
    "tags": "",
    "source": "",
    "url": "https://sh.lianjia.com/zufang/SH2128712252851748864.html",
    "rent_type": "整租",
    "location": "徐汇-漕河泾-航天公寓一期",
    "scraped_at": "2026-04-23 14:36:25",
    "region": "caohejing",
    "unit_price": 106.6,
    "lat": 31.180005,
    "lng": 121.411656
  },
  {
    "title": "整租·钦江大楼 2室2厅 北",
    "community": "钦江大楼",
    "area": "65.00",
    "rooms": "2室2厅",
    "direction": "北",
    "floor": "",
    "price": "6500",
    "tags": "",
    "source": "",
    "url": "https://sh.lianjia.com/zufang/SH2151205262575271936.html",
    "rent_type": "整租",
    "location": "徐汇-漕河泾-钦江大楼",
    "scraped_at": "2026-04-23 14:36:25",
    "region": "caohejing",
    "unit_price": 100.0,
    "lat": 31.176802,
    "lng": 121.41343
  },
  {
    "title": "整租·华悦家园 1室1厅 南",
    "community": "华悦家园",
    "area": "58.25",
    "rooms": "1室1厅",
    "direction": "南",
    "floor": "",
    "price": "7500",
    "tags": "",
    "source": "",
    "url": "https://sh.lianjia.com/zufang/SH2154437526167748608.html",
    "rent_type": "整租",
    "location": "徐汇-漕河泾-华悦家园",
    "scraped_at": "2026-04-23 14:36:25",
    "region": "caohejing",
    "unit_price": 128.8,
    "lat": 31.166865,
    "lng": 121.410703
  },
  {
    "title": "独栋·爱住 桂林公园 【58平】阳光一室 宠物友好 民水电 商场环绕 押一付一 1室1厅",
    "community": "爱住 桂林公园 【58平】阳光一室 宠物友好 民水电 商场环绕 押一付一",
    "area": "58.00",
    "rooms": "1室1厅",
    "direction": "",
    "floor": "",
    "price": "11097",
    "tags": "",
    "source": "tencent",
    "url": "https://sh.lianjia.com/apartment/91385.html",
    "rent_type": "独栋",
    "location": "",
    "scraped_at": "2026-04-23 14:36:25",
    "region": "caohejing",
    "unit_price": 191.3,
    "lat": 25.231778,
    "lng": 110.179284
  },
  {
    "title": "整租·华悦家园 4室1厅 南",
    "community": "华悦家园",
    "area": "120.14",
    "rooms": "4室1厅",
    "direction": "南",
    "floor": "",
    "price": "12000",
    "tags": "",
    "source": "",
    "url": "https://sh.lianjia.com/zufang/SH2149378540452184064.html",
    "rent_type": "整租",
    "location": "徐汇-漕河泾-华悦家园",
    "scraped_at": "2026-04-23 14:36:25",
    "region": "caohejing",
    "unit_price": 99.9,
    "lat": 31.166865,
    "lng": 121.410703
  },
  {
    "title": "独栋·爱住 鑫耀·漕河泾店 【59平】近鑫耀光环 漕河泾中心 12号线桂林公园 宠物友好 1室1厅",
    "community": "爱住 鑫耀·漕河泾店 【59平】近鑫耀光环 漕河泾中心 12号线桂林公园 宠物友好",
    "area": "59.00",
    "rooms": "1室1厅",
    "direction": "",
    "floor": "",
    "price": "11115",
    "tags": "",
    "source": "",
    "url": "https://sh.lianjia.com/apartment/90983.html",
    "rent_type": "独栋",
    "location": "",
    "scraped_at": "2026-04-23 14:36:25",
    "region": "caohejing",
    "unit_price": 188.4,
    "lat": null,
    "lng": null
  },
  {
    "title": "整租·欣嘉苑 2室1厅 南",
    "community": "欣嘉苑",
    "area": "79.78",
    "rooms": "2室1厅",
    "direction": "南",
    "floor": "",
    "price": "8200",
    "tags": "",
    "source": "",
    "url": "https://sh.lianjia.com/zufang/SH2116395171020013568.html",
    "rent_type": "整租",
    "location": "徐汇-漕河泾-欣嘉苑",
    "scraped_at": "2026-04-23 14:36:25",
    "region": "caohejing",
    "unit_price": 102.8,
    "lat": 31.180722,
    "lng": 121.408472
  },
  {
    "title": "整租·桂林苑 3室1厅 南",
    "community": "桂林苑",
    "area": "112.45",
    "rooms": "3室1厅",
    "direction": "南",
    "floor": "",
    "price": "10000",
    "tags": "",
    "source": "",
    "url": "https://sh.lianjia.com/zufang/SH2153059217244684288.html",
    "rent_type": "整租",
    "location": "徐汇-漕河泾-桂林苑",
    "scraped_at": "2026-04-23 14:36:25",
    "region": "caohejing",
    "unit_price": 88.9,
    "lat": 31.180502,
    "lng": 121.412647
  },
  {
    "title": "整租·桂林苑 2室1厅 南/北",
    "community": "桂林苑",
    "area": "62.00",
    "rooms": "2室1厅",
    "direction": "南/北",
    "floor": "",
    "price": "6000",
    "tags": "",
    "source": "",
    "url": "https://sh.lianjia.com/zufang/SH2111749043397853184.html",
    "rent_type": "整租",
    "location": "徐汇-漕河泾-桂林苑",
    "scraped_at": "2026-04-23 14:36:25",
    "region": "caohejing",
    "unit_price": 96.8,
    "lat": 31.180502,
    "lng": 121.412647
  },
  {
    "title": "整租·华悦家园 1室1厅 南",
    "community": "华悦家园",
    "area": "58.32",
    "rooms": "1室1厅",
    "direction": "南",
    "floor": "",
    "price": "7200",
    "tags": "",
    "source": "",
    "url": "https://sh.lianjia.com/zufang/SH2121539456006619136.html",
    "rent_type": "整租",
    "location": "徐汇-漕河泾-华悦家园",
    "scraped_at": "2026-04-23 14:36:25",
    "region": "caohejing",
    "unit_price": 123.5,
    "lat": 31.166865,
    "lng": 121.410703
  },
  {
    "title": "整租·紫阳花苑 2室1厅 南",
    "community": "紫阳花苑",
    "area": "59.00",
    "rooms": "2室1厅",
    "direction": "南",
    "floor": "",
    "price": "3800",
    "tags": "",
    "source": "",
    "url": "https://sh.lianjia.com/zufang/SH2088934814949310464.html",
    "rent_type": "整租",
    "location": "徐汇-华泾-紫阳花苑",
    "scraped_at": "2026-04-23 14:59:15",
    "region": "huajing",
    "unit_price": 64.4,
    "lat": 31.113366,
    "lng": 121.453229
  },
  {
    "title": "整租·名人花苑 3室2厅 南",
    "community": "名人花苑",
    "area": "127.59",
    "rooms": "3室2厅",
    "direction": "南",
    "floor": "",
    "price": "9000",
    "tags": "",
    "source": "",
    "url": "https://sh.lianjia.com/zufang/SH2155523519927025664.html",
    "rent_type": "整租",
    "location": "徐汇-华泾-名人花苑",
    "scraped_at": "2026-04-23 14:58:52",
    "region": "huajing",
    "unit_price": 70.5,
    "lat": 31.114826,
    "lng": 121.45539
  },
  {
    "title": "整租·东湾小区 2室1厅 南/北",
    "community": "东湾小区",
    "area": "57.00",
    "rooms": "2室1厅",
    "direction": "南/北",
    "floor": "",
    "price": "4500",
    "tags": "",
    "source": "",
    "url": "https://sh.lianjia.com/zufang/SH2019032949411807232.html",
    "rent_type": "整租",
    "location": "徐汇-华泾-东湾小区",
    "scraped_at": "2026-04-23 14:59:15",
    "region": "huajing",
    "unit_price": 78.9,
    "lat": 31.122795,
    "lng": 121.4589
  },
  {
    "title": "独栋·冠寓 上海华泾天街国际公寓 限时直降好房，品牌停车方便，近商场公园，学生企业享折扣 1室1厅",
    "community": "冠寓 上海华泾天街国际公寓 限时直降好房，品牌停车方便，近商场公园，学生企业享折扣",
    "area": "52.00",
    "rooms": "1室1厅",
    "direction": "",
    "floor": "",
    "price": "5558",
    "tags": "",
    "source": "",
    "url": "https://sh.lianjia.com/apartment/18560.html",
    "rent_type": "独栋",
    "location": "",
    "scraped_at": "2026-04-23 14:58:58",
    "region": "huajing",
    "unit_price": 106.9,
    "lat": 31.358064,
    "lng": 121.362647
  },
  {
    "title": "整租·华发小区 2室1厅 南",
    "community": "华发小区",
    "area": "58.00",
    "rooms": "2室1厅",
    "direction": "南",
    "floor": "",
    "price": "4290",
    "tags": "",
    "source": "",
    "url": "https://sh.lianjia.com/zufang/SH1875433393538203648.html",
    "rent_type": "整租",
    "location": "徐汇-华泾-华发小区",
    "scraped_at": "2026-04-23 14:59:15",
    "region": "huajing",
    "unit_price": 74.0,
    "lat": 31.128143,
    "lng": 121.452352
  },
  {
    "title": "独栋·徐房悦庭 华欣家园店 三室一厅南北通透民水民电通燃气拎包入住 3室1厅",
    "community": "徐房悦庭 华欣家园店 三室一厅南北通透民水民电通燃气拎包入住",
    "area": "88.00",
    "rooms": "3室1厅",
    "direction": "",
    "floor": "",
    "price": "6800",
    "tags": "",
    "source": "",
    "url": "https://sh.lianjia.com/apartment/104905.html",
    "rent_type": "独栋",
    "location": "",
    "scraped_at": "2026-04-23 14:58:52",
    "region": "huajing",
    "unit_price": 77.3,
    "lat": 31.1197,
    "lng": 121.458865
  },
  {
    "title": "整租·盛华景苑 1室1厅 南",
    "community": "盛华景苑",
    "area": "68.27",
    "rooms": "1室1厅",
    "direction": "南",
    "floor": "",
    "price": "3800",
    "tags": "",
    "source": "",
    "url": "https://sh.lianjia.com/zufang/SH2151246576113156096.html",
    "rent_type": "整租",
    "location": "徐汇-华泾-盛华景苑",
    "scraped_at": "2026-04-23 14:59:15",
    "region": "huajing",
    "unit_price": 55.7,
    "lat": 31.108502,
    "lng": 121.456312
  },
  {
    "title": "整租·盛华景苑 3室2厅 南/北",
    "community": "盛华景苑",
    "area": "126.00",
    "rooms": "3室2厅",
    "direction": "南/北",
    "floor": "",
    "price": "8000",
    "tags": "",
    "source": "",
    "url": "https://sh.lianjia.com/zufang/SH2154207478902947840.html",
    "rent_type": "整租",
    "location": "徐汇-华泾-盛华景苑",
    "scraped_at": "2026-04-23 14:58:52",
    "region": "huajing",
    "unit_price": 63.5,
    "lat": 31.108502,
    "lng": 121.456312
  },
  {
    "title": "整租·紫阳花苑 1室1厅 南",
    "community": "紫阳花苑",
    "area": "43.90",
    "rooms": "1室1厅",
    "direction": "南",
    "floor": "",
    "price": "3800",
    "tags": "",
    "source": "",
    "url": "https://sh.lianjia.com/zufang/SH2153111512430936064.html",
    "rent_type": "整租",
    "location": "徐汇-华泾-紫阳花苑",
    "scraped_at": "2026-04-23 14:59:15",
    "region": "huajing",
    "unit_price": 86.6,
    "lat": 31.113366,
    "lng": 121.453229
  },
  {
    "title": "整租·馨宁公寓 2室1厅 南",
    "community": "馨宁公寓",
    "area": "62.40",
    "rooms": "2室1厅",
    "direction": "南",
    "floor": "",
    "price": "5040",
    "tags": "",
    "source": "",
    "url": "https://sh.lianjia.com/zufang/SH2099856297024290816.html",
    "rent_type": "整租",
    "location": "徐汇-华泾-馨宁公寓",
    "scraped_at": "2026-04-23 14:59:15",
    "region": "huajing",
    "unit_price": 80.8,
    "lat": 31.128221,
    "lng": 121.447719
  },
  {
    "title": "整租·华欣家园 2室1厅 南/北",
    "community": "华欣家园",
    "area": "88.00",
    "rooms": "2室1厅",
    "direction": "南/北",
    "floor": "",
    "price": "5000",
    "tags": "",
    "source": "",
    "url": "https://sh.lianjia.com/zufang/SH2031680861115514880.html",
    "rent_type": "整租",
    "location": "徐汇-华泾-华欣家园",
    "scraped_at": "2026-04-23 14:59:15",
    "region": "huajing",
    "unit_price": 56.8,
    "lat": 31.120158,
    "lng": 121.463294
  },
  {
    "title": "整租·东湾小区 2室1厅 南",
    "community": "东湾小区",
    "area": "56.95",
    "rooms": "2室1厅",
    "direction": "南",
    "floor": "",
    "price": "4800",
    "tags": "",
    "source": "",
    "url": "https://sh.lianjia.com/zufang/SH2145928660190756864.html",
    "rent_type": "整租",
    "location": "徐汇-华泾-东湾小区",
    "scraped_at": "2026-04-23 14:59:15",
    "region": "huajing",
    "unit_price": 84.3,
    "lat": 31.122795,
    "lng": 121.4589
  },
  {
    "title": "整租·馨宁公寓 2室1厅 东南/南",
    "community": "馨宁公寓",
    "area": "62.40",
    "rooms": "2室1厅",
    "direction": "东南/南",
    "floor": "",
    "price": "5400",
    "tags": "",
    "source": "",
    "url": "https://sh.lianjia.com/zufang/SH1916447210409558016.html",
    "rent_type": "整租",
    "location": "徐汇-华泾-馨宁公寓",
    "scraped_at": "2026-04-23 14:59:15",
    "region": "huajing",
    "unit_price": 86.5,
    "lat": 31.128221,
    "lng": 121.447719
  },
  {
    "title": "整租·华欣家园 3室1厅 南",
    "community": "华欣家园",
    "area": "96.74",
    "rooms": "3室1厅",
    "direction": "南",
    "floor": "",
    "price": "6000",
    "tags": "",
    "source": "",
    "url": "https://sh.lianjia.com/zufang/SH2139446554145062912.html",
    "rent_type": "整租",
    "location": "徐汇-华泾-华欣家园",
    "scraped_at": "2026-04-23 14:58:52",
    "region": "huajing",
    "unit_price": 62.0,
    "lat": 31.120158,
    "lng": 121.463294
  },
  {
    "title": "独栋·魔方公寓 魔方公寓徐汇华发路店 南向外窗 近购物广场 生活气息浓厚 魔方专属管家 开间",
    "community": "魔方公寓 魔方公寓徐汇华发路店 南向外窗 近购物广场 生活气息浓厚 魔方专属管家 开间",
    "area": "28.00",
    "rooms": "",
    "direction": "",
    "floor": "",
    "price": "3600-3620",
    "tags": "",
    "source": "",
    "url": "https://sh.lianjia.com/apartment/100907.html",
    "rent_type": "独栋",
    "location": "",
    "scraped_at": "2026-04-23 14:58:52",
    "region": "huajing",
    "unit_price": "",
    "lat": 31.271655,
    "lng": 121.668619
  },
  {
    "title": "整租·馨宁公寓 2室1厅 南",
    "community": "馨宁公寓",
    "area": "62.28",
    "rooms": "2室1厅",
    "direction": "南",
    "floor": "",
    "price": "5500",
    "tags": "",
    "source": "",
    "url": "https://sh.lianjia.com/zufang/SH2143664636275195904.html",
    "rent_type": "整租",
    "location": "徐汇-华泾-馨宁公寓",
    "scraped_at": "2026-04-23 14:59:15",
    "region": "huajing",
    "unit_price": 88.3,
    "lat": 31.128221,
    "lng": 121.447719
  },
  {
    "title": "整租·漓江花园三期 3室2厅 南",
    "community": "漓江花园三期",
    "area": "125.00",
    "rooms": "3室2厅",
    "direction": "南",
    "floor": "",
    "price": "9000",
    "tags": "",
    "source": "",
    "url": "https://sh.lianjia.com/zufang/SH2145409397688369152.html",
    "rent_type": "整租",
    "location": "徐汇-华泾-漓江花园三期",
    "scraped_at": "2026-04-23 14:58:52",
    "region": "huajing",
    "unit_price": 72.0,
    "lat": 31.119012,
    "lng": 121.451745
  },
  {
    "title": "整租·馨宁公寓 2室1厅 东南",
    "community": "馨宁公寓",
    "area": "61.71",
    "rooms": "2室1厅",
    "direction": "东南",
    "floor": "",
    "price": "6500",
    "tags": "",
    "source": "",
    "url": "https://sh.lianjia.com/zufang/SH2153431265301233664.html",
    "rent_type": "整租",
    "location": "徐汇-华泾-馨宁公寓",
    "scraped_at": "2026-04-23 14:59:15",
    "region": "huajing",
    "unit_price": 105.3,
    "lat": 31.128221,
    "lng": 121.447719
  },
  {
    "title": "整租·馨宁公寓 2室2厅 南",
    "community": "馨宁公寓",
    "area": "82.77",
    "rooms": "2室2厅",
    "direction": "南",
    "floor": "",
    "price": "6700",
    "tags": "",
    "source": "",
    "url": "https://sh.lianjia.com/zufang/SH2150107180269830144.html",
    "rent_type": "整租",
    "location": "徐汇-华泾-馨宁公寓",
    "scraped_at": "2026-04-23 14:59:15",
    "region": "huajing",
    "unit_price": 80.9,
    "lat": 31.128221,
    "lng": 121.447719
  },
  {
    "title": "整租·盛华景苑 4室1厅 南",
    "community": "盛华景苑",
    "area": "170.98",
    "rooms": "4室1厅",
    "direction": "南",
    "floor": "",
    "price": "7000",
    "tags": "",
    "source": "",
    "url": "https://sh.lianjia.com/zufang/SH2098352856221351936.html",
    "rent_type": "整租",
    "location": "徐汇-华泾-盛华景苑",
    "scraped_at": "2026-04-23 14:58:52",
    "region": "huajing",
    "unit_price": 40.9,
    "lat": 31.108502,
    "lng": 121.456312
  },
  {
    "title": "整租·盛华景苑 1室1厅 南",
    "community": "盛华景苑",
    "area": "62.71",
    "rooms": "1室1厅",
    "direction": "南",
    "floor": "",
    "price": "4200",
    "tags": "",
    "source": "",
    "url": "https://sh.lianjia.com/zufang/SH2106747234165981184.html",
    "rent_type": "整租",
    "location": "徐汇-华泾-盛华景苑",
    "scraped_at": "2026-04-23 14:58:52",
    "region": "huajing",
    "unit_price": 67.0,
    "lat": 31.108502,
    "lng": 121.456312
  },
  {
    "title": "整租·盛华景苑 3室1厅 南",
    "community": "盛华景苑",
    "area": "87.03",
    "rooms": "3室1厅",
    "direction": "南",
    "floor": "",
    "price": "5500",
    "tags": "",
    "source": "",
    "url": "https://sh.lianjia.com/zufang/SH2113542636768854016.html",
    "rent_type": "整租",
    "location": "徐汇-华泾-盛华景苑",
    "scraped_at": "2026-04-23 14:58:52",
    "region": "huajing",
    "unit_price": 63.2,
    "lat": 31.108502,
    "lng": 121.456312
  },
  {
    "title": "整租·华泾绿苑 2室2厅 南",
    "community": "华泾绿苑",
    "area": "88.00",
    "rooms": "2室2厅",
    "direction": "南",
    "floor": "",
    "price": "6500",
    "tags": "",
    "source": "",
    "url": "https://sh.lianjia.com/zufang/SH2154820992831062016.html",
    "rent_type": "整租",
    "location": "徐汇-华泾-华泾绿苑",
    "scraped_at": "2026-04-23 14:58:58",
    "region": "huajing",
    "unit_price": 73.9,
    "lat": 31.113826,
    "lng": 121.458068
  },
  {
    "title": "整租·华欣家园 1室1厅 南",
    "community": "华欣家园",
    "area": "40.00",
    "rooms": "1室1厅",
    "direction": "南",
    "floor": "",
    "price": "4532",
    "tags": "",
    "source": "",
    "url": "https://sh.lianjia.com/zufang/SH2005160202319429632.html",
    "rent_type": "整租",
    "location": "徐汇-华泾-华欣家园",
    "scraped_at": "2026-04-23 14:59:15",
    "region": "huajing",
    "unit_price": 113.3,
    "lat": 31.120158,
    "lng": 121.463294
  },
  {
    "title": "整租·华泾绿苑 3室2厅 南",
    "community": "华泾绿苑",
    "area": "126.00",
    "rooms": "3室2厅",
    "direction": "南",
    "floor": "",
    "price": "11000",
    "tags": "",
    "source": "",
    "url": "https://sh.lianjia.com/zufang/SH2109271778957197312.html",
    "rent_type": "整租",
    "location": "徐汇-华泾-华泾绿苑",
    "scraped_at": "2026-04-23 14:58:55",
    "region": "huajing",
    "unit_price": 87.3,
    "lat": 31.113826,
    "lng": 121.458068
  },
  {
    "title": "整租·华建二街坊 2室1厅 南",
    "community": "华建二街坊",
    "area": "65.00",
    "rooms": "2室1厅",
    "direction": "南",
    "floor": "",
    "price": "3990",
    "tags": "",
    "source": "",
    "url": "https://sh.lianjia.com/zufang/SH1913483505455595520.html",
    "rent_type": "整租",
    "location": "徐汇-华泾-华建二街坊",
    "scraped_at": "2026-04-23 14:59:15",
    "region": "huajing",
    "unit_price": 61.4,
    "lat": 31.121262,
    "lng": 121.439682
  },
  {
    "title": "独栋·华智公寓 华泾店 15号线景洪路 可外籍 独立园区绿化 高层一室一厅 1室1厅",
    "community": "华智公寓 华泾店 15号线景洪路 可外籍 独立园区绿化 高层一室一厅",
    "area": "52.00",
    "rooms": "1室1厅",
    "direction": "",
    "floor": "",
    "price": "4200-4500",
    "tags": "",
    "source": "",
    "url": "https://sh.lianjia.com/apartment/105472.html",
    "rent_type": "独栋",
    "location": "",
    "scraped_at": "2026-04-23 14:58:58",
    "region": "huajing",
    "unit_price": "",
    "lat": 31.108983,
    "lng": 121.441139
  },
  {
    "title": "整租·徐汇华园 1室1厅 南",
    "community": "徐汇华园",
    "area": "73.21",
    "rooms": "1室1厅",
    "direction": "南",
    "floor": "",
    "price": "5500",
    "tags": "",
    "source": "",
    "url": "https://sh.lianjia.com/zufang/SH2156281661740810240.html",
    "rent_type": "整租",
    "location": "徐汇-华泾-徐汇华园",
    "scraped_at": "2026-04-23 14:59:15",
    "region": "huajing",
    "unit_price": 75.1,
    "lat": 31.129001,
    "lng": 121.451355
  },
  {
    "title": "整租·名人花苑 1室1厅 南",
    "community": "名人花苑",
    "area": "47.00",
    "rooms": "1室1厅",
    "direction": "南",
    "floor": "",
    "price": "4200",
    "tags": "",
    "source": "",
    "url": "https://sh.lianjia.com/zufang/SH2022673497876070400.html",
    "rent_type": "整租",
    "location": "徐汇-华泾-名人花苑",
    "scraped_at": "2026-04-23 14:59:15",
    "region": "huajing",
    "unit_price": 89.4,
    "lat": 31.114826,
    "lng": 121.45539
  },
  {
    "title": "整租·光华绿苑 3室2厅 复式 南",
    "community": "光华绿苑",
    "area": "130.17",
    "rooms": "3室2厅",
    "direction": "",
    "floor": "",
    "price": "7200",
    "tags": "",
    "source": "",
    "url": "https://sh.lianjia.com/zufang/SH2114198670105640960.html",
    "rent_type": "整租",
    "location": "徐汇-华泾-光华绿苑",
    "scraped_at": "2026-04-23 14:58:55",
    "region": "huajing",
    "unit_price": 55.3,
    "lat": 31.140537,
    "lng": 121.491112
  },
  {
    "title": "整租·盛华景苑 3室1厅 南",
    "community": "盛华景苑",
    "area": "85.20",
    "rooms": "3室1厅",
    "direction": "南",
    "floor": "",
    "price": "4725",
    "tags": "",
    "source": "",
    "url": "https://sh.lianjia.com/zufang/SH2083060468557021184.html",
    "rent_type": "整租",
    "location": "徐汇-华泾-盛华景苑",
    "scraped_at": "2026-04-23 14:59:15",
    "region": "huajing",
    "unit_price": 55.5,
    "lat": 31.108502,
    "lng": 121.456312
  },
  {
    "title": "独栋·徐房悦庭 光华绿苑店 两房两厅两卫三阳台复式通燃气，华育中学500米步行圈陪读概念 2室2厅",
    "community": "徐房悦庭 光华绿苑店 两房两厅两卫三阳台复式通燃气，华育中学500米步行圈陪读概念",
    "area": "90.00",
    "rooms": "2室2厅",
    "direction": "",
    "floor": "",
    "price": "7700",
    "tags": "",
    "source": "",
    "url": "https://sh.lianjia.com/apartment/103845.html",
    "rent_type": "独栋",
    "location": "",
    "scraped_at": "2026-04-23 14:58:58",
    "region": "huajing",
    "unit_price": 85.6,
    "lat": 31.111286,
    "lng": 121.452713
  },
  {
    "title": "整租·中海瀛台 4室2厅 南",
    "community": "中海瀛台",
    "area": "166.44",
    "rooms": "4室2厅",
    "direction": "南",
    "floor": "",
    "price": "23000",
    "tags": "",
    "source": "",
    "url": "https://sh.lianjia.com/zufang/SH2156746181139496960.html",
    "rent_type": "整租",
    "location": "徐汇-华泾-中海瀛台",
    "scraped_at": "2026-04-23 14:58:55",
    "region": "huajing",
    "unit_price": 138.2,
    "lat": 31.140177,
    "lng": 121.45357
  },
  {
    "title": "整租·盛华景苑 3室1厅 南",
    "community": "盛华景苑",
    "area": "87.30",
    "rooms": "3室1厅",
    "direction": "南",
    "floor": "",
    "price": "5500",
    "tags": "",
    "source": "",
    "url": "https://sh.lianjia.com/zufang/SH2157401155766845440.html",
    "rent_type": "整租",
    "location": "徐汇-华泾-盛华景苑",
    "scraped_at": "2026-04-23 14:58:55",
    "region": "huajing",
    "unit_price": 63.0,
    "lat": 31.108502,
    "lng": 121.456312
  },
  {
    "title": "整租·中海瀛台 4室2厅 南/北",
    "community": "中海瀛台",
    "area": "155.96",
    "rooms": "4室2厅",
    "direction": "南/北",
    "floor": "",
    "price": "19000",
    "tags": "",
    "source": "",
    "url": "https://sh.lianjia.com/zufang/SH2150891511464591360.html",
    "rent_type": "整租",
    "location": "徐汇-华泾-中海瀛台",
    "scraped_at": "2026-04-23 14:58:55",
    "region": "huajing",
    "unit_price": 121.8,
    "lat": 31.140177,
    "lng": 121.45357
  },
  {
    "title": "整租·华泾绿苑 3室2厅 南",
    "community": "华泾绿苑",
    "area": "127.86",
    "rooms": "3室2厅",
    "direction": "南",
    "floor": "",
    "price": "12200",
    "tags": "",
    "source": "",
    "url": "https://sh.lianjia.com/zufang/SH2146222946618703872.html",
    "rent_type": "整租",
    "location": "徐汇-华泾-华泾绿苑",
    "scraped_at": "2026-04-23 14:58:55",
    "region": "huajing",
    "unit_price": 95.4,
    "lat": 31.113826,
    "lng": 121.458068
  },
  {
    "title": "整租·华建一街坊 3室2厅 南",
    "community": "华建一街坊",
    "area": "79.23",
    "rooms": "3室2厅",
    "direction": "南",
    "floor": "",
    "price": "5400",
    "tags": "",
    "source": "",
    "url": "https://sh.lianjia.com/zufang/SH2148010245547360256.html",
    "rent_type": "整租",
    "location": "徐汇-华泾-华建一街坊",
    "scraped_at": "2026-04-23 14:58:55",
    "region": "huajing",
    "unit_price": 68.2,
    "lat": 31.120174,
    "lng": 121.439113
  },
  {
    "title": "整租·印象欧洲(公寓) 3室1厅 南",
    "community": "印象欧洲(公寓)",
    "area": "91.00",
    "rooms": "3室1厅",
    "direction": "南",
    "floor": "",
    "price": "9000",
    "tags": "",
    "source": "",
    "url": "https://sh.lianjia.com/zufang/SH2131993961554771968.html",
    "rent_type": "整租",
    "location": "徐汇-华泾-印象欧洲(公寓)",
    "scraped_at": "2026-04-23 14:58:55",
    "region": "huajing",
    "unit_price": 98.9,
    "lat": 31.117461,
    "lng": 121.458683
  },
  {
    "title": "整租·华泾绿苑 3室2厅 南",
    "community": "华泾绿苑",
    "area": "127.00",
    "rooms": "3室2厅",
    "direction": "南",
    "floor": "",
    "price": "11800",
    "tags": "",
    "source": "",
    "url": "https://sh.lianjia.com/zufang/SH2131291164807004160.html",
    "rent_type": "整租",
    "location": "徐汇-华泾-华泾绿苑",
    "scraped_at": "2026-04-23 14:58:55",
    "region": "huajing",
    "unit_price": 92.9,
    "lat": 31.113826,
    "lng": 121.458068
  },
  {
    "title": "整租·嘉华嘉俊庭 3室2厅 南",
    "community": "嘉华嘉俊庭",
    "area": "100.00",
    "rooms": "3室2厅",
    "direction": "南",
    "floor": "",
    "price": "10000",
    "tags": "",
    "source": "",
    "url": "https://sh.lianjia.com/zufang/SH2137856766082285568.html",
    "rent_type": "整租",
    "location": "徐汇-华泾-嘉华嘉俊庭",
    "scraped_at": "2026-04-23 14:58:55",
    "region": "huajing",
    "unit_price": 100.0,
    "lat": 31.189274,
    "lng": 121.437819
  },
  {
    "title": "整租·名人花苑 3室2厅 南",
    "community": "名人花苑",
    "area": "124.60",
    "rooms": "3室2厅",
    "direction": "南",
    "floor": "",
    "price": "7900",
    "tags": "",
    "source": "",
    "url": "https://sh.lianjia.com/zufang/SH2138727515168964608.html",
    "rent_type": "整租",
    "location": "徐汇-华泾-名人花苑",
    "scraped_at": "2026-04-23 14:58:55",
    "region": "huajing",
    "unit_price": 63.4,
    "lat": 31.114826,
    "lng": 121.45539
  },
  {
    "title": "整租·盛华景苑 2室2厅 南",
    "community": "盛华景苑",
    "area": "89.73",
    "rooms": "2室2厅",
    "direction": "南",
    "floor": "",
    "price": "6000",
    "tags": "",
    "source": "",
    "url": "https://sh.lianjia.com/zufang/SH2142215096762368000.html",
    "rent_type": "整租",
    "location": "徐汇-华泾-盛华景苑",
    "scraped_at": "2026-04-23 14:58:55",
    "region": "huajing",
    "unit_price": 66.9,
    "lat": 31.108502,
    "lng": 121.456312
  },
  {
    "title": "整租·东湾小区 2室1厅 南",
    "community": "东湾小区",
    "area": "57.85",
    "rooms": "2室1厅",
    "direction": "南",
    "floor": "",
    "price": "4300",
    "tags": "",
    "source": "",
    "url": "https://sh.lianjia.com/zufang/SH2150514933811380224.html",
    "rent_type": "整租",
    "location": "徐汇-华泾-东湾小区",
    "scraped_at": "2026-04-23 14:58:55",
    "region": "huajing",
    "unit_price": 74.3,
    "lat": 31.122795,
    "lng": 121.4589
  },
  {
    "title": "整租·紫阳花苑 2室2厅 南/北",
    "community": "紫阳花苑",
    "area": "95.00",
    "rooms": "2室2厅",
    "direction": "南/北",
    "floor": "",
    "price": "7000",
    "tags": "",
    "source": "",
    "url": "https://sh.lianjia.com/zufang/SH2151200559653191680.html",
    "rent_type": "整租",
    "location": "徐汇-华泾-紫阳花苑",
    "scraped_at": "2026-04-23 14:58:55",
    "region": "huajing",
    "unit_price": 73.7,
    "lat": 31.113366,
    "lng": 121.453229
  },
  {
    "title": "整租·中海瀛台 4室2厅 东南/西南",
    "community": "中海瀛台",
    "area": "149.10",
    "rooms": "4室2厅",
    "direction": "东南/西南",
    "floor": "",
    "price": "17000",
    "tags": "",
    "source": "",
    "url": "https://sh.lianjia.com/zufang/SH2140436633713901568.html",
    "rent_type": "整租",
    "location": "徐汇-华泾-中海瀛台",
    "scraped_at": "2026-04-23 14:58:55",
    "region": "huajing",
    "unit_price": 114.0,
    "lat": 31.140177,
    "lng": 121.45357
  },
  {
    "title": "整租·馨宁公寓 2室2厅 南",
    "community": "馨宁公寓",
    "area": "82.00",
    "rooms": "2室2厅",
    "direction": "南",
    "floor": "",
    "price": "7500",
    "tags": "",
    "source": "",
    "url": "https://sh.lianjia.com/zufang/SH2155267806176739328.html",
    "rent_type": "整租",
    "location": "徐汇-华泾-馨宁公寓",
    "scraped_at": "2026-04-23 14:58:58",
    "region": "huajing",
    "unit_price": 91.5,
    "lat": 31.128221,
    "lng": 121.447719
  },
  {
    "title": "整租·馨宁公寓 2室1厅 南/北",
    "community": "馨宁公寓",
    "area": "61.71",
    "rooms": "2室1厅",
    "direction": "南/北",
    "floor": "",
    "price": "5800",
    "tags": "",
    "source": "",
    "url": "https://sh.lianjia.com/zufang/SH2143971762818252800.html",
    "rent_type": "整租",
    "location": "徐汇-华泾-馨宁公寓",
    "scraped_at": "2026-04-23 14:58:58",
    "region": "huajing",
    "unit_price": 94.0,
    "lat": 31.128221,
    "lng": 121.447719
  },
  {
    "title": "整租·盛华景苑 2室1厅 南",
    "community": "盛华景苑",
    "area": "82.00",
    "rooms": "2室1厅",
    "direction": "南",
    "floor": "",
    "price": "5800",
    "tags": "",
    "source": "",
    "url": "https://sh.lianjia.com/zufang/SH2149143936348717056.html",
    "rent_type": "整租",
    "location": "徐汇-华泾-盛华景苑",
    "scraped_at": "2026-04-23 14:58:58",
    "region": "huajing",
    "unit_price": 70.7,
    "lat": 31.108502,
    "lng": 121.456312
  },
  {
    "title": "整租·华建一街坊 2室1厅 南",
    "community": "华建一街坊",
    "area": "58.58",
    "rooms": "2室1厅",
    "direction": "南",
    "floor": "",
    "price": "5500",
    "tags": "",
    "source": "",
    "url": "https://sh.lianjia.com/zufang/SH2145029275013611520.html",
    "rent_type": "整租",
    "location": "徐汇-华泾-华建一街坊",
    "scraped_at": "2026-04-23 14:58:58",
    "region": "huajing",
    "unit_price": 93.9,
    "lat": 31.120174,
    "lng": 121.439113
  },
  {
    "title": "整租·华泾五村 2室1厅 南",
    "community": "华泾五村",
    "area": "57.69",
    "rooms": "2室1厅",
    "direction": "南",
    "floor": "",
    "price": "5200",
    "tags": "",
    "source": "",
    "url": "https://sh.lianjia.com/zufang/SH2150936377288556544.html",
    "rent_type": "整租",
    "location": "徐汇-华泾-华泾五村",
    "scraped_at": "2026-04-23 14:58:58",
    "region": "huajing",
    "unit_price": 90.1,
    "lat": 31.119849,
    "lng": 121.445855
  },
  {
    "title": "整租·紫阳花苑 2室1厅 南/北",
    "community": "紫阳花苑",
    "area": "55.36",
    "rooms": "2室1厅",
    "direction": "南/北",
    "floor": "",
    "price": "5000",
    "tags": "",
    "source": "",
    "url": "https://sh.lianjia.com/zufang/SH2129809681676238848.html",
    "rent_type": "整租",
    "location": "徐汇-华泾-紫阳花苑",
    "scraped_at": "2026-04-23 14:58:58",
    "region": "huajing",
    "unit_price": 90.3,
    "lat": 31.113366,
    "lng": 121.453229
  },
  {
    "title": "整租·嘉华嘉俊庭 3室1厅 南",
    "community": "嘉华嘉俊庭",
    "area": "99.29",
    "rooms": "3室1厅",
    "direction": "南",
    "floor": "",
    "price": "11790",
    "tags": "",
    "source": "",
    "url": "https://sh.lianjia.com/zufang/SH2155368747269881856.html",
    "rent_type": "整租",
    "location": "徐汇-华泾-嘉华嘉俊庭",
    "scraped_at": "2026-04-23 14:58:58",
    "region": "huajing",
    "unit_price": 118.7,
    "lat": 31.189274,
    "lng": 121.437819
  },
  {
    "title": "整租·徐汇臻园 4室2厅 南/北",
    "community": "徐汇臻园",
    "area": "149.00",
    "rooms": "4室2厅",
    "direction": "南/北",
    "floor": "",
    "price": "16000",
    "tags": "",
    "source": "",
    "url": "https://sh.lianjia.com/zufang/SH2150170548544471040.html",
    "rent_type": "整租",
    "location": "徐汇-华泾-徐汇臻园",
    "scraped_at": "2026-04-23 14:58:58",
    "region": "huajing",
    "unit_price": 107.4,
    "lat": 31.190528,
    "lng": 121.40134
  },
  {
    "title": "整租·华发小区 1室1厅 南",
    "community": "华发小区",
    "area": "32.66",
    "rooms": "1室1厅",
    "direction": "南",
    "floor": "",
    "price": "3890",
    "tags": "",
    "source": "",
    "url": "https://sh.lianjia.com/zufang/SH1941880553435299840.html",
    "rent_type": "整租",
    "location": "徐汇-华泾-华发小区",
    "scraped_at": "2026-04-23 14:58:58",
    "region": "huajing",
    "unit_price": 119.1,
    "lat": 31.128143,
    "lng": 121.452352
  },
  {
    "title": "整租·中海瀛台 3室1厅 南",
    "community": "中海瀛台",
    "area": "150.17",
    "rooms": "3室1厅",
    "direction": "南",
    "floor": "",
    "price": "17000",
    "tags": "",
    "source": "",
    "url": "https://sh.lianjia.com/zufang/SH2125868336003678208.html",
    "rent_type": "整租",
    "location": "徐汇-华泾-中海瀛台",
    "scraped_at": "2026-04-23 14:58:58",
    "region": "huajing",
    "unit_price": 113.2,
    "lat": 31.140177,
    "lng": 121.45357
  },
  {
    "title": "整租·紫阳花苑 2室1厅 南",
    "community": "紫阳花苑",
    "area": "64.46",
    "rooms": "2室1厅",
    "direction": "南",
    "floor": "",
    "price": "5160",
    "tags": "",
    "source": "",
    "url": "https://sh.lianjia.com/zufang/SH1760509677629603840.html",
    "rent_type": "整租",
    "location": "徐汇-华泾-紫阳花苑",
    "scraped_at": "2026-04-23 14:58:58",
    "region": "huajing",
    "unit_price": 80.0,
    "lat": 31.113366,
    "lng": 121.453229
  },
  {
    "title": "整租·名人花苑 2室1厅 南",
    "community": "名人花苑",
    "area": "78.43",
    "rooms": "2室1厅",
    "direction": "南",
    "floor": "",
    "price": "4700",
    "tags": "",
    "source": "",
    "url": "https://sh.lianjia.com/zufang/SH2137538841689456640.html",
    "rent_type": "整租",
    "location": "徐汇-华泾-名人花苑",
    "scraped_at": "2026-04-23 14:58:58",
    "region": "huajing",
    "unit_price": 59.9,
    "lat": 31.114826,
    "lng": 121.45539
  },
  {
    "title": "整租·华发小区 2室1厅 南",
    "community": "华发小区",
    "area": "60.04",
    "rooms": "2室1厅",
    "direction": "南",
    "floor": "",
    "price": "5789",
    "tags": "",
    "source": "",
    "url": "https://sh.lianjia.com/zufang/SH2064919248576184320.html",
    "rent_type": "整租",
    "location": "徐汇-华泾-华发小区",
    "scraped_at": "2026-04-23 14:58:58",
    "region": "huajing",
    "unit_price": 96.4,
    "lat": 31.128143,
    "lng": 121.452352
  },
  {
    "title": "整租·雍汇名邸 3室2厅 南",
    "community": "雍汇名邸",
    "area": "101.00",
    "rooms": "3室2厅",
    "direction": "南",
    "floor": "",
    "price": "15000",
    "tags": "",
    "source": "",
    "url": "https://sh.lianjia.com/zufang/SH2072224350093705216.html",
    "rent_type": "整租",
    "location": "徐汇-华泾-雍汇名邸",
    "scraped_at": "2026-04-23 14:58:58",
    "region": "huajing",
    "unit_price": 148.5,
    "lat": 31.237143,
    "lng": 121.437143
  },
  {
    "title": "整租·盛华景苑 1室1厅 南",
    "community": "盛华景苑",
    "area": "68.00",
    "rooms": "1室1厅",
    "direction": "南",
    "floor": "",
    "price": "4700",
    "tags": "",
    "source": "",
    "url": "https://sh.lianjia.com/zufang/SH2155684635575582720.html",
    "rent_type": "整租",
    "location": "徐汇-华泾-盛华景苑",
    "scraped_at": "2026-04-23 14:58:58",
    "region": "huajing",
    "unit_price": 69.1,
    "lat": 31.108502,
    "lng": 121.456312
  },
  {
    "title": "整租·馨宁公寓 2室1厅 南",
    "community": "馨宁公寓",
    "area": "62.44",
    "rooms": "2室1厅",
    "direction": "南",
    "floor": "",
    "price": "5760",
    "tags": "",
    "source": "",
    "url": "https://sh.lianjia.com/zufang/SH1917977207095951360.html",
    "rent_type": "整租",
    "location": "徐汇-华泾-馨宁公寓",
    "scraped_at": "2026-04-23 14:58:58",
    "region": "huajing",
    "unit_price": 92.2,
    "lat": 31.128221,
    "lng": 121.447719
  },
  {
    "title": "整租·印象欧洲(公寓) 3室2厅 南/北",
    "community": "印象欧洲(公寓)",
    "area": "93.00",
    "rooms": "3室2厅",
    "direction": "南/北",
    "floor": "",
    "price": "9000",
    "tags": "",
    "source": "",
    "url": "https://sh.lianjia.com/zufang/SH2138252471233937408.html",
    "rent_type": "整租",
    "location": "徐汇-华泾-印象欧洲(公寓)",
    "scraped_at": "2026-04-23 14:58:58",
    "region": "huajing",
    "unit_price": 96.8,
    "lat": 31.117461,
    "lng": 121.458683
  },
  {
    "title": "整租·嘉华嘉俊庭 3室1厅 南",
    "community": "嘉华嘉俊庭",
    "area": "100.00",
    "rooms": "3室1厅",
    "direction": "南",
    "floor": "",
    "price": "13000",
    "tags": "",
    "source": "",
    "url": "https://sh.lianjia.com/zufang/SH2128827212634259456.html",
    "rent_type": "整租",
    "location": "徐汇-华泾-嘉华嘉俊庭",
    "scraped_at": "2026-04-23 14:58:58",
    "region": "huajing",
    "unit_price": 130.0,
    "lat": 31.189274,
    "lng": 121.437819
  },
  {
    "title": "整租·馨宁公寓 2室1厅 南",
    "community": "馨宁公寓",
    "area": "62.28",
    "rooms": "2室1厅",
    "direction": "南",
    "floor": "",
    "price": "5660",
    "tags": "",
    "source": "",
    "url": "https://sh.lianjia.com/zufang/SH1798004562565529600.html",
    "rent_type": "整租",
    "location": "徐汇-华泾-馨宁公寓",
    "scraped_at": "2026-04-23 14:58:58",
    "region": "huajing",
    "unit_price": 90.9,
    "lat": 31.128221,
    "lng": 121.447719
  },
  {
    "title": "整租·嘉华嘉俊庭 3室2厅 南",
    "community": "嘉华嘉俊庭",
    "area": "100.00",
    "rooms": "3室2厅",
    "direction": "南",
    "floor": "",
    "price": "13000",
    "tags": "",
    "source": "",
    "url": "https://sh.lianjia.com/zufang/SH2142117156790206464.html",
    "rent_type": "整租",
    "location": "徐汇-华泾-嘉华嘉俊庭",
    "scraped_at": "2026-04-23 14:58:58",
    "region": "huajing",
    "unit_price": 130.0,
    "lat": 31.189274,
    "lng": 121.437819
  },
  {
    "title": "整租·东湾小区 2室1厅 南",
    "community": "东湾小区",
    "area": "58.00",
    "rooms": "2室1厅",
    "direction": "南",
    "floor": "",
    "price": "4600",
    "tags": "",
    "source": "",
    "url": "https://sh.lianjia.com/zufang/SH2144471307943673856.html",
    "rent_type": "整租",
    "location": "徐汇-华泾-东湾小区",
    "scraped_at": "2026-04-23 14:58:58",
    "region": "huajing",
    "unit_price": 79.3,
    "lat": 31.122795,
    "lng": 121.4589
  },
  {
    "title": "整租·馨宁公寓 2室1厅 南",
    "community": "馨宁公寓",
    "area": "62.28",
    "rooms": "2室1厅",
    "direction": "南",
    "floor": "",
    "price": "5300",
    "tags": "",
    "source": "",
    "url": "https://sh.lianjia.com/zufang/SH2157333176312135680.html",
    "rent_type": "整租",
    "location": "徐汇-华泾-馨宁公寓",
    "scraped_at": "2026-04-23 14:58:58",
    "region": "huajing",
    "unit_price": 85.1,
    "lat": 31.128221,
    "lng": 121.447719
  },
  {
    "title": "整租·徐汇华园 2室2厅 南",
    "community": "徐汇华园",
    "area": "82.00",
    "rooms": "2室2厅",
    "direction": "南",
    "floor": "",
    "price": "6500",
    "tags": "",
    "source": "",
    "url": "https://sh.lianjia.com/zufang/SH2145764116646592512.html",
    "rent_type": "整租",
    "location": "徐汇-华泾-徐汇华园",
    "scraped_at": "2026-04-23 14:58:58",
    "region": "huajing",
    "unit_price": 79.3,
    "lat": 31.129001,
    "lng": 121.451355
  },
  {
    "title": "整租·华泾绿苑 3室2厅 南",
    "community": "华泾绿苑",
    "area": "127.25",
    "rooms": "3室2厅",
    "direction": "南",
    "floor": "",
    "price": "10500",
    "tags": "",
    "source": "",
    "url": "https://sh.lianjia.com/zufang/SH2125918195733757952.html",
    "rent_type": "整租",
    "location": "徐汇-华泾-华泾绿苑",
    "scraped_at": "2026-04-23 14:58:58",
    "region": "huajing",
    "unit_price": 82.5,
    "lat": 31.113826,
    "lng": 121.458068
  },
  {
    "title": "整租·光华绿苑 2室2厅 南",
    "community": "光华绿苑",
    "area": "63.69",
    "rooms": "2室2厅",
    "direction": "南",
    "floor": "",
    "price": "4800",
    "tags": "",
    "source": "",
    "url": "https://sh.lianjia.com/zufang/SH2128927585877360640.html",
    "rent_type": "整租",
    "location": "徐汇-华泾-光华绿苑",
    "scraped_at": "2026-04-23 14:58:58",
    "region": "huajing",
    "unit_price": 75.4,
    "lat": 31.140537,
    "lng": 121.491112
  },
  {
    "title": "整租·东湾小区 2室1厅 南",
    "community": "东湾小区",
    "area": "56.19",
    "rooms": "2室1厅",
    "direction": "南",
    "floor": "",
    "price": "4400",
    "tags": "",
    "source": "",
    "url": "https://sh.lianjia.com/zufang/SH2144815126237151232.html",
    "rent_type": "整租",
    "location": "徐汇-华泾-东湾小区",
    "scraped_at": "2026-04-23 14:59:02",
    "region": "huajing",
    "unit_price": 78.3,
    "lat": 31.122795,
    "lng": 121.4589
  },
  {
    "title": "整租·馨宁公寓 1室1厅 南",
    "community": "馨宁公寓",
    "area": "62.00",
    "rooms": "1室1厅",
    "direction": "南",
    "floor": "",
    "price": "4500",
    "tags": "",
    "source": "",
    "url": "https://sh.lianjia.com/zufang/SH2156378060205588480.html",
    "rent_type": "整租",
    "location": "徐汇-华泾-馨宁公寓",
    "scraped_at": "2026-04-23 14:59:02",
    "region": "huajing",
    "unit_price": 72.6,
    "lat": 31.128221,
    "lng": 121.447719
  },
  {
    "title": "整租·光华绿苑 4室0厅 南",
    "community": "光华绿苑",
    "area": "113.50",
    "rooms": "4室0厅",
    "direction": "南",
    "floor": "",
    "price": "6900",
    "tags": "",
    "source": "",
    "url": "https://sh.lianjia.com/zufang/SH1636906471683784704.html",
    "rent_type": "整租",
    "location": "徐汇-华泾-光华绿苑",
    "scraped_at": "2026-04-23 14:59:02",
    "region": "huajing",
    "unit_price": 60.8,
    "lat": 31.140537,
    "lng": 121.491112
  },
  {
    "title": "整租·漓江山水花园 7室3厅 南",
    "community": "漓江山水花园",
    "area": "260.62",
    "rooms": "7室3厅",
    "direction": "南",
    "floor": "",
    "price": "24000",
    "tags": "",
    "source": "",
    "url": "https://sh.lianjia.com/zufang/SH2140769298640011264.html",
    "rent_type": "整租",
    "location": "徐汇-华泾-漓江山水花园",
    "scraped_at": "2026-04-23 14:59:02",
    "region": "huajing",
    "unit_price": 92.1,
    "lat": 31.117104,
    "lng": 121.447956
  },
  {
    "title": "整租·华泾五村 2室1厅 南",
    "community": "华泾五村",
    "area": "60.01",
    "rooms": "2室1厅",
    "direction": "南",
    "floor": "",
    "price": "5900",
    "tags": "",
    "source": "",
    "url": "https://sh.lianjia.com/zufang/SH2145844329720053760.html",
    "rent_type": "整租",
    "location": "徐汇-华泾-华泾五村",
    "scraped_at": "2026-04-23 14:59:02",
    "region": "huajing",
    "unit_price": 98.3,
    "lat": 31.119849,
    "lng": 121.445855
  },
  {
    "title": "整租·印象欧洲(公寓) 2室2厅 南",
    "community": "印象欧洲(公寓)",
    "area": "79.54",
    "rooms": "2室2厅",
    "direction": "南",
    "floor": "",
    "price": "7500",
    "tags": "",
    "source": "",
    "url": "https://sh.lianjia.com/zufang/SH2149758578389417984.html",
    "rent_type": "整租",
    "location": "徐汇-华泾-印象欧洲(公寓)",
    "scraped_at": "2026-04-23 14:59:02",
    "region": "huajing",
    "unit_price": 94.3,
    "lat": 31.117461,
    "lng": 121.458683
  },
  {
    "title": "整租·雍汇名邸 3室2厅 南",
    "community": "雍汇名邸",
    "area": "100.68",
    "rooms": "3室2厅",
    "direction": "南",
    "floor": "",
    "price": "13500",
    "tags": "",
    "source": "",
    "url": "https://sh.lianjia.com/zufang/SH2073324802952658944.html",
    "rent_type": "整租",
    "location": "徐汇-华泾-雍汇名邸",
    "scraped_at": "2026-04-23 14:59:02",
    "region": "huajing",
    "unit_price": 134.1,
    "lat": 31.237143,
    "lng": 121.437143
  },
  {
    "title": "整租·印象欧洲(公寓) 4室2厅 南",
    "community": "印象欧洲(公寓)",
    "area": "223.64",
    "rooms": "4室2厅",
    "direction": "南",
    "floor": "",
    "price": "20000",
    "tags": "",
    "source": "",
    "url": "https://sh.lianjia.com/zufang/SH2148790099859472384.html",
    "rent_type": "整租",
    "location": "徐汇-华泾-印象欧洲(公寓)",
    "scraped_at": "2026-04-23 14:59:02",
    "region": "huajing",
    "unit_price": 89.4,
    "lat": 31.117461,
    "lng": 121.458683
  },
  {
    "title": "整租·紫阳花苑 2室1厅 南",
    "community": "紫阳花苑",
    "area": "65.00",
    "rooms": "2室1厅",
    "direction": "南",
    "floor": "",
    "price": "4999",
    "tags": "",
    "source": "",
    "url": "https://sh.lianjia.com/zufang/SH1922223560240136192.html",
    "rent_type": "整租",
    "location": "徐汇-华泾-紫阳花苑",
    "scraped_at": "2026-04-23 14:59:02",
    "region": "huajing",
    "unit_price": 76.9,
    "lat": 31.113366,
    "lng": 121.453229
  },
  {
    "title": "整租·东湾小区 1室1厅 南",
    "community": "东湾小区",
    "area": "43.00",
    "rooms": "1室1厅",
    "direction": "南",
    "floor": "",
    "price": "4600",
    "tags": "",
    "source": "",
    "url": "https://sh.lianjia.com/zufang/SH2154924760708939776.html",
    "rent_type": "整租",
    "location": "徐汇-华泾-东湾小区",
    "scraped_at": "2026-04-23 14:59:02",
    "region": "huajing",
    "unit_price": 107.0,
    "lat": 31.122795,
    "lng": 121.4589
  },
  {
    "title": "整租·嘉华嘉俊庭 3室2厅 南",
    "community": "嘉华嘉俊庭",
    "area": "100.00",
    "rooms": "3室2厅",
    "direction": "南",
    "floor": "",
    "price": "13000",
    "tags": "",
    "source": "",
    "url": "https://sh.lianjia.com/zufang/SH2130517029025742848.html",
    "rent_type": "整租",
    "location": "徐汇-华泾-嘉华嘉俊庭",
    "scraped_at": "2026-04-23 14:59:02",
    "region": "huajing",
    "unit_price": 130.0,
    "lat": 31.189274,
    "lng": 121.437819
  },
  {
    "title": "整租·东湾小区 1室1厅 南",
    "community": "东湾小区",
    "area": "40.78",
    "rooms": "1室1厅",
    "direction": "南",
    "floor": "",
    "price": "3700",
    "tags": "",
    "source": "",
    "url": "https://sh.lianjia.com/zufang/SH2125925023708348416.html",
    "rent_type": "整租",
    "location": "徐汇-华泾-东湾小区",
    "scraped_at": "2026-04-23 14:59:02",
    "region": "huajing",
    "unit_price": 90.7,
    "lat": 31.122795,
    "lng": 121.4589
  },
  {
    "title": "整租·盛华景苑 2室2厅 南",
    "community": "盛华景苑",
    "area": "89.00",
    "rooms": "2室2厅",
    "direction": "南",
    "floor": "",
    "price": "6000",
    "tags": "",
    "source": "",
    "url": "https://sh.lianjia.com/zufang/SH2151602648413896704.html",
    "rent_type": "整租",
    "location": "徐汇-华泾-盛华景苑",
    "scraped_at": "2026-04-23 14:59:02",
    "region": "huajing",
    "unit_price": 67.4,
    "lat": 31.108502,
    "lng": 121.456312
  },
  {
    "title": "整租·华发小区 2室1厅 南",
    "community": "华发小区",
    "area": "61.00",
    "rooms": "2室1厅",
    "direction": "南",
    "floor": "",
    "price": "4500",
    "tags": "",
    "source": "",
    "url": "https://sh.lianjia.com/zufang/SH2078392154052362240.html",
    "rent_type": "整租",
    "location": "徐汇-华泾-华发小区",
    "scraped_at": "2026-04-23 14:59:02",
    "region": "huajing",
    "unit_price": 73.8,
    "lat": 31.128143,
    "lng": 121.452352
  },
  {
    "title": "整租·华建一街坊 2室0厅 南/北",
    "community": "华建一街坊",
    "area": "49.21",
    "rooms": "2室0厅",
    "direction": "南/北",
    "floor": "",
    "price": "4500",
    "tags": "",
    "source": "",
    "url": "https://sh.lianjia.com/zufang/SH2154119094163472384.html",
    "rent_type": "整租",
    "location": "徐汇-华泾-华建一街坊",
    "scraped_at": "2026-04-23 14:59:02",
    "region": "huajing",
    "unit_price": 91.4,
    "lat": 31.120174,
    "lng": 121.439113
  },
  {
    "title": "整租·嘉华嘉俊庭 3室2厅 南",
    "community": "嘉华嘉俊庭",
    "area": "99.00",
    "rooms": "3室2厅",
    "direction": "南",
    "floor": "",
    "price": "9900",
    "tags": "",
    "source": "",
    "url": "https://sh.lianjia.com/zufang/SH2145796770565718016.html",
    "rent_type": "整租",
    "location": "徐汇-华泾-嘉华嘉俊庭",
    "scraped_at": "2026-04-23 14:59:02",
    "region": "huajing",
    "unit_price": 100.0,
    "lat": 31.189274,
    "lng": 121.437819
  },
  {
    "title": "整租·华泾绿苑 2室1厅 南",
    "community": "华泾绿苑",
    "area": "62.65",
    "rooms": "2室1厅",
    "direction": "南",
    "floor": "",
    "price": "5200",
    "tags": "",
    "source": "",
    "url": "https://sh.lianjia.com/zufang/SH2138705990197968896.html",
    "rent_type": "整租",
    "location": "徐汇-华泾-华泾绿苑",
    "scraped_at": "2026-04-23 14:59:02",
    "region": "huajing",
    "unit_price": 83.0,
    "lat": 31.113826,
    "lng": 121.458068
  },
  {
    "title": "整租·馨宁公寓 3室2厅 南",
    "community": "馨宁公寓",
    "area": "101.16",
    "rooms": "3室2厅",
    "direction": "南",
    "floor": "",
    "price": "12800",
    "tags": "",
    "source": "",
    "url": "https://sh.lianjia.com/zufang/SH2108514796671336448.html",
    "rent_type": "整租",
    "location": "徐汇-华泾-馨宁公寓",
    "scraped_at": "2026-04-23 14:59:02",
    "region": "huajing",
    "unit_price": 126.5,
    "lat": 31.128221,
    "lng": 121.447719
  },
  {
    "title": "整租·紫阳花苑 2室1厅 南",
    "community": "紫阳花苑",
    "area": "60.00",
    "rooms": "2室1厅",
    "direction": "南",
    "floor": "",
    "price": "5500",
    "tags": "",
    "source": "",
    "url": "https://sh.lianjia.com/zufang/SH2154512997169496064.html",
    "rent_type": "整租",
    "location": "徐汇-华泾-紫阳花苑",
    "scraped_at": "2026-04-23 14:59:02",
    "region": "huajing",
    "unit_price": 91.7,
    "lat": 31.113366,
    "lng": 121.453229
  },
  {
    "title": "整租·馨宁公寓 1室1厅 南",
    "community": "馨宁公寓",
    "area": "42.29",
    "rooms": "1室1厅",
    "direction": "南",
    "floor": "",
    "price": "4200",
    "tags": "",
    "source": "",
    "url": "https://sh.lianjia.com/zufang/SH2154145782331080704.html",
    "rent_type": "整租",
    "location": "徐汇-华泾-馨宁公寓",
    "scraped_at": "2026-04-23 14:59:02",
    "region": "huajing",
    "unit_price": 99.3,
    "lat": 31.128221,
    "lng": 121.447719
  },
  {
    "title": "整租·嘉华嘉俊庭 3室1厅 南",
    "community": "嘉华嘉俊庭",
    "area": "100.00",
    "rooms": "3室1厅",
    "direction": "南",
    "floor": "",
    "price": "11000",
    "tags": "",
    "source": "",
    "url": "https://sh.lianjia.com/zufang/SH2141893673615360000.html",
    "rent_type": "整租",
    "location": "徐汇-华泾-嘉华嘉俊庭",
    "scraped_at": "2026-04-23 14:59:02",
    "region": "huajing",
    "unit_price": 110.0,
    "lat": 31.189274,
    "lng": 121.437819
  },
  {
    "title": "整租·雍汇名邸 3室2厅 南",
    "community": "雍汇名邸",
    "area": "151.27",
    "rooms": "3室2厅",
    "direction": "南",
    "floor": "",
    "price": "21000",
    "tags": "",
    "source": "",
    "url": "https://sh.lianjia.com/zufang/SH2150856168442953728.html",
    "rent_type": "整租",
    "location": "徐汇-华泾-雍汇名邸",
    "scraped_at": "2026-04-23 14:59:02",
    "region": "huajing",
    "unit_price": 138.8,
    "lat": 31.237143,
    "lng": 121.437143
  },
  {
    "title": "整租·中海瀛台 2室2厅 南",
    "community": "中海瀛台",
    "area": "105.00",
    "rooms": "2室2厅",
    "direction": "南",
    "floor": "",
    "price": "11000",
    "tags": "",
    "source": "",
    "url": "https://sh.lianjia.com/zufang/SH2115832461337296896.html",
    "rent_type": "整租",
    "location": "徐汇-华泾-中海瀛台",
    "scraped_at": "2026-04-23 14:59:02",
    "region": "huajing",
    "unit_price": 104.8,
    "lat": 31.140177,
    "lng": 121.45357
  },
  {
    "title": "整租·华发小区 2室1厅 南",
    "community": "华发小区",
    "area": "61.20",
    "rooms": "2室1厅",
    "direction": "南",
    "floor": "",
    "price": "5200",
    "tags": "",
    "source": "",
    "url": "https://sh.lianjia.com/zufang/SH2106299278593884160.html",
    "rent_type": "整租",
    "location": "徐汇-华泾-华发小区",
    "scraped_at": "2026-04-23 14:59:02",
    "region": "huajing",
    "unit_price": 85.0,
    "lat": 31.128143,
    "lng": 121.452352
  },
  {
    "title": "整租·华泾绿苑 2室1厅 南",
    "community": "华泾绿苑",
    "area": "62.00",
    "rooms": "2室1厅",
    "direction": "南",
    "floor": "",
    "price": "5500",
    "tags": "",
    "source": "",
    "url": "https://sh.lianjia.com/zufang/SH2144098879996428288.html",
    "rent_type": "整租",
    "location": "徐汇-华泾-华泾绿苑",
    "scraped_at": "2026-04-23 14:59:02",
    "region": "huajing",
    "unit_price": 88.7,
    "lat": 31.113826,
    "lng": 121.458068
  },
  {
    "title": "整租·馨宁公寓 2室2厅 南",
    "community": "馨宁公寓",
    "area": "81.23",
    "rooms": "2室2厅",
    "direction": "南",
    "floor": "",
    "price": "7000",
    "tags": "",
    "source": "",
    "url": "https://sh.lianjia.com/zufang/SH2143189136532570112.html",
    "rent_type": "整租",
    "location": "徐汇-华泾-馨宁公寓",
    "scraped_at": "2026-04-23 14:59:02",
    "region": "huajing",
    "unit_price": 86.2,
    "lat": 31.128221,
    "lng": 121.447719
  },
  {
    "title": "整租·光华绿苑 2室1厅 南",
    "community": "光华绿苑",
    "area": "65.00",
    "rooms": "2室1厅",
    "direction": "南",
    "floor": "",
    "price": "6200",
    "tags": "",
    "source": "",
    "url": "https://sh.lianjia.com/zufang/SH2144666586206699520.html",
    "rent_type": "整租",
    "location": "徐汇-华泾-光华绿苑",
    "scraped_at": "2026-04-23 14:59:02",
    "region": "huajing",
    "unit_price": 95.4,
    "lat": 31.140537,
    "lng": 121.491112
  },
  {
    "title": "整租·紫阳花苑 1室1厅 南",
    "community": "紫阳花苑",
    "area": "43.90",
    "rooms": "1室1厅",
    "direction": "南",
    "floor": "",
    "price": "4390",
    "tags": "",
    "source": "",
    "url": "https://sh.lianjia.com/zufang/SH2151281036347047936.html",
    "rent_type": "整租",
    "location": "徐汇-华泾-紫阳花苑",
    "scraped_at": "2026-04-23 14:59:02",
    "region": "huajing",
    "unit_price": 100.0,
    "lat": 31.113366,
    "lng": 121.453229
  },
  {
    "title": "整租·中海瀛台 4室2厅 东南/南/西南/北",
    "community": "中海瀛台",
    "area": "238.52",
    "rooms": "4室2厅",
    "direction": "东南/南/西南/北",
    "floor": "",
    "price": "35000",
    "tags": "",
    "source": "",
    "url": "https://sh.lianjia.com/zufang/SH2097978275715350528.html",
    "rent_type": "整租",
    "location": "徐汇-华泾-中海瀛台",
    "scraped_at": "2026-04-23 14:59:05",
    "region": "huajing",
    "unit_price": 146.7,
    "lat": 31.140177,
    "lng": 121.45357
  },
  {
    "title": "整租·中海瀛台 2室2厅 南",
    "community": "中海瀛台",
    "area": "88.52",
    "rooms": "2室2厅",
    "direction": "南",
    "floor": "",
    "price": "10800",
    "tags": "",
    "source": "",
    "url": "https://sh.lianjia.com/zufang/SH2120461053979525120.html",
    "rent_type": "整租",
    "location": "徐汇-华泾-中海瀛台",
    "scraped_at": "2026-04-23 14:59:05",
    "region": "huajing",
    "unit_price": 122.0,
    "lat": 31.140177,
    "lng": 121.45357
  },
  {
    "title": "整租·紫阳花苑 3室2厅 南",
    "community": "紫阳花苑",
    "area": "126.36",
    "rooms": "3室2厅",
    "direction": "南",
    "floor": "",
    "price": "11000",
    "tags": "",
    "source": "",
    "url": "https://sh.lianjia.com/zufang/SH2127375725211156480.html",
    "rent_type": "整租",
    "location": "徐汇-华泾-紫阳花苑",
    "scraped_at": "2026-04-23 14:59:05",
    "region": "huajing",
    "unit_price": 87.1,
    "lat": 31.113366,
    "lng": 121.453229
  },
  {
    "title": "整租·明丰新纪苑 2室2厅 南/北",
    "community": "明丰新纪苑",
    "area": "85.09",
    "rooms": "2室2厅",
    "direction": "南/北",
    "floor": "",
    "price": "6900",
    "tags": "",
    "source": "",
    "url": "https://sh.lianjia.com/zufang/SH2119319999171526656.html",
    "rent_type": "整租",
    "location": "徐汇-华泾-明丰新纪苑",
    "scraped_at": "2026-04-23 14:59:05",
    "region": "huajing",
    "unit_price": 81.1,
    "lat": 31.125698,
    "lng": 121.453712
  },
  {
    "title": "整租·华欣家园 1室1厅 南",
    "community": "华欣家园",
    "area": "43.93",
    "rooms": "1室1厅",
    "direction": "南",
    "floor": "",
    "price": "4000",
    "tags": "",
    "source": "",
    "url": "https://sh.lianjia.com/zufang/SH2146196750690418688.html",
    "rent_type": "整租",
    "location": "徐汇-华泾-华欣家园",
    "scraped_at": "2026-04-23 14:59:05",
    "region": "huajing",
    "unit_price": 91.1,
    "lat": 31.120158,
    "lng": 121.463294
  },
  {
    "title": "整租·华发小区 3室2厅 南",
    "community": "华发小区",
    "area": "88.89",
    "rooms": "3室2厅",
    "direction": "南",
    "floor": "",
    "price": "6800",
    "tags": "",
    "source": "",
    "url": "https://sh.lianjia.com/zufang/SH2137568061308272640.html",
    "rent_type": "整租",
    "location": "徐汇-华泾-华发小区",
    "scraped_at": "2026-04-23 14:59:05",
    "region": "huajing",
    "unit_price": 76.5,
    "lat": 31.128143,
    "lng": 121.452352
  },
  {
    "title": "整租·华泾五村 2室1厅 南",
    "community": "华泾五村",
    "area": "60.27",
    "rooms": "2室1厅",
    "direction": "南",
    "floor": "",
    "price": "4600",
    "tags": "",
    "source": "",
    "url": "https://sh.lianjia.com/zufang/SH2132100210984222720.html",
    "rent_type": "整租",
    "location": "徐汇-华泾-华泾五村",
    "scraped_at": "2026-04-23 14:59:05",
    "region": "huajing",
    "unit_price": 76.3,
    "lat": 31.119849,
    "lng": 121.445855
  },
  {
    "title": "整租·印象欧洲(公寓) 3室1厅 南",
    "community": "印象欧洲(公寓)",
    "area": "91.00",
    "rooms": "3室1厅",
    "direction": "南",
    "floor": "",
    "price": "9600",
    "tags": "",
    "source": "",
    "url": "https://sh.lianjia.com/zufang/SH2121844179200901120.html",
    "rent_type": "整租",
    "location": "徐汇-华泾-印象欧洲(公寓)",
    "scraped_at": "2026-04-23 14:59:05",
    "region": "huajing",
    "unit_price": 105.5,
    "lat": 31.117461,
    "lng": 121.458683
  },
  {
    "title": "整租·东湾小区 2室1厅 南",
    "community": "东湾小区",
    "area": "57.85",
    "rooms": "2室1厅",
    "direction": "南",
    "floor": "",
    "price": "4800",
    "tags": "",
    "source": "",
    "url": "https://sh.lianjia.com/zufang/SH2100913967747563520.html",
    "rent_type": "整租",
    "location": "徐汇-华泾-东湾小区",
    "scraped_at": "2026-04-23 14:59:05",
    "region": "huajing",
    "unit_price": 83.0,
    "lat": 31.122795,
    "lng": 121.4589
  },
  {
    "title": "整租·明丰新纪苑 2室2厅 南",
    "community": "明丰新纪苑",
    "area": "99.00",
    "rooms": "2室2厅",
    "direction": "南",
    "floor": "",
    "price": "7900",
    "tags": "",
    "source": "",
    "url": "https://sh.lianjia.com/zufang/SH2139053118636163072.html",
    "rent_type": "整租",
    "location": "徐汇-华泾-明丰新纪苑",
    "scraped_at": "2026-04-23 14:59:05",
    "region": "huajing",
    "unit_price": 79.8,
    "lat": 31.125698,
    "lng": 121.453712
  },
  {
    "title": "整租·馨宁公寓 2室2厅 南",
    "community": "馨宁公寓",
    "area": "82.74",
    "rooms": "2室2厅",
    "direction": "南",
    "floor": "",
    "price": "8500",
    "tags": "",
    "source": "",
    "url": "https://sh.lianjia.com/zufang/SH2157076390107676672.html",
    "rent_type": "整租",
    "location": "徐汇-华泾-馨宁公寓",
    "scraped_at": "2026-04-23 14:59:05",
    "region": "huajing",
    "unit_price": 102.7,
    "lat": 31.128221,
    "lng": 121.447719
  },
  {
    "title": "整租·馨宁公寓 1室1厅 南",
    "community": "馨宁公寓",
    "area": "62.00",
    "rooms": "1室1厅",
    "direction": "南",
    "floor": "",
    "price": "5100",
    "tags": "",
    "source": "",
    "url": "https://sh.lianjia.com/zufang/SH2137806658846326784.html",
    "rent_type": "整租",
    "location": "徐汇-华泾-馨宁公寓",
    "scraped_at": "2026-04-23 14:59:05",
    "region": "huajing",
    "unit_price": 82.3,
    "lat": 31.128221,
    "lng": 121.447719
  },
  {
    "title": "整租·华泾绿苑 1室1厅 南",
    "community": "华泾绿苑",
    "area": "62.65",
    "rooms": "1室1厅",
    "direction": "南",
    "floor": "",
    "price": "4350",
    "tags": "",
    "source": "",
    "url": "https://sh.lianjia.com/zufang/SH2140711492217995264.html",
    "rent_type": "整租",
    "location": "徐汇-华泾-华泾绿苑",
    "scraped_at": "2026-04-23 14:59:05",
    "region": "huajing",
    "unit_price": 69.4,
    "lat": 31.113826,
    "lng": 121.458068
  },
  {
    "title": "整租·华建一街坊 2室0厅 南/北",
    "community": "华建一街坊",
    "area": "49.42",
    "rooms": "2室0厅",
    "direction": "南/北",
    "floor": "",
    "price": "4700",
    "tags": "",
    "source": "",
    "url": "https://sh.lianjia.com/zufang/SH2155529428476624896.html",
    "rent_type": "整租",
    "location": "徐汇-华泾-华建一街坊",
    "scraped_at": "2026-04-23 14:59:05",
    "region": "huajing",
    "unit_price": 95.1,
    "lat": 31.120174,
    "lng": 121.439113
  },
  {
    "title": "整租·华泾五村 2室1厅 南",
    "community": "华泾五村",
    "area": "67.00",
    "rooms": "2室1厅",
    "direction": "南",
    "floor": "",
    "price": "4200",
    "tags": "",
    "source": "",
    "url": "https://sh.lianjia.com/zufang/SH2138328205713473536.html",
    "rent_type": "整租",
    "location": "徐汇-华泾-华泾五村",
    "scraped_at": "2026-04-23 14:59:05",
    "region": "huajing",
    "unit_price": 62.7,
    "lat": 31.119849,
    "lng": 121.445855
  },
  {
    "title": "整租·华泾绿苑 2室1厅 南",
    "community": "华泾绿苑",
    "area": "63.15",
    "rooms": "2室1厅",
    "direction": "南",
    "floor": "",
    "price": "5100",
    "tags": "",
    "source": "",
    "url": "https://sh.lianjia.com/zufang/SH2139222580903542784.html",
    "rent_type": "整租",
    "location": "徐汇-华泾-华泾绿苑",
    "scraped_at": "2026-04-23 14:59:05",
    "region": "huajing",
    "unit_price": 80.8,
    "lat": 31.113826,
    "lng": 121.458068
  },
  {
    "title": "整租·东湾小区 2室1厅 南",
    "community": "东湾小区",
    "area": "75.81",
    "rooms": "2室1厅",
    "direction": "南",
    "floor": "",
    "price": "5600",
    "tags": "",
    "source": "",
    "url": "https://sh.lianjia.com/zufang/SH2145735373290995712.html",
    "rent_type": "整租",
    "location": "徐汇-华泾-东湾小区",
    "scraped_at": "2026-04-23 14:59:05",
    "region": "huajing",
    "unit_price": 73.9,
    "lat": 31.122795,
    "lng": 121.4589
  },
  {
    "title": "整租·华泾绿苑 2室1厅 南",
    "community": "华泾绿苑",
    "area": "90.00",
    "rooms": "2室1厅",
    "direction": "南",
    "floor": "",
    "price": "6600",
    "tags": "",
    "source": "",
    "url": "https://sh.lianjia.com/zufang/SH2154066338228731904.html",
    "rent_type": "整租",
    "location": "徐汇-华泾-华泾绿苑",
    "scraped_at": "2026-04-23 14:59:05",
    "region": "huajing",
    "unit_price": 73.3,
    "lat": 31.113826,
    "lng": 121.458068
  },
  {
    "title": "整租·徐汇臻园 4室2厅 南",
    "community": "徐汇臻园",
    "area": "252.00",
    "rooms": "4室2厅",
    "direction": "南",
    "floor": "",
    "price": "26000",
    "tags": "",
    "source": "",
    "url": "https://sh.lianjia.com/zufang/SH2111339667398852608.html",
    "rent_type": "整租",
    "location": "徐汇-华泾-徐汇臻园",
    "scraped_at": "2026-04-23 14:59:05",
    "region": "huajing",
    "unit_price": 103.2,
    "lat": 31.190528,
    "lng": 121.40134
  },
  {
    "title": "整租·雍汇名邸 3室2厅 南",
    "community": "雍汇名邸",
    "area": "100.46",
    "rooms": "3室2厅",
    "direction": "南",
    "floor": "",
    "price": "13000",
    "tags": "",
    "source": "",
    "url": "https://sh.lianjia.com/zufang/SH2072282888115585024.html",
    "rent_type": "整租",
    "location": "徐汇-华泾-雍汇名邸",
    "scraped_at": "2026-04-23 14:59:05",
    "region": "huajing",
    "unit_price": 129.4,
    "lat": 31.237143,
    "lng": 121.437143
  },
  {
    "title": "整租·光华绿苑 2室1厅 南",
    "community": "光华绿苑",
    "area": "84.08",
    "rooms": "2室1厅",
    "direction": "南",
    "floor": "",
    "price": "6200",
    "tags": "",
    "source": "",
    "url": "https://sh.lianjia.com/zufang/SH2066093828745461760.html",
    "rent_type": "整租",
    "location": "徐汇-华泾-光华绿苑",
    "scraped_at": "2026-04-23 14:59:05",
    "region": "huajing",
    "unit_price": 73.7,
    "lat": 31.140537,
    "lng": 121.491112
  },
  {
    "title": "整租·馨宁公寓 2室2厅 南",
    "community": "馨宁公寓",
    "area": "83.07",
    "rooms": "2室2厅",
    "direction": "南",
    "floor": "",
    "price": "7000",
    "tags": "",
    "source": "",
    "url": "https://sh.lianjia.com/zufang/SH2149773650251743232.html",
    "rent_type": "整租",
    "location": "徐汇-华泾-馨宁公寓",
    "scraped_at": "2026-04-23 14:59:05",
    "region": "huajing",
    "unit_price": 84.3,
    "lat": 31.128221,
    "lng": 121.447719
  },
  {
    "title": "整租·华欣家园 2室0厅 南",
    "community": "华欣家园",
    "area": "54.24",
    "rooms": "2室0厅",
    "direction": "南",
    "floor": "",
    "price": "3500",
    "tags": "",
    "source": "",
    "url": "https://sh.lianjia.com/zufang/SH2150462091910184960.html",
    "rent_type": "整租",
    "location": "徐汇-华泾-华欣家园",
    "scraped_at": "2026-04-23 14:59:05",
    "region": "huajing",
    "unit_price": 64.5,
    "lat": 31.120158,
    "lng": 121.463294
  },
  {
    "title": "整租·华发小区 1室1厅 南",
    "community": "华发小区",
    "area": "44.16",
    "rooms": "1室1厅",
    "direction": "南",
    "floor": "",
    "price": "4200",
    "tags": "",
    "source": "",
    "url": "https://sh.lianjia.com/zufang/SH2121954436786946048.html",
    "rent_type": "整租",
    "location": "徐汇-华泾-华发小区",
    "scraped_at": "2026-04-23 14:59:05",
    "region": "huajing",
    "unit_price": 95.1,
    "lat": 31.128143,
    "lng": 121.452352
  },
  {
    "title": "整租·馨宁公寓 2室1厅 南",
    "community": "馨宁公寓",
    "area": "62.00",
    "rooms": "2室1厅",
    "direction": "南",
    "floor": "",
    "price": "5300",
    "tags": "",
    "source": "",
    "url": "https://sh.lianjia.com/zufang/SH2103048665319866368.html",
    "rent_type": "整租",
    "location": "徐汇-华泾-馨宁公寓",
    "scraped_at": "2026-04-23 14:59:05",
    "region": "huajing",
    "unit_price": 85.5,
    "lat": 31.128221,
    "lng": 121.447719
  },
  {
    "title": "整租·明丰新纪苑 2室2厅 南/北",
    "community": "明丰新纪苑",
    "area": "92.00",
    "rooms": "2室2厅",
    "direction": "南/北",
    "floor": "",
    "price": "7000",
    "tags": "",
    "source": "",
    "url": "https://sh.lianjia.com/zufang/SH2152763993524011008.html",
    "rent_type": "整租",
    "location": "徐汇-华泾-明丰新纪苑",
    "scraped_at": "2026-04-23 14:59:05",
    "region": "huajing",
    "unit_price": 76.1,
    "lat": 31.125698,
    "lng": 121.453712
  },
  {
    "title": "整租·馨宁公寓 2室1厅 南",
    "community": "馨宁公寓",
    "area": "82.77",
    "rooms": "2室1厅",
    "direction": "南",
    "floor": "",
    "price": "10800",
    "tags": "",
    "source": "",
    "url": "https://sh.lianjia.com/zufang/SH2137872906317725696.html",
    "rent_type": "整租",
    "location": "徐汇-华泾-馨宁公寓",
    "scraped_at": "2026-04-23 14:59:05",
    "region": "huajing",
    "unit_price": 130.5,
    "lat": 31.128221,
    "lng": 121.447719
  },
  {
    "title": "整租·雍汇名邸 3室2厅 南",
    "community": "雍汇名邸",
    "area": "100.00",
    "rooms": "3室2厅",
    "direction": "南",
    "floor": "",
    "price": "13900",
    "tags": "",
    "source": "",
    "url": "https://sh.lianjia.com/zufang/SH2151982036141735936.html",
    "rent_type": "整租",
    "location": "徐汇-华泾-雍汇名邸",
    "scraped_at": "2026-04-23 14:59:05",
    "region": "huajing",
    "unit_price": 139.0,
    "lat": 31.237143,
    "lng": 121.437143
  },
  {
    "title": "整租·华发小区 2室1厅 南",
    "community": "华发小区",
    "area": "62.26",
    "rooms": "2室1厅",
    "direction": "南",
    "floor": "",
    "price": "4800",
    "tags": "",
    "source": "",
    "url": "https://sh.lianjia.com/zufang/SH2082363731966164992.html",
    "rent_type": "整租",
    "location": "徐汇-华泾-华发小区",
    "scraped_at": "2026-04-23 14:59:05",
    "region": "huajing",
    "unit_price": 77.1,
    "lat": 31.128143,
    "lng": 121.452352
  },
  {
    "title": "整租·馨宁公寓 2室1厅 南",
    "community": "馨宁公寓",
    "area": "62.40",
    "rooms": "2室1厅",
    "direction": "南",
    "floor": "",
    "price": "5300",
    "tags": "",
    "source": "",
    "url": "https://sh.lianjia.com/zufang/SH2122558894990426112.html",
    "rent_type": "整租",
    "location": "徐汇-华泾-馨宁公寓",
    "scraped_at": "2026-04-23 14:59:05",
    "region": "huajing",
    "unit_price": 84.9,
    "lat": 31.128221,
    "lng": 121.447719
  },
  {
    "title": "整租·华泾五村 2室1厅 南",
    "community": "华泾五村",
    "area": "65.00",
    "rooms": "2室1厅",
    "direction": "南",
    "floor": "",
    "price": "4000",
    "tags": "",
    "source": "",
    "url": "https://sh.lianjia.com/zufang/SH2140476220138061824.html",
    "rent_type": "整租",
    "location": "徐汇-华泾-华泾五村",
    "scraped_at": "2026-04-23 14:59:08",
    "region": "huajing",
    "unit_price": 61.5,
    "lat": 31.119849,
    "lng": 121.445855
  },
  {
    "title": "整租·盛华景苑 1室1厅 南",
    "community": "盛华景苑",
    "area": "67.00",
    "rooms": "1室1厅",
    "direction": "南",
    "floor": "",
    "price": "3900",
    "tags": "",
    "source": "",
    "url": "https://sh.lianjia.com/zufang/SH2149493948211527680.html",
    "rent_type": "整租",
    "location": "徐汇-华泾-盛华景苑",
    "scraped_at": "2026-04-23 14:59:08",
    "region": "huajing",
    "unit_price": 58.2,
    "lat": 31.108502,
    "lng": 121.456312
  },
  {
    "title": "整租·中海瀛台 2室2厅 东南/南/西南",
    "community": "中海瀛台",
    "area": "105.12",
    "rooms": "2室2厅",
    "direction": "东南/南/西南",
    "floor": "",
    "price": "11000",
    "tags": "",
    "source": "",
    "url": "https://sh.lianjia.com/zufang/SH2151189525462777856.html",
    "rent_type": "整租",
    "location": "徐汇-华泾-中海瀛台",
    "scraped_at": "2026-04-23 14:59:08",
    "region": "huajing",
    "unit_price": 104.6,
    "lat": 31.140177,
    "lng": 121.45357
  },
  {
    "title": "整租·华泾绿苑 2室1厅 南",
    "community": "华泾绿苑",
    "area": "63.00",
    "rooms": "2室1厅",
    "direction": "南",
    "floor": "",
    "price": "5000",
    "tags": "",
    "source": "",
    "url": "https://sh.lianjia.com/zufang/SH2137396567622025216.html",
    "rent_type": "整租",
    "location": "徐汇-华泾-华泾绿苑",
    "scraped_at": "2026-04-23 14:59:08",
    "region": "huajing",
    "unit_price": 79.4,
    "lat": 31.113826,
    "lng": 121.458068
  },
  {
    "title": "整租·徐汇华园 2室1厅 南/北",
    "community": "徐汇华园",
    "area": "54.00",
    "rooms": "2室1厅",
    "direction": "南/北",
    "floor": "",
    "price": "5000",
    "tags": "",
    "source": "",
    "url": "https://sh.lianjia.com/zufang/SH2083412237489274880.html",
    "rent_type": "整租",
    "location": "徐汇-华泾-徐汇华园",
    "scraped_at": "2026-04-23 14:59:08",
    "region": "huajing",
    "unit_price": 92.6,
    "lat": 31.129001,
    "lng": 121.451355
  },
  {
    "title": "整租·华泾五村 2室1厅 南",
    "community": "华泾五村",
    "area": "57.69",
    "rooms": "2室1厅",
    "direction": "南",
    "floor": "",
    "price": "4500",
    "tags": "",
    "source": "",
    "url": "https://sh.lianjia.com/zufang/SH2158207093398568960.html",
    "rent_type": "整租",
    "location": "徐汇-华泾-华泾五村",
    "scraped_at": "2026-04-23 14:59:08",
    "region": "huajing",
    "unit_price": 78.0,
    "lat": 31.119849,
    "lng": 121.445855
  },
  {
    "title": "整租·馨宁公寓 1室1厅 南",
    "community": "馨宁公寓",
    "area": "42.00",
    "rooms": "1室1厅",
    "direction": "南",
    "floor": "",
    "price": "4500",
    "tags": "",
    "source": "",
    "url": "https://sh.lianjia.com/zufang/SH2104082235714961408.html",
    "rent_type": "整租",
    "location": "徐汇-华泾-馨宁公寓",
    "scraped_at": "2026-04-23 14:59:08",
    "region": "huajing",
    "unit_price": 107.1,
    "lat": 31.128221,
    "lng": 121.447719
  },
  {
    "title": "整租·盛华景苑 2室1厅 南",
    "community": "盛华景苑",
    "area": "81.66",
    "rooms": "2室1厅",
    "direction": "南",
    "floor": "",
    "price": "5200",
    "tags": "",
    "source": "",
    "url": "https://sh.lianjia.com/zufang/SH2150888615314456576.html",
    "rent_type": "整租",
    "location": "徐汇-华泾-盛华景苑",
    "scraped_at": "2026-04-23 14:59:08",
    "region": "huajing",
    "unit_price": 63.7,
    "lat": 31.108502,
    "lng": 121.456312
  },
  {
    "title": "整租·馨宁公寓 2室1厅 东南/南",
    "community": "馨宁公寓",
    "area": "64.00",
    "rooms": "2室1厅",
    "direction": "东南/南",
    "floor": "",
    "price": "5500",
    "tags": "",
    "source": "",
    "url": "https://sh.lianjia.com/zufang/SH2151244850115117056.html",
    "rent_type": "整租",
    "location": "徐汇-华泾-馨宁公寓",
    "scraped_at": "2026-04-23 14:59:08",
    "region": "huajing",
    "unit_price": 85.9,
    "lat": 31.128221,
    "lng": 121.447719
  },
  {
    "title": "整租·馨宁公寓 2室1厅 南",
    "community": "馨宁公寓",
    "area": "62.44",
    "rooms": "2室1厅",
    "direction": "南",
    "floor": "",
    "price": "5482",
    "tags": "",
    "source": "",
    "url": "https://sh.lianjia.com/zufang/SH2151317164634669056.html",
    "rent_type": "整租",
    "location": "徐汇-华泾-馨宁公寓",
    "scraped_at": "2026-04-23 14:59:08",
    "region": "huajing",
    "unit_price": 87.8,
    "lat": 31.128221,
    "lng": 121.447719
  },
  {
    "title": "整租·华泾绿苑 2室2厅 南",
    "community": "华泾绿苑",
    "area": "78.28",
    "rooms": "2室2厅",
    "direction": "南",
    "floor": "",
    "price": "6300",
    "tags": "",
    "source": "",
    "url": "https://sh.lianjia.com/zufang/SH2151861117167599616.html",
    "rent_type": "整租",
    "location": "徐汇-华泾-华泾绿苑",
    "scraped_at": "2026-04-23 14:59:08",
    "region": "huajing",
    "unit_price": 80.5,
    "lat": 31.113826,
    "lng": 121.458068
  },
  {
    "title": "整租·华欣家园 2室1厅 南/北",
    "community": "华欣家园",
    "area": "62.00",
    "rooms": "2室1厅",
    "direction": "南/北",
    "floor": "",
    "price": "4300",
    "tags": "",
    "source": "",
    "url": "https://sh.lianjia.com/zufang/SH2148638686583980032.html",
    "rent_type": "整租",
    "location": "徐汇-华泾-华欣家园",
    "scraped_at": "2026-04-23 14:59:08",
    "region": "huajing",
    "unit_price": 69.4,
    "lat": 31.120158,
    "lng": 121.463294
  },
  {
    "title": "整租·紫阳花苑 1室1厅 南",
    "community": "紫阳花苑",
    "area": "41.00",
    "rooms": "1室1厅",
    "direction": "南",
    "floor": "",
    "price": "3800",
    "tags": "",
    "source": "",
    "url": "https://sh.lianjia.com/zufang/SH2149084481431011328.html",
    "rent_type": "整租",
    "location": "徐汇-华泾-紫阳花苑",
    "scraped_at": "2026-04-23 14:59:08",
    "region": "huajing",
    "unit_price": 92.7,
    "lat": 31.113366,
    "lng": 121.453229
  },
  {
    "title": "整租·华泾绿苑 1室1厅 南",
    "community": "华泾绿苑",
    "area": "63.00",
    "rooms": "1室1厅",
    "direction": "南",
    "floor": "",
    "price": "4500",
    "tags": "",
    "source": "",
    "url": "https://sh.lianjia.com/zufang/SH2150604567430037504.html",
    "rent_type": "整租",
    "location": "徐汇-华泾-华泾绿苑",
    "scraped_at": "2026-04-23 14:59:08",
    "region": "huajing",
    "unit_price": 71.4,
    "lat": 31.113826,
    "lng": 121.458068
  },
  {
    "title": "整租·印象欧洲(公寓) 3室1厅 南",
    "community": "印象欧洲(公寓)",
    "area": "93.00",
    "rooms": "3室1厅",
    "direction": "南",
    "floor": "",
    "price": "9000",
    "tags": "",
    "source": "",
    "url": "https://sh.lianjia.com/zufang/SH2150975963079376896.html",
    "rent_type": "整租",
    "location": "徐汇-华泾-印象欧洲(公寓)",
    "scraped_at": "2026-04-23 14:59:08",
    "region": "huajing",
    "unit_price": 96.8,
    "lat": 31.117461,
    "lng": 121.458683
  },
  {
    "title": "整租·嘉华嘉俊庭 3室2厅 南",
    "community": "嘉华嘉俊庭",
    "area": "99.00",
    "rooms": "3室2厅",
    "direction": "南",
    "floor": "",
    "price": "10000",
    "tags": "",
    "source": "",
    "url": "https://sh.lianjia.com/zufang/SH2124416657332895744.html",
    "rent_type": "整租",
    "location": "徐汇-华泾-嘉华嘉俊庭",
    "scraped_at": "2026-04-23 14:59:08",
    "region": "huajing",
    "unit_price": 101.0,
    "lat": 31.189274,
    "lng": 121.437819
  },
  {
    "title": "整租·盛华景苑 1室1厅 南",
    "community": "盛华景苑",
    "area": "65.00",
    "rooms": "1室1厅",
    "direction": "南",
    "floor": "",
    "price": "4000",
    "tags": "",
    "source": "",
    "url": "https://sh.lianjia.com/zufang/SH2124787131036467200.html",
    "rent_type": "整租",
    "location": "徐汇-华泾-盛华景苑",
    "scraped_at": "2026-04-23 14:59:08",
    "region": "huajing",
    "unit_price": 61.5,
    "lat": 31.108502,
    "lng": 121.456312
  },
  {
    "title": "整租·中海瀛台 1室0厅 南",
    "community": "中海瀛台",
    "area": "32.05",
    "rooms": "1室0厅",
    "direction": "南",
    "floor": "",
    "price": "1500",
    "tags": "",
    "source": "",
    "url": "https://sh.lianjia.com/zufang/SH2139298757047484416.html",
    "rent_type": "整租",
    "location": "徐汇-华泾-中海瀛台",
    "scraped_at": "2026-04-23 14:59:08",
    "region": "huajing",
    "unit_price": 46.8,
    "lat": 31.140177,
    "lng": 121.45357
  },
  {
    "title": "整租·馨宁公寓 2室1厅 南",
    "community": "馨宁公寓",
    "area": "62.00",
    "rooms": "2室1厅",
    "direction": "南",
    "floor": "",
    "price": "5500",
    "tags": "",
    "source": "",
    "url": "https://sh.lianjia.com/zufang/SH2139616613744246784.html",
    "rent_type": "整租",
    "location": "徐汇-华泾-馨宁公寓",
    "scraped_at": "2026-04-23 14:59:08",
    "region": "huajing",
    "unit_price": 88.7,
    "lat": 31.128221,
    "lng": 121.447719
  },
  {
    "title": "整租·明丰新纪苑 2室1厅 南",
    "community": "明丰新纪苑",
    "area": "80.00",
    "rooms": "2室1厅",
    "direction": "南",
    "floor": "",
    "price": "7500",
    "tags": "",
    "source": "",
    "url": "https://sh.lianjia.com/zufang/SH2154507292093972480.html",
    "rent_type": "整租",
    "location": "徐汇-华泾-明丰新纪苑",
    "scraped_at": "2026-04-23 14:59:08",
    "region": "huajing",
    "unit_price": 93.8,
    "lat": 31.125698,
    "lng": 121.453712
  },
  {
    "title": "整租·华欣家园 2室1厅 南",
    "community": "华欣家园",
    "area": "65.00",
    "rooms": "2室1厅",
    "direction": "南",
    "floor": "",
    "price": "5000",
    "tags": "",
    "source": "",
    "url": "https://sh.lianjia.com/zufang/SH2153050454513156096.html",
    "rent_type": "整租",
    "location": "徐汇-华泾-华欣家园",
    "scraped_at": "2026-04-23 14:59:08",
    "region": "huajing",
    "unit_price": 76.9,
    "lat": 31.120158,
    "lng": 121.463294
  },
  {
    "title": "整租·华泾四村 2室1厅 南",
    "community": "华泾四村",
    "area": "65.00",
    "rooms": "2室1厅",
    "direction": "南",
    "floor": "",
    "price": "4000",
    "tags": "",
    "source": "",
    "url": "https://sh.lianjia.com/zufang/SH2153506602626318336.html",
    "rent_type": "整租",
    "location": "徐汇-华泾-华泾四村",
    "scraped_at": "2026-04-23 14:59:08",
    "region": "huajing",
    "unit_price": 61.5,
    "lat": 31.120792,
    "lng": 121.447155
  },
  {
    "title": "整租·紫阳花苑 1室1厅 南",
    "community": "紫阳花苑",
    "area": "54.00",
    "rooms": "1室1厅",
    "direction": "南",
    "floor": "",
    "price": "4800",
    "tags": "",
    "source": "",
    "url": "https://sh.lianjia.com/zufang/SH2155680573002088448.html",
    "rent_type": "整租",
    "location": "徐汇-华泾-紫阳花苑",
    "scraped_at": "2026-04-23 14:59:08",
    "region": "huajing",
    "unit_price": 88.9,
    "lat": 31.113366,
    "lng": 121.453229
  },
  {
    "title": "整租·徐汇臻园 3室2厅 南",
    "community": "徐汇臻园",
    "area": "109.00",
    "rooms": "3室2厅",
    "direction": "南",
    "floor": "",
    "price": "13500",
    "tags": "",
    "source": "",
    "url": "https://sh.lianjia.com/zufang/SH2155880406333784064.html",
    "rent_type": "整租",
    "location": "徐汇-华泾-徐汇臻园",
    "scraped_at": "2026-04-23 14:59:08",
    "region": "huajing",
    "unit_price": 123.9,
    "lat": 31.190528,
    "lng": 121.40134
  },
  {
    "title": "整租·盛华景苑 2室2厅 南",
    "community": "盛华景苑",
    "area": "88.00",
    "rooms": "2室2厅",
    "direction": "南",
    "floor": "",
    "price": "6800",
    "tags": "",
    "source": "",
    "url": "https://sh.lianjia.com/zufang/SH2156056714837753856.html",
    "rent_type": "整租",
    "location": "徐汇-华泾-盛华景苑",
    "scraped_at": "2026-04-23 14:59:08",
    "region": "huajing",
    "unit_price": 77.3,
    "lat": 31.108502,
    "lng": 121.456312
  },
  {
    "title": "整租·明丰新纪苑 3室2厅 南",
    "community": "明丰新纪苑",
    "area": "129.00",
    "rooms": "3室2厅",
    "direction": "南",
    "floor": "",
    "price": "13000",
    "tags": "",
    "source": "",
    "url": "https://sh.lianjia.com/zufang/SH2156398815995756544.html",
    "rent_type": "整租",
    "location": "徐汇-华泾-明丰新纪苑",
    "scraped_at": "2026-04-23 14:59:08",
    "region": "huajing",
    "unit_price": 100.8,
    "lat": 31.125698,
    "lng": 121.453712
  },
  {
    "title": "整租·华泾绿苑 2室1厅 南",
    "community": "华泾绿苑",
    "area": "85.00",
    "rooms": "2室1厅",
    "direction": "南",
    "floor": "",
    "price": "7500",
    "tags": "",
    "source": "",
    "url": "https://sh.lianjia.com/zufang/SH2156681259428872192.html",
    "rent_type": "整租",
    "location": "徐汇-华泾-华泾绿苑",
    "scraped_at": "2026-04-23 14:59:08",
    "region": "huajing",
    "unit_price": 88.2,
    "lat": 31.113826,
    "lng": 121.458068
  },
  {
    "title": "整租·华发小区 2室1厅 南",
    "community": "华发小区",
    "area": "62.26",
    "rooms": "2室1厅",
    "direction": "南",
    "floor": "",
    "price": "4800",
    "tags": "",
    "source": "",
    "url": "https://sh.lianjia.com/zufang/SH2156783125709979648.html",
    "rent_type": "整租",
    "location": "徐汇-华泾-华发小区",
    "scraped_at": "2026-04-23 14:59:08",
    "region": "huajing",
    "unit_price": 77.1,
    "lat": 31.128143,
    "lng": 121.452352
  },
  {
    "title": "整租·东湾小区 2室1厅 南/北",
    "community": "东湾小区",
    "area": "57.00",
    "rooms": "2室1厅",
    "direction": "南/北",
    "floor": "",
    "price": "4300",
    "tags": "",
    "source": "",
    "url": "https://sh.lianjia.com/zufang/SH2158139310434418688.html",
    "rent_type": "整租",
    "location": "徐汇-华泾-东湾小区",
    "scraped_at": "2026-04-23 14:59:08",
    "region": "huajing",
    "unit_price": 75.4,
    "lat": 31.122795,
    "lng": 121.4589
  },
  {
    "title": "整租·华泾四村 2室1厅 南",
    "community": "华泾四村",
    "area": "68.89",
    "rooms": "2室1厅",
    "direction": "南",
    "floor": "",
    "price": "4800",
    "tags": "",
    "source": "",
    "url": "https://sh.lianjia.com/zufang/SH2145119572292796416.html",
    "rent_type": "整租",
    "location": "徐汇-华泾-华泾四村",
    "scraped_at": "2026-04-23 14:59:08",
    "region": "huajing",
    "unit_price": 69.7,
    "lat": 31.120792,
    "lng": 121.447155
  },
  {
    "title": "整租·东湾小区 1室1厅 南",
    "community": "东湾小区",
    "area": "41.43",
    "rooms": "1室1厅",
    "direction": "南",
    "floor": "",
    "price": "4000",
    "tags": "",
    "source": "",
    "url": "https://sh.lianjia.com/zufang/SH2150116521462988800.html",
    "rent_type": "整租",
    "location": "徐汇-华泾-东湾小区",
    "scraped_at": "2026-04-23 14:59:12",
    "region": "huajing",
    "unit_price": 96.5,
    "lat": 31.122795,
    "lng": 121.4589
  },
  {
    "title": "整租·嘉华嘉俊庭 3室2厅 南",
    "community": "嘉华嘉俊庭",
    "area": "100.00",
    "rooms": "3室2厅",
    "direction": "南",
    "floor": "",
    "price": "13000",
    "tags": "",
    "source": "",
    "url": "https://sh.lianjia.com/zufang/SH2144693018551123968.html",
    "rent_type": "整租",
    "location": "徐汇-华泾-嘉华嘉俊庭",
    "scraped_at": "2026-04-23 14:59:12",
    "region": "huajing",
    "unit_price": 130.0,
    "lat": 31.189274,
    "lng": 121.437819
  },
  {
    "title": "整租·华欣家园 2室1厅 南",
    "community": "华欣家园",
    "area": "66.00",
    "rooms": "2室1厅",
    "direction": "南",
    "floor": "",
    "price": "5500",
    "tags": "",
    "source": "",
    "url": "https://sh.lianjia.com/zufang/SH2146176910802026496.html",
    "rent_type": "整租",
    "location": "徐汇-华泾-华欣家园",
    "scraped_at": "2026-04-23 14:59:12",
    "region": "huajing",
    "unit_price": 83.3,
    "lat": 31.120158,
    "lng": 121.463294
  },