[
  {
    "title": "整租·同盛公寓 3室2厅 南",
    "community": "同盛公寓",
    "area": "150.00",
    "rooms": "3室2厅",
    "direction": "南",
    "floor": "",
    "price": "5600",
    "tags": "",
    "source": "",
    "url": "https://sh.lianjia.com/zufang/SH2153491676499279872.html",
    "rent_type": "整租",
    "location": "嘉定-南翔-同盛公寓",
    "scraped_at": "2026-04-23 17:17:45",
    "region": "nanxiang",
    "unit_price": 37.3,
    "lat": 31.290145,
    "lng": 121.313928
  },
  {
    "title": "整租·连飞虹湖天地 2室2厅 北",
    "community": "连飞虹湖天地",
    "area": "101.24",
    "rooms": "2室2厅",
    "direction": "北",
    "floor": "",
    "price": "4700",
    "tags": "",
    "source": "",
    "url": "https://sh.lianjia.com/zufang/SH2156619578782777344.html",
    "rent_type": "整租",
    "location": "嘉定-南翔-连飞虹湖天地",
    "scraped_at": "2026-04-23 17:15:29",
    "region": "nanxiang",
    "unit_price": 46.4,
    "lat": 31.279855,
    "lng": 121.32486
  },
  {
    "title": "整租·菁英尚都 2室1厅 南",
    "community": "菁英尚都",
    "area": "83.02",
    "rooms": "2室1厅",
    "direction": "南",
    "floor": "",
    "price": "3465",
    "tags": "",
    "source": "",
    "url": "https://sh.lianjia.com/zufang/SH1974144606241030144.html",
    "rent_type": "整租",
    "location": "嘉定-南翔-菁英尚都",
    "scraped_at": "2026-04-23 17:17:45",
    "region": "nanxiang",
    "unit_price": 41.7,
    "lat": 31.288026,
    "lng": 121.323433
  },
  {
    "title": "独栋·贝壳公寓 南翔店 【限时一口价】面朝大草坪独立花园，温馨一居室 1室1厅",
    "community": "贝壳公寓 南翔店 【限时一口价】面朝大草坪独立花园，温馨一居室",
    "area": "35.00",
    "rooms": "1室1厅",
    "direction": "",
    "floor": "",
    "price": "3800",
    "tags": "",
    "source": "",
    "url": "https://sh.lianjia.com/apartment/63284.html",
    "rent_type": "独栋",
    "location": "",
    "scraped_at": "2026-04-23 17:15:29",
    "region": "nanxiang",
    "unit_price": 108.6,
    "lat": 31.29722,
    "lng": 121.331144
  },
  {
    "title": "整租·中童巴比尼 2室2厅 南",
    "community": "中童巴比尼",
    "area": "65.00",
    "rooms": "2室2厅",
    "direction": "南",
    "floor": "",
    "price": "3780",
    "tags": "",
    "source": "",
    "url": "https://sh.lianjia.com/zufang/SH1988545728443580416.html",
    "rent_type": "整租",
    "location": "嘉定-南翔-中童巴比尼",
    "scraped_at": "2026-04-23 17:17:17",
    "region": "nanxiang",
    "unit_price": 58.2,
    "lat": 31.304576,
    "lng": 121.329585
  },
  {
    "title": "独栋·九米阳光 南翔店 近地铁，宠物友好，可短租可月付 1室1厅",
    "community": "九米阳光 南翔店 近地铁，宠物友好，可短租可月付",
    "area": "36.00",
    "rooms": "1室1厅",
    "direction": "",
    "floor": "",
    "price": "2700",
    "tags": "",
    "source": "",
    "url": "https://sh.lianjia.com/apartment/35960.html",
    "rent_type": "独栋",
    "location": "",
    "scraped_at": "2026-04-23 17:15:33",
    "region": "nanxiang",
    "unit_price": 75.0,
    "lat": 31.310762,
    "lng": 121.385329
  },
  {
    "title": "整租·绿洲古猗新苑(二期) 3室2厅 南",
    "community": "绿洲古猗新苑(二期)",
    "area": "90.16",
    "rooms": "3室2厅",
    "direction": "南",
    "floor": "",
    "price": "5985",
    "tags": "",
    "source": "",
    "url": "https://sh.lianjia.com/zufang/SH2010215489061519360.html",
    "rent_type": "整租",
    "location": "嘉定-南翔-绿洲古猗新苑(二期)",
    "scraped_at": "2026-04-23 17:16:53",
    "region": "nanxiang",
    "unit_price": 66.4,
    "lat": 31.286983,
    "lng": 121.314531
  },
  {
    "title": "整租·路劲翡丽湾(公寓) 3室1厅 南",
    "community": "路劲翡丽湾(公寓)",
    "area": "162.00",
    "rooms": "3室1厅",
    "direction": "南",
    "floor": "",
    "price": "5800",
    "tags": "",
    "source": "",
    "url": "https://sh.lianjia.com/zufang/SH2153687198807883776.html",
    "rent_type": "整租",
    "location": "嘉定-南翔-路劲翡丽湾(公寓)",
    "scraped_at": "2026-04-23 17:15:29",
    "region": "nanxiang",
    "unit_price": 35.8,
    "lat": 31.315859,
    "lng": 121.319164
  },
  {
    "title": "整租·格林公馆 3室2厅 南",
    "community": "格林公馆",
    "area": "90.52",
    "rooms": "3室2厅",
    "direction": "南",
    "floor": "",
    "price": "5800",
    "tags": "",
    "source": "",
    "url": "https://sh.lianjia.com/zufang/SH2012021741534052352.html",
    "rent_type": "整租",
    "location": "嘉定-南翔-格林公馆",
    "scraped_at": "2026-04-23 17:16:53",
    "region": "nanxiang",
    "unit_price": 64.1,
    "lat": 31.307041,
    "lng": 121.310855
  },
  {
    "title": "整租·翔和雅苑 3室1厅 南",
    "community": "翔和雅苑",
    "area": "85.00",
    "rooms": "3室1厅",
    "direction": "南",
    "floor": "",
    "price": "4700",
    "tags": "",
    "source": "",
    "url": "https://sh.lianjia.com/zufang/SH2142910501921751040.html",
    "rent_type": "整租",
    "location": "嘉定-南翔-翔和雅苑",
    "scraped_at": "2026-04-23 17:17:45",
    "region": "nanxiang",
    "unit_price": 55.3,
    "lat": 31.312561,
    "lng": 121.298185
  },
  {
    "title": "独栋·壹间公寓 虹桥璀璨领峯2店 双南卧室采光绝绝子·民水民电·押一付一·近世外学校·宠物友好 2室1厅",
    "community": "壹间公寓 虹桥璀璨领峯2店 双南卧室采光绝绝子·民水民电·押一付一·近世外学校·宠物友好",
    "area": "70.00",
    "rooms": "2室1厅",
    "direction": "",
    "floor": "",
    "price": "3645-3993",
    "tags": "",
    "source": "",
    "url": "https://sh.lianjia.com/apartment/103184.html",
    "rent_type": "独栋",
    "location": "",
    "scraped_at": "2026-04-23 17:15:29",
    "region": "nanxiang",
    "unit_price": "",
    "lat": 31.367874,
    "lng": 121.447393
  },
  {
    "title": "整租·海伦堡爱ME城市 2室2厅 南",
    "community": "海伦堡爱ME城市",
    "area": "53.00",
    "rooms": "2室2厅",
    "direction": "南",
    "floor": "",
    "price": "3675",
    "tags": "",
    "source": "",
    "url": "https://sh.lianjia.com/zufang/SH2149133285215698944.html",
    "rent_type": "整租",
    "location": "嘉定-南翔-海伦堡爱",
    "scraped_at": "2026-04-23 17:17:45",
    "region": "nanxiang",
    "unit_price": 69.3,
    "lat": 31.279251,
    "lng": 121.330958
  },
  {
    "title": "整租·旭辉U天地(商业类) 2室2厅 南",
    "community": "旭辉U天地(商业类)",
    "area": "48.52",
    "rooms": "2室2厅",
    "direction": "南",
    "floor": "",
    "price": "2900",
    "tags": "",
    "source": "",
    "url": "https://sh.lianjia.com/zufang/SH1939191847888879616.html",
    "rent_type": "整租",
    "location": "嘉定-南翔-旭辉",
    "scraped_at": "2026-04-23 17:17:45",
    "region": "nanxiang",
    "unit_price": 59.8,
    "lat": 31.222507,
    "lng": 121.380971
  },
  {
    "title": "独栋·海伦堡爱ME公寓 3期 一室一厅朝南 独立客厅 有厨房 宠物友好 1室1厅",
    "community": "海伦堡爱ME公寓 3期 一室一厅朝南 独立客厅 有厨房 宠物友好",
    "area": "60.00",
    "rooms": "1室1厅",
    "direction": "",
    "floor": "",
    "price": "3600",
    "tags": "",
    "source": "",
    "url": "https://sh.lianjia.com/apartment/64045.html",
    "rent_type": "独栋",
    "location": "",
    "scraped_at": "2026-04-23 17:15:29",
    "region": "nanxiang",
    "unit_price": 60.0,
    "lat": 31.278839,
    "lng": 121.330435
  },
  {
    "title": "整租·中建溪岸澜庭 4室2厅 南/北",
    "community": "中建溪岸澜庭",
    "area": "138.00",
    "rooms": "4室2厅",
    "direction": "南/北",
    "floor": "",
    "price": "7140",
    "tags": "",
    "source": "",
    "url": "https://sh.lianjia.com/zufang/SH1922130578019188736.html",
    "rent_type": "整租",
    "location": "嘉定-南翔-中建溪岸澜庭",
    "scraped_at": "2026-04-23 17:17:17",
    "region": "nanxiang",
    "unit_price": 51.7,
    "lat": 31.30809,
    "lng": 121.300497
  },
  {
    "title": "整租·海伦堡爱ME城市 1室1厅 南",
    "community": "海伦堡爱ME城市",
    "area": "70.00",
    "rooms": "1室1厅",
    "direction": "南",
    "floor": "",
    "price": "3000",
    "tags": "",
    "source": "",
    "url": "https://sh.lianjia.com/zufang/SH2153503064328241152.html",
    "rent_type": "整租",
    "location": "嘉定-南翔-海伦堡爱",
    "scraped_at": "2026-04-23 17:15:29",
    "region": "nanxiang",
    "unit_price": 42.9,
    "lat": 31.279251,
    "lng": 121.330958
  },
  {
    "title": "独栋·海伦堡爱ME公寓 嘉定店 精装一室一厅 独立厨卫带阳台 民电 宠物友好 1室1厅",
    "community": "海伦堡爱ME公寓 嘉定店 精装一室一厅 独立厨卫带阳台 民电 宠物友好",
    "area": "53.00",
    "rooms": "1室1厅",
    "direction": "",
    "floor": "",
    "price": "3705",
    "tags": "",
    "source": "",
    "url": "https://sh.lianjia.com/apartment/64046.html",
    "rent_type": "独栋",
    "location": "",
    "scraped_at": "2026-04-23 17:15:29",
    "region": "nanxiang",
    "unit_price": 69.9,
    "lat": 31.280314,
    "lng": 121.331022
  },
  {
    "title": "整租·融信海纳印象 3室2厅 南/北",
    "community": "融信海纳印象",
    "area": "92.00",
    "rooms": "3室2厅",
    "direction": "南/北",
    "floor": "",
    "price": "6700",
    "tags": "",
    "source": "",
    "url": "https://sh.lianjia.com/zufang/SH1889708723841007616.html",
    "rent_type": "整租",
    "location": "嘉定-南翔-融信海纳印象",
    "scraped_at": "2026-04-23 17:17:45",
    "region": "nanxiang",
    "unit_price": 72.8,
    "lat": 31.301545,
    "lng": 121.307738
  },
  {
    "title": "整租·中建溪岸澜庭 3室2厅 南/北",
    "community": "中建溪岸澜庭",
    "area": "122.10",
    "rooms": "3室2厅",
    "direction": "南/北",
    "floor": "",
    "price": "6900",
    "tags": "",
    "source": "",
    "url": "https://sh.lianjia.com/zufang/SH2155962354020384768.html",
    "rent_type": "整租",
    "location": "嘉定-南翔-中建溪岸澜庭",
    "scraped_at": "2026-04-23 17:15:33",
    "region": "nanxiang",
    "unit_price": 56.5,
    "lat": 31.30809,
    "lng": 121.300497
  },
  {
    "title": "独栋·壹间公寓 虹桥璀璨领峯1店 首排无遮挡，阳关满屋，双南卧室，押一付一，宠物友好两居室 2室1厅",
    "community": "壹间公寓 虹桥璀璨领峯1店 首排无遮挡，阳关满屋，双南卧室，押一付一，宠物友好两居室",
    "area": "70.00",
    "rooms": "2室1厅",
    "direction": "",
    "floor": "",
    "price": "3645-3965",
    "tags": "",
    "source": "",
    "url": "https://sh.lianjia.com/apartment/102670.html",
    "rent_type": "独栋",
    "location": "",
    "scraped_at": "2026-04-23 17:15:29",
    "region": "nanxiang",
    "unit_price": "",
    "lat": 31.367874,
    "lng": 121.447393
  },
  {
    "title": "整租·新城公馆(宝翔路191弄) 1室1厅 东",
    "community": "新城公馆(宝翔路191弄)",
    "area": "45.00",
    "rooms": "1室1厅",
    "direction": "东",
    "floor": "",
    "price": "2716",
    "tags": "",
    "source": "",
    "url": "https://sh.lianjia.com/zufang/SH1776858511825698816.html",
    "rent_type": "整租",
    "location": "嘉定-南翔-新城公馆(宝翔路",
    "scraped_at": "2026-04-23 17:17:17",
    "region": "nanxiang",
    "unit_price": 60.4,
    "lat": 31.304255,
    "lng": 121.322284
  },
  {
    "title": "整租·菁英尚都 1室2厅 东南",
    "community": "菁英尚都",
    "area": "40.00",
    "rooms": "1室2厅",
    "direction": "东南",
    "floor": "",
    "price": "3000",
    "tags": "",
    "source": "",
    "url": "https://sh.lianjia.com/zufang/SH1954820703010160640.html",
    "rent_type": "整租",
    "location": "嘉定-南翔-菁英尚都",
    "scraped_at": "2026-04-23 17:17:17",
    "region": "nanxiang",
    "unit_price": 75.0,
    "lat": 31.288026,
    "lng": 121.323433
  },
  {
    "title": "整租·星信名邸 2室1厅 南",
    "community": "星信名邸",
    "area": "124.23",
    "rooms": "2室1厅",
    "direction": "南",
    "floor": "",
    "price": "7600",
    "tags": "",
    "source": "",
    "url": "https://sh.lianjia.com/zufang/SH2156966472243478528.html",
    "rent_type": "整租",
    "location": "嘉定-南翔-星信名邸",
    "scraped_at": "2026-04-23 17:15:56",
    "region": "nanxiang",
    "unit_price": 61.2,
    "lat": 31.30396,
    "lng": 121.301829
  },
  {
    "title": "整租·世盟壹天地 1室1厅 南",
    "community": "世盟壹天地",
    "area": "45.00",
    "rooms": "1室1厅",
    "direction": "南",
    "floor": "",
    "price": "3200",
    "tags": "",
    "source": "",
    "url": "https://sh.lianjia.com/zufang/SH2157036061555949568.html",
    "rent_type": "整租",
    "location": "嘉定-南翔-世盟壹天地",
    "scraped_at": "2026-04-23 17:15:56",
    "region": "nanxiang",
    "unit_price": 71.1,
    "lat": 31.290998,
    "lng": 121.320443
  },
  {
    "title": "整租·上隽嘉苑 3室2厅 南",
    "community": "上隽嘉苑",
    "area": "115.48",
    "rooms": "3室2厅",
    "direction": "南",
    "floor": "",
    "price": "6500",
    "tags": "",
    "source": "",
    "url": "https://sh.lianjia.com/zufang/SH2154574660887379968.html",
    "rent_type": "整租",
    "location": "嘉定-南翔-上隽嘉苑",
    "scraped_at": "2026-04-23 17:15:29",
    "region": "nanxiang",
    "unit_price": 56.3,
    "lat": 31.315648,
    "lng": 121.317914
  },
  {
    "title": "整租·森林公馆(468弄) 2室2厅 南",
    "community": "森林公馆(468弄)",
    "area": "87.29",
    "rooms": "2室2厅",
    "direction": "南",
    "floor": "",
    "price": "5300",
    "tags": "",
    "source": "",
    "url": "https://sh.lianjia.com/zufang/SH2155315859818545152.html",
    "rent_type": "整租",
    "location": "嘉定-南翔-森林公馆(",
    "scraped_at": "2026-04-23 17:15:29",
    "region": "nanxiang",
    "unit_price": 60.7,
    "lat": 31.310047,
    "lng": 121.317869
  },
  {
    "title": "独栋·海伦堡爱ME公寓 南翔店 采光 好户型 方正朝南的1房1厅有阳台和厨房 1室1厅",
    "community": "海伦堡爱ME公寓 南翔店 采光 好户型 方正朝南的1房1厅有阳台和厨房",
    "area": "60.00",
    "rooms": "1室1厅",
    "direction": "",
    "floor": "",
    "price": "3600",
    "tags": "",
    "source": "",
    "url": "https://sh.lianjia.com/apartment/64044.html",
    "rent_type": "独栋",
    "location": "",
    "scraped_at": "2026-04-23 17:15:29",
    "region": "nanxiang",
    "unit_price": 60.0,
    "lat": 31.279977,
    "lng": 121.331387
  },
  {
    "title": "整租·中建溪岸澜庭 3室1厅 南",
    "community": "中建溪岸澜庭",
    "area": "89.51",
    "rooms": "3室1厅",
    "direction": "南",
    "floor": "",
    "price": "5800",
    "tags": "",
    "source": "",
    "url": "https://sh.lianjia.com/zufang/SH2114290389870444544.html",
    "rent_type": "整租",
    "location": "嘉定-南翔-中建溪岸澜庭",
    "scraped_at": "2026-04-23 17:16:19",
    "region": "nanxiang",
    "unit_price": 64.8,
    "lat": 31.30809,
    "lng": 121.300497
  },
  {
    "title": "整租·新华悦都 3室2厅 南",
    "community": "新华悦都",
    "area": "75.00",
    "rooms": "3室2厅",
    "direction": "南",
    "floor": "",
    "price": "5040",
    "tags": "",
    "source": "",
    "url": "https://sh.lianjia.com/zufang/SH1923384920604934144.html",
    "rent_type": "整租",
    "location": "嘉定-南翔-新华悦都",
    "scraped_at": "2026-04-23 17:17:17",
    "region": "nanxiang",
    "unit_price": 67.2,
    "lat": 31.281434,
    "lng": 121.331219
  },
  {
    "title": "独栋·青住界 嘉定店 近印象城五彩城超大双侧落地窗景观房 开间",
    "community": "青住界 嘉定店 近印象城五彩城超大双侧落地窗景观房 开间",
    "area": "40.00",
    "rooms": "",
    "direction": "",
    "floor": "",
    "price": "2650",
    "tags": "",
    "source": "",
    "url": "https://sh.lianjia.com/apartment/81275.html",
    "rent_type": "独栋",
    "location": "",
    "scraped_at": "2026-04-23 17:15:33",
    "region": "nanxiang",
    "unit_price": 66.2,
    "lat": 31.267196,
    "lng": 121.509351
  },
  {
    "title": "整租·泰翔嘉苑 2室1厅 南",
    "community": "泰翔嘉苑",
    "area": "89.00",
    "rooms": "2室1厅",
    "direction": "南",
    "floor": "",
    "price": "4410",
    "tags": "",
    "source": "",
    "url": "https://sh.lianjia.com/zufang/SH2017087621641011200.html",
    "rent_type": "整租",
    "location": "嘉定-南翔-泰翔嘉苑",
    "scraped_at": "2026-04-23 17:16:53",
    "region": "nanxiang",
    "unit_price": 49.6,
    "lat": 31.285862,
    "lng": 121.312433
  },
  {
    "title": "整租·玉宏星天地 1室2厅 南",
    "community": "玉宏星天地",
    "area": "48.49",
    "rooms": "1室2厅",
    "direction": "南",
    "floor": "",
    "price": "3200",
    "tags": "",
    "source": "",
    "url": "https://sh.lianjia.com/zufang/SH1860946056192196608.html",
    "rent_type": "整租",
    "location": "嘉定-南翔-玉宏星天地",
    "scraped_at": "2026-04-23 17:17:17",
    "region": "nanxiang",
    "unit_price": 66.0,
    "lat": 31.303589,
    "lng": 121.327457
  },
  {
    "title": "整租·海伦堡爱ME城市 1室1厅 南",
    "community": "海伦堡爱ME城市",
    "area": "70.00",
    "rooms": "1室1厅",
    "direction": "南",
    "floor": "",
    "price": "2900",
    "tags": "",
    "source": "",
    "url": "https://sh.lianjia.com/zufang/SH2118890839743660032.html",
    "rent_type": "整租",
    "location": "嘉定-南翔-海伦堡爱",
    "scraped_at": "2026-04-23 17:15:48",
    "region": "nanxiang",
    "unit_price": 41.4,
    "lat": 31.279251,
    "lng": 121.330958
  },
  {
    "title": "整租·德华一村 2室1厅 南",
    "community": "德华一村",
    "area": "68.00",
    "rooms": "2室1厅",
    "direction": "南",
    "floor": "",
    "price": "3675",
    "tags": "",
    "source": "",
    "url": "https://sh.lianjia.com/zufang/SH2026326375060733952.html",
    "rent_type": "整租",
    "location": "嘉定-南翔-德华一村",
    "scraped_at": "2026-04-23 17:17:17",
    "region": "nanxiang",
    "unit_price": 54.0,
    "lat": 31.375566,
    "lng": 121.265276
  },
  {
    "title": "整租·中建溪岸澜庭 2室1厅 南",
    "community": "中建溪岸澜庭",
    "area": "76.00",
    "rooms": "2室1厅",
    "direction": "南",
    "floor": "",
    "price": "5460",
    "tags": "",
    "source": "",
    "url": "https://sh.lianjia.com/zufang/SH1938854873814532096.html",
    "rent_type": "整租",
    "location": "嘉定-南翔-中建溪岸澜庭",
    "scraped_at": "2026-04-23 17:17:17",
    "region": "nanxiang",
    "unit_price": 71.8,
    "lat": 31.30809,
    "lng": 121.300497
  },
  {
    "title": "整租·森林公馆(425弄) 2室1厅 南",
    "community": "森林公馆(425弄)",
    "area": "88.00",
    "rooms": "2室1厅",
    "direction": "南",
    "floor": "",
    "price": "4800",
    "tags": "",
    "source": "",
    "url": "https://sh.lianjia.com/zufang/SH1891121734334021632.html",
    "rent_type": "整租",
    "location": "嘉定-南翔-森林公馆(",
    "scraped_at": "2026-04-23 17:17:17",
    "region": "nanxiang",
    "unit_price": 54.5,
    "lat": 31.310047,
    "lng": 121.317869
  },
  {
    "title": "整租·中建溪岸澜庭 3室2厅 东南",
    "community": "中建溪岸澜庭",
    "area": "90.00",
    "rooms": "3室2厅",
    "direction": "东南",
    "floor": "",
    "price": "6615",
    "tags": "",
    "source": "",
    "url": "https://sh.lianjia.com/zufang/SH1941909937219174400.html",
    "rent_type": "整租",
    "location": "嘉定-南翔-中建溪岸澜庭",
    "scraped_at": "2026-04-23 17:17:17",
    "region": "nanxiang",
    "unit_price": 73.5,
    "lat": 31.30809,
    "lng": 121.300497
  },
  {
    "title": "整租·骏丰嘉峰汇 2室1厅 南",
    "community": "骏丰嘉峰汇",
    "area": "74.68",
    "rooms": "2室1厅",
    "direction": "南",
    "floor": "",
    "price": "3500",
    "tags": "",
    "source": "",
    "url": "https://sh.lianjia.com/zufang/SH1892495561014116352.html",
    "rent_type": "整租",
    "location": "嘉定-南翔-骏丰嘉峰汇",
    "scraped_at": "2026-04-23 17:17:17",
    "region": "nanxiang",
    "unit_price": 46.9,
    "lat": 31.289413,
    "lng": 121.319414
  },
  {
    "title": "整租·通用国际 1室1厅 北",
    "community": "通用国际",
    "area": "48.60",
    "rooms": "1室1厅",
    "direction": "北",
    "floor": "",
    "price": "2200",
    "tags": "",
    "source": "",
    "url": "https://sh.lianjia.com/zufang/SH2121936026753564672.html",
    "rent_type": "整租",
    "location": "嘉定-南翔-通用国际",
    "scraped_at": "2026-04-23 17:15:33",
    "region": "nanxiang",
    "unit_price": 45.3,
    "lat": 31.2814,
    "lng": 121.3173
  },
  {
    "title": "独栋·环球文创园公寓 南翔店 新店开业特惠 年租折扣大 近地铁 开间",
    "community": "环球文创园公寓 南翔店 新店开业特惠 年租折扣大 近地铁 开间",
    "area": "25.00",
    "rooms": "",
    "direction": "",
    "floor": "",
    "price": "2100",
    "tags": "",
    "source": "",
    "url": "https://sh.lianjia.com/apartment/107202.html",
    "rent_type": "独栋",
    "location": "",
    "scraped_at": "2026-04-23 17:15:33",
    "region": "nanxiang",
    "unit_price": 84.0,
    "lat": 31.122604,
    "lng": 121.348526
  },
  {
    "title": "整租·解放街132号 1室1厅 西",
    "community": "解放街132号",
    "area": "37.00",
    "rooms": "1室1厅",
    "direction": "西",
    "floor": "",
    "price": "2700",
    "tags": "",
    "source": "",
    "url": "https://sh.lianjia.com/zufang/SH1858182563038756864.html",
    "rent_type": "整租",
    "location": "嘉定-南翔-解放街",
    "scraped_at": "2026-04-23 17:15:36",
    "region": "nanxiang",
    "unit_price": 73.0,
    "lat": 31.28989,
    "lng": 121.308787
  },
  {
    "title": "整租·绿地清猗园(威廉公馆二期) 3室2厅 南/北",
    "community": "绿地清猗园(威廉公馆二期)",
    "area": "128.50",
    "rooms": "3室2厅",
    "direction": "南/北",
    "floor": "",
    "price": "8400",
    "tags": "",
    "source": "",
    "url": "https://sh.lianjia.com/zufang/SH1950825041499258880.html",
    "rent_type": "整租",
    "location": "嘉定-南翔-绿地清猗园(威廉公馆二期)",
    "scraped_at": "2026-04-23 17:17:17",
    "region": "nanxiang",
    "unit_price": 65.4,
    "lat": 31.296426,
    "lng": 121.316649
  },
  {
    "title": "整租·翔和雅苑1437弄 2室1厅 南",
    "community": "翔和雅苑1437弄",
    "area": "70.98",
    "rooms": "2室1厅",
    "direction": "南",
    "floor": "",
    "price": "3938",
    "tags": "",
    "source": "",
    "url": "https://sh.lianjia.com/zufang/SH1956669213326180352.html",
    "rent_type": "整租",
    "location": "嘉定-南翔-翔和雅苑",
    "scraped_at": "2026-04-23 17:17:17",
    "region": "nanxiang",
    "unit_price": 55.5,
    "lat": 31.312561,
    "lng": 121.298185
  },
  {
    "title": "独栋·城嘉公寓 南翔店 大一居外景房/全景采光/智能门锁/超大公区/民用水电 开间",
    "community": "城嘉公寓 南翔店 大一居外景房/全景采光/智能门锁/超大公区/民用水电 开间",
    "area": "35.00",
    "rooms": "",
    "direction": "",
    "floor": "",
    "price": "2880",
    "tags": "",
    "source": "",
    "url": "https://sh.lianjia.com/apartment/91493.html",
    "rent_type": "独栋",
    "location": "",
    "scraped_at": "2026-04-23 17:15:48",
    "region": "nanxiang",
    "unit_price": 82.3,
    "lat": 31.269312,
    "lng": 121.476301
  },
  {
    "title": "整租·同济融景雅苑 2室1厅 南",
    "community": "同济融景雅苑",
    "area": "86.81",
    "rooms": "2室1厅",
    "direction": "南",
    "floor": "",
    "price": "4800",
    "tags": "",
    "source": "",
    "url": "https://sh.lianjia.com/zufang/SH2153753606816268288.html",
    "rent_type": "整租",
    "location": "嘉定-南翔-同济融景雅苑",
    "scraped_at": "2026-04-23 17:15:33",
    "region": "nanxiang",
    "unit_price": 55.3,
    "lat": 31.284801,
    "lng": 121.318544
  },
  {
    "title": "整租·华润中央公园三期(浩翔路505弄) 3室2厅 南",
    "community": "华润中央公园三期(浩翔路505弄)",
    "area": "105.91",
    "rooms": "3室2厅",
    "direction": "南",
    "floor": "",
    "price": "7500",
    "tags": "",
    "source": "",
    "url": "https://sh.lianjia.com/zufang/SH2153869291785551872.html",
    "rent_type": "整租",
    "location": "嘉定-南翔-华润中央公园三期(浩翔路",
    "scraped_at": "2026-04-23 17:15:33",
    "region": "nanxiang",
    "unit_price": 70.8,
    "lat": 31.309016,
    "lng": 121.309958
  },
  {
    "title": "整租·好世凤翔苑 2室2厅 南/北",
    "community": "好世凤翔苑",
    "area": "89.00",
    "rooms": "2室2厅",
    "direction": "南/北",
    "floor": "",
    "price": "5600",
    "tags": "",
    "source": "",
    "url": "https://sh.lianjia.com/zufang/SH2138701230656978944.html",
    "rent_type": "整租",
    "location": "嘉定-南翔-好世凤翔苑",
    "scraped_at": "2026-04-23 17:15:36",
    "region": "nanxiang",
    "unit_price": 62.9,
    "lat": 31.284922,
    "lng": 121.323044
  },
  {
    "title": "整租·瑞和云庭 2室1厅 南",
    "community": "瑞和云庭",
    "area": "77.19",
    "rooms": "2室1厅",
    "direction": "南",
    "floor": "",
    "price": "3308",
    "tags": "",
    "source": "",
    "url": "https://sh.lianjia.com/zufang/SH2031361939640156160.html",
    "rent_type": "整租",
    "location": "嘉定-南翔-瑞和云庭",
    "scraped_at": "2026-04-23 17:17:17",
    "region": "nanxiang",
    "unit_price": 42.9,
    "lat": 31.306736,
    "lng": 121.268202
  },
  {
    "title": "独栋·pois 南翔店 复式朝南 开间",
    "community": "pois 南翔店 复式朝南 开间",
    "area": "13.00",
    "rooms": "",
    "direction": "",
    "floor": "",
    "price": "999",
    "tags": "",
    "source": "",
    "url": "https://sh.lianjia.com/apartment/1637.html",
    "rent_type": "独栋",
    "location": "",
    "scraped_at": "2026-04-23 17:15:36",
    "region": "nanxiang",
    "unit_price": 76.8,
    "lat": 31.185541,
    "lng": 121.575426
  },
  {
    "title": "整租·格林公馆 3室1厅 南",
    "community": "格林公馆",
    "area": "88.31",
    "rooms": "3室1厅",
    "direction": "南",
    "floor": "",
    "price": "5880",
    "tags": "",
    "source": "",
    "url": "https://sh.lianjia.com/zufang/SH2156697292487262208.html",
    "rent_type": "整租",
    "location": "嘉定-南翔-格林公馆",
    "scraped_at": "2026-04-23 17:17:17",
    "region": "nanxiang",
    "unit_price": 66.6,
    "lat": 31.307041,
    "lng": 121.310855
  },
  {
    "title": "整租·瑞和云庭 2室1厅 南",
    "community": "瑞和云庭",
    "area": "71.19",
    "rooms": "2室1厅",
    "direction": "南",
    "floor": "",
    "price": "3990",
    "tags": "",
    "source": "",
    "url": "https://sh.lianjia.com/zufang/SH2157494772627931136.html",
    "rent_type": "整租",
    "location": "嘉定-南翔-瑞和云庭",
    "scraped_at": "2026-04-23 17:15:36",
    "region": "nanxiang",
    "unit_price": 56.0,
    "lat": 31.306736,
    "lng": 121.268202
  },
  {
    "title": "整租·南华小区 2室1厅 南",
    "community": "南华小区",
    "area": "51.00",
    "rooms": "2室1厅",
    "direction": "南",
    "floor": "",
    "price": "2625",
    "tags": "",
    "source": "",
    "url": "https://sh.lianjia.com/zufang/SH2031371596697960448.html",
    "rent_type": "整租",
    "location": "嘉定-南翔-南华小区",
    "scraped_at": "2026-04-23 17:17:17",
    "region": "nanxiang",
    "unit_price": 51.5,
    "lat": 31.287858,
    "lng": 121.308333
  },
  {
    "title": "整租·城市公馆(栖林路302弄) 2室2厅 南",
    "community": "城市公馆(栖林路302弄)",
    "area": "85.00",
    "rooms": "2室2厅",
    "direction": "南",
    "floor": "",
    "price": "4600",
    "tags": "",
    "source": "",
    "url": "https://sh.lianjia.com/zufang/SH2141012583920959488.html",
    "rent_type": "整租",
    "location": "嘉定-南翔-城市公馆(栖林路",
    "scraped_at": "2026-04-23 17:15:36",
    "region": "nanxiang",
    "unit_price": 54.1,
    "lat": 31.309103,
    "lng": 121.318506
  },
  {
    "title": "整租·新城公馆(宝翔路191弄) 1室1厅 南",
    "community": "新城公馆(宝翔路191弄)",
    "area": "45.00",
    "rooms": "1室1厅",
    "direction": "南",
    "floor": "",
    "price": "3360",
    "tags": "",
    "source": "",
    "url": "https://sh.lianjia.com/zufang/SH2002631784000389120.html",
    "rent_type": "整租",
    "location": "嘉定-南翔-新城公馆(宝翔路",
    "scraped_at": "2026-04-23 17:16:53",
    "region": "nanxiang",
    "unit_price": 74.7,
    "lat": 31.304255,
    "lng": 121.322284
  },
  {
    "title": "整租·融信海纳印象 3室1厅 南",
    "community": "融信海纳印象",
    "area": "90.95",
    "rooms": "3室1厅",
    "direction": "南",
    "floor": "",
    "price": "6590",
    "tags": "",
    "source": "",
    "url": "https://sh.lianjia.com/zufang/SH1846621437960388608.html",
    "rent_type": "整租",
    "location": "嘉定-南翔-融信海纳印象",
    "scraped_at": "2026-04-23 17:15:36",
    "region": "nanxiang",
    "unit_price": 72.5,
    "lat": 31.301545,
    "lng": 121.307738
  },
  {
    "title": "整租·中建溪岸澜庭 3室1厅 南",
    "community": "中建溪岸澜庭",
    "area": "88.00",
    "rooms": "3室1厅",
    "direction": "南",
    "floor": "",
    "price": "5880",
    "tags": "",
    "source": "",
    "url": "https://sh.lianjia.com/zufang/SH2049829827405414400.html",
    "rent_type": "整租",
    "location": "嘉定-南翔-中建溪岸澜庭",
    "scraped_at": "2026-04-23 17:17:17",
    "region": "nanxiang",
    "unit_price": 66.8,
    "lat": 31.30809,
    "lng": 121.300497
  },
  {
    "title": "独栋·柚米 上海南翔地铁站柚米寓 近南翔地铁站，大边套，多窗采光，宠物友好 1室1厅",
    "community": "柚米 上海南翔地铁站柚米寓 近南翔地铁站，大边套，多窗采光，宠物友好",
    "area": "37.00",
    "rooms": "1室1厅",
    "direction": "",
    "floor": "",
    "price": "2742",
    "tags": "",
    "source": "",
    "url": "https://sh.lianjia.com/apartment/17459.html",
    "rent_type": "独栋",
    "location": "",
    "scraped_at": "2026-04-23 17:15:36",
    "region": "nanxiang",
    "unit_price": 74.1,
    "lat": 31.103277,
    "lng": 121.500961
  },
  {
    "title": "整租·华润中央公园一期(南)(芳礼路99弄)(公寓) 3室1厅 南",
    "community": "华润中央公园一期(南)(芳礼路99弄)(公寓)",
    "area": "176.03",
    "rooms": "3室1厅",
    "direction": "南",
    "floor": "",
    "price": "9500",
    "tags": "",
    "source": "",
    "url": "https://sh.lianjia.com/zufang/SH2149790186056187904.html",
    "rent_type": "整租",
    "location": "嘉定-南翔-华润中央公园一期(南)(芳礼路",
    "scraped_at": "2026-04-23 17:15:36",
    "region": "nanxiang",
    "unit_price": 54.0,
    "lat": 31.310396,
    "lng": 121.31362
  },
  {
    "title": "整租·德华一村 2室1厅 南",
    "community": "德华一村",
    "area": "63.09",
    "rooms": "2室1厅",
    "direction": "南",
    "floor": "",
    "price": "4300",
    "tags": "",
    "source": "",
    "url": "https://sh.lianjia.com/zufang/SH2137881541315919872.html",
    "rent_type": "整租",
    "location": "嘉定-南翔-德华一村",
    "scraped_at": "2026-04-23 17:15:36",
    "region": "nanxiang",
    "unit_price": 68.2,
    "lat": 31.375566,
    "lng": 121.265276
  },
  {
    "title": "整租·格林公馆 2室1厅 南",
    "community": "格林公馆",
    "area": "69.02",
    "rooms": "2室1厅",
    "direction": "南",
    "floor": "",
    "price": "5202",
    "tags": "",
    "source": "",
    "url": "https://sh.lianjia.com/zufang/SH1745669780481769472.html",
    "rent_type": "整租",
    "location": "嘉定-南翔-格林公馆",
    "scraped_at": "2026-04-23 17:17:17",
    "region": "nanxiang",
    "unit_price": 75.4,
    "lat": 31.307041,
    "lng": 121.310855
  },
  {
    "title": "整租·南华小区 1室1厅 南/北",
    "community": "南华小区",
    "area": "45.00",
    "rooms": "1室1厅",
    "direction": "南/北",
    "floor": "",
    "price": "2699",
    "tags": "",
    "source": "",
    "url": "https://sh.lianjia.com/zufang/SH2033181164524535808.html",
    "rent_type": "整租",
    "location": "嘉定-南翔-南华小区",
    "scraped_at": "2026-04-23 17:17:17",
    "region": "nanxiang",
    "unit_price": 60.0,
    "lat": 31.287858,
    "lng": 121.308333
  },
  {
    "title": "整租·世盟壹天地 1室1厅 南",
    "community": "世盟壹天地",
    "area": "35.85",
    "rooms": "1室1厅",
    "direction": "南",
    "floor": "",
    "price": "2730",
    "tags": "",
    "source": "",
    "url": "https://sh.lianjia.com/zufang/SH1911058140934176768.html",
    "rent_type": "整租",
    "location": "嘉定-南翔-世盟壹天地",
    "scraped_at": "2026-04-23 17:17:17",
    "region": "nanxiang",
    "unit_price": 76.2,
    "lat": 31.290998,
    "lng": 121.320443
  },
  {
    "title": "整租·翔和雅苑 1室1厅 南",
    "community": "翔和雅苑",
    "area": "54.23",
    "rooms": "1室1厅",
    "direction": "南",
    "floor": "",
    "price": "3465",
    "tags": "",
    "source": "",
    "url": "https://sh.lianjia.com/zufang/SH2156675555087351808.html",
    "rent_type": "整租",
    "location": "嘉定-南翔-翔和雅苑",
    "scraped_at": "2026-04-23 17:17:17",
    "region": "nanxiang",
    "unit_price": 63.9,
    "lat": 31.312561,
    "lng": 121.298185
  },
  {
    "title": "整租·华润中央公园三期(浩翔路505弄) 2室1厅 南",
    "community": "华润中央公园三期(浩翔路505弄)",
    "area": "84.00",
    "rooms": "2室1厅",
    "direction": "南",
    "floor": "",
    "price": "5300",
    "tags": "",
    "source": "",
    "url": "https://sh.lianjia.com/zufang/SH2151226798648590336.html",
    "rent_type": "整租",
    "location": "嘉定-南翔-华润中央公园三期(浩翔路",
    "scraped_at": "2026-04-23 17:15:36",
    "region": "nanxiang",
    "unit_price": 63.1,
    "lat": 31.309016,
    "lng": 121.309958
  },
  {
    "title": "整租·连飞虹湖天地 2室1厅 南",
    "community": "连飞虹湖天地",
    "area": "75.00",
    "rooms": "2室1厅",
    "direction": "南",
    "floor": "",
    "price": "4300",
    "tags": "",
    "source": "",
    "url": "https://sh.lianjia.com/zufang/SH2151264160975945728.html",
    "rent_type": "整租",
    "location": "嘉定-南翔-连飞虹湖天地",
    "scraped_at": "2026-04-23 17:15:36",
    "region": "nanxiang",
    "unit_price": 57.3,
    "lat": 31.279855,
    "lng": 121.32486
  },
  {
    "title": "整租·世盟壹天地 1室1厅 南",
    "community": "世盟壹天地",
    "area": "36.00",
    "rooms": "1室1厅",
    "direction": "南",
    "floor": "",
    "price": "2800",
    "tags": "",
    "source": "",
    "url": "https://sh.lianjia.com/zufang/SH2152033572460953600.html",
    "rent_type": "整租",
    "location": "嘉定-南翔-世盟壹天地",
    "scraped_at": "2026-04-23 17:15:36",
    "region": "nanxiang",
    "unit_price": 77.8,
    "lat": 31.290998,
    "lng": 121.320443
  },
  {
    "title": "整租·金地格林世界格林公馆(酒店式公寓) 1室2厅 西南",
    "community": "金地格林世界格林公馆(酒店式公寓)",
    "area": "60.97",
    "rooms": "1室2厅",
    "direction": "西南",
    "floor": "",
    "price": "3700",
    "tags": "",
    "source": "",
    "url": "https://sh.lianjia.com/zufang/SH2119267339135352832.html",
    "rent_type": "整租",
    "location": "嘉定-南翔-金地格林世界格林公馆(酒店式公寓)",
    "scraped_at": "2026-04-23 17:15:36",
    "region": "nanxiang",
    "unit_price": 60.7,
    "lat": 31.271259,
    "lng": 121.303587
  },
  {
    "title": "整租·湖畔天下三期 3室2厅 南",
    "community": "湖畔天下三期",
    "area": "118.00",
    "rooms": "3室2厅",
    "direction": "南",
    "floor": "",
    "price": "6500",
    "tags": "",
    "source": "",
    "url": "https://sh.lianjia.com/zufang/SH2153042793239412736.html",
    "rent_type": "整租",
    "location": "嘉定-南翔-湖畔天下三期",
    "scraped_at": "2026-04-23 17:15:39",
    "region": "nanxiang",
    "unit_price": 55.1,
    "lat": 31.31389,
    "lng": 121.306661
  },
  {
    "title": "整租·翔和雅苑1437弄 2室1厅 南",
    "community": "翔和雅苑1437弄",
    "area": "69.32",
    "rooms": "2室1厅",
    "direction": "南",
    "floor": "",
    "price": "5200",
    "tags": "",
    "source": "",
    "url": "https://sh.lianjia.com/zufang/SH2153752137320890368.html",
    "rent_type": "整租",
    "location": "嘉定-南翔-翔和雅苑",
    "scraped_at": "2026-04-23 17:15:39",
    "region": "nanxiang",
    "unit_price": 75.0,
    "lat": 31.312561,
    "lng": 121.298185
  },
  {
    "title": "整租·世盟壹天地 2室1厅 西北",
    "community": "世盟壹天地",
    "area": "73.00",
    "rooms": "2室1厅",
    "direction": "西北",
    "floor": "",
    "price": "4600",
    "tags": "",
    "source": "",
    "url": "https://sh.lianjia.com/zufang/SH2155886470311706624.html",
    "rent_type": "整租",
    "location": "嘉定-南翔-世盟壹天地",
    "scraped_at": "2026-04-23 17:15:39",
    "region": "nanxiang",
    "unit_price": 63.0,
    "lat": 31.290998,
    "lng": 121.320443
  },
  {
    "title": "整租·旭辉U天地(商业类) 2室1厅 东",
    "community": "旭辉U天地(商业类)",
    "area": "48.52",
    "rooms": "2室1厅",
    "direction": "东",
    "floor": "",
    "price": "3000",
    "tags": "",
    "source": "",
    "url": "https://sh.lianjia.com/zufang/SH2148640401098014720.html",
    "rent_type": "整租",
    "location": "嘉定-南翔-旭辉",
    "scraped_at": "2026-04-23 17:15:39",
    "region": "nanxiang",
    "unit_price": 61.8,
    "lat": 31.222507,
    "lng": 121.380971
  },
  {
    "title": "整租·德华一村 2室1厅 南",
    "community": "德华一村",
    "area": "68.26",
    "rooms": "2室1厅",
    "direction": "南",
    "floor": "",
    "price": "3900",
    "tags": "",
    "source": "",
    "url": "https://sh.lianjia.com/zufang/SH2155615366770851840.html",
    "rent_type": "整租",
    "location": "嘉定-南翔-德华一村",
    "scraped_at": "2026-04-23 17:15:39",
    "region": "nanxiang",
    "unit_price": 57.1,
    "lat": 31.375566,
    "lng": 121.265276
  },
  {
    "title": "整租·绿洲古猗新苑 2室2厅 南/北",
    "community": "绿洲古猗新苑",
    "area": "105.47",
    "rooms": "2室2厅",
    "direction": "南/北",
    "floor": "",
    "price": "5800",
    "tags": "",
    "source": "",
    "url": "https://sh.lianjia.com/zufang/SH2152635744332546048.html",
    "rent_type": "整租",
    "location": "嘉定-南翔-绿洲古猗新苑",
    "scraped_at": "2026-04-23 17:15:39",
    "region": "nanxiang",
    "unit_price": 55.0,
    "lat": 31.287375,
    "lng": 121.314878
  },
  {
    "title": "整租·宏立瑞园 2室1厅 南",
    "community": "宏立瑞园",
    "area": "58.60",
    "rooms": "2室1厅",
    "direction": "南",
    "floor": "",
    "price": "4000",
    "tags": "",
    "source": "",
    "url": "https://sh.lianjia.com/zufang/SH2150799218095161344.html",
    "rent_type": "整租",
    "location": "嘉定-南翔-宏立瑞园",
    "scraped_at": "2026-04-23 17:15:39",
    "region": "nanxiang",
    "unit_price": 68.3,
    "lat": 31.309592,
    "lng": 121.323312
  },
  {
    "title": "整租·翔和雅苑 3室1厅 南",
    "community": "翔和雅苑",
    "area": "86.00",
    "rooms": "3室1厅",
    "direction": "南",
    "floor": "",
    "price": "5200",
    "tags": "",
    "source": "",
    "url": "https://sh.lianjia.com/zufang/SH2153106743826055168.html",
    "rent_type": "整租",
    "location": "嘉定-南翔-翔和雅苑",
    "scraped_at": "2026-04-23 17:15:39",
    "region": "nanxiang",
    "unit_price": 60.5,
    "lat": 31.312561,
    "lng": 121.298185
  },
  {
    "title": "整租·旭辉U天地(商业类) 1室1厅 东",
    "community": "旭辉U天地(商业类)",
    "area": "48.00",
    "rooms": "1室1厅",
    "direction": "东",
    "floor": "",
    "price": "2900",
    "tags": "",
    "source": "",
    "url": "https://sh.lianjia.com/zufang/SH2153813603646439424.html",
    "rent_type": "整租",
    "location": "嘉定-南翔-旭辉",
    "scraped_at": "2026-04-23 17:15:39",
    "region": "nanxiang",
    "unit_price": 60.4,
    "lat": 31.222507,
    "lng": 121.380971
  },
  {
    "title": "整租·同济融景雅苑 3室2厅 南",
    "community": "同济融景雅苑",
    "area": "115.00",
    "rooms": "3室2厅",
    "direction": "南",
    "floor": "",
    "price": "7500",
    "tags": "",
    "source": "",
    "url": "https://sh.lianjia.com/zufang/SH2155983391114133504.html",
    "rent_type": "整租",
    "location": "嘉定-南翔-同济融景雅苑",
    "scraped_at": "2026-04-23 17:15:39",
    "region": "nanxiang",
    "unit_price": 65.2,
    "lat": 31.284801,
    "lng": 121.318544
  },
  {
    "title": "整租·骏丰嘉峰汇 2室1厅 西",
    "community": "骏丰嘉峰汇",
    "area": "63.00",
    "rooms": "2室1厅",
    "direction": "西",
    "floor": "",
    "price": "3700",
    "tags": "",
    "source": "",
    "url": "https://sh.lianjia.com/zufang/SH2153046883310764032.html",
    "rent_type": "整租",
    "location": "嘉定-南翔-骏丰嘉峰汇",
    "scraped_at": "2026-04-23 17:15:39",
    "region": "nanxiang",
    "unit_price": 58.7,
    "lat": 31.289413,
    "lng": 121.319414
  },
  {
    "title": "整租·中建溪岸澜庭 3室1厅 南",
    "community": "中建溪岸澜庭",
    "area": "130.00",
    "rooms": "3室1厅",
    "direction": "南",
    "floor": "",
    "price": "8800",
    "tags": "",
    "source": "",
    "url": "https://sh.lianjia.com/zufang/SH2153074051835232256.html",
    "rent_type": "整租",
    "location": "嘉定-南翔-中建溪岸澜庭",
    "scraped_at": "2026-04-23 17:15:39",
    "region": "nanxiang",
    "unit_price": 67.7,
    "lat": 31.30809,
    "lng": 121.300497
  },
  {
    "title": "整租·新翔家园 2室1厅 南",
    "community": "新翔家园",
    "area": "69.00",
    "rooms": "2室1厅",
    "direction": "南",
    "floor": "",
    "price": "4800",
    "tags": "",
    "source": "",
    "url": "https://sh.lianjia.com/zufang/SH2154805606395936768.html",
    "rent_type": "整租",
    "location": "嘉定-南翔-新翔家园",
    "scraped_at": "2026-04-23 17:15:56",
    "region": "nanxiang",
    "unit_price": 69.6,
    "lat": 31.289675,
    "lng": 121.320245
  },
  {
    "title": "整租·中冶祥腾城市广场 2室1厅 南",
    "community": "中冶祥腾城市广场",
    "area": "110.00",
    "rooms": "2室1厅",
    "direction": "南",
    "floor": "",
    "price": "5500",
    "tags": "",
    "source": "",
    "url": "https://sh.lianjia.com/zufang/SH2153339597793263616.html",
    "rent_type": "整租",
    "location": "嘉定-南翔-中冶祥腾城市广场",
    "scraped_at": "2026-04-23 17:15:39",
    "region": "nanxiang",
    "unit_price": 50.0,
    "lat": 31.29602,
    "lng": 121.323229
  },
  {
    "title": "整租·季景铭郡 2室1厅 南",
    "community": "季景铭郡",
    "area": "81.24",
    "rooms": "2室1厅",
    "direction": "南",
    "floor": "",
    "price": "5200",
    "tags": "",
    "source": "",
    "url": "https://sh.lianjia.com/zufang/SH2153020445928980480.html",
    "rent_type": "整租",
    "location": "嘉定-南翔-季景铭郡",
    "scraped_at": "2026-04-23 17:15:39",
    "region": "nanxiang",
    "unit_price": 64.0,
    "lat": 31.282999,
    "lng": 121.319742
  },
  {
    "title": "整租·格林公馆 3室2厅 南",
    "community": "格林公馆",
    "area": "89.00",
    "rooms": "3室2厅",
    "direction": "南",
    "floor": "",
    "price": "6700",
    "tags": "",
    "source": "",
    "url": "https://sh.lianjia.com/zufang/SH2154879568702341120.html",
    "rent_type": "整租",
    "location": "嘉定-南翔-格林公馆",
    "scraped_at": "2026-04-23 17:15:56",
    "region": "nanxiang",
    "unit_price": 75.3,
    "lat": 31.307041,
    "lng": 121.310855
  },
  {
    "title": "整租·南华小区 1室1厅 南",
    "community": "南华小区",
    "area": "39.41",
    "rooms": "1室1厅",
    "direction": "南",
    "floor": "",
    "price": "2800",
    "tags": "",
    "source": "",
    "url": "https://sh.lianjia.com/zufang/SH2154128200454635520.html",
    "rent_type": "整租",
    "location": "嘉定-南翔-南华小区",
    "scraped_at": "2026-04-23 17:15:39",
    "region": "nanxiang",
    "unit_price": 71.0,
    "lat": 31.287858,
    "lng": 121.308333
  },
  {
    "title": "整租·季景铭郡 2室2厅 南/北",
    "community": "季景铭郡",
    "area": "84.13",
    "rooms": "2室2厅",
    "direction": "南/北",
    "floor": "",
    "price": "5800",
    "tags": "",
    "source": "",
    "url": "https://sh.lianjia.com/zufang/SH2150980164601774080.html",
    "rent_type": "整租",
    "location": "嘉定-南翔-季景铭郡",
    "scraped_at": "2026-04-23 17:15:39",
    "region": "nanxiang",
    "unit_price": 68.9,
    "lat": 31.282999,
    "lng": 121.319742
  },
  {
    "title": "整租·骏丰嘉峰汇 1室1厅 南",
    "community": "骏丰嘉峰汇",
    "area": "60.00",
    "rooms": "1室1厅",
    "direction": "南",
    "floor": "",
    "price": "3400",
    "tags": "",
    "source": "",
    "url": "https://sh.lianjia.com/zufang/SH2152983231023022080.html",
    "rent_type": "整租",
    "location": "嘉定-南翔-骏丰嘉峰汇",
    "scraped_at": "2026-04-23 17:15:39",
    "region": "nanxiang",
    "unit_price": 56.7,
    "lat": 31.289413,
    "lng": 121.319414
  },
  {
    "title": "整租·昱翔佳苑 1室1厅 南",
    "community": "昱翔佳苑",
    "area": "56.42",
    "rooms": "1室1厅",
    "direction": "南",
    "floor": "",
    "price": "4100",
    "tags": "",
    "source": "",
    "url": "https://sh.lianjia.com/zufang/SH2153100767743967232.html",
    "rent_type": "整租",
    "location": "嘉定-南翔-昱翔佳苑",
    "scraped_at": "2026-04-23 17:15:39",
    "region": "nanxiang",
    "unit_price": 72.7,
    "lat": 31.281312,
    "lng": 121.317204
  },
  {
    "title": "整租·好世凤翔苑 3室1厅 南",
    "community": "好世凤翔苑",
    "area": "118.00",
    "rooms": "3室1厅",
    "direction": "南",
    "floor": "",
    "price": "9500",
    "tags": "",
    "source": "",
    "url": "https://sh.lianjia.com/zufang/SH2154203717572755456.html",
    "rent_type": "整租",
    "location": "嘉定-南翔-好世凤翔苑",
    "scraped_at": "2026-04-23 17:15:39",
    "region": "nanxiang",
    "unit_price": 80.5,
    "lat": 31.284922,
    "lng": 121.323044
  },
  {
    "title": "整租·泰翔嘉苑 2室1厅 南",
    "community": "泰翔嘉苑",
    "area": "70.00",
    "rooms": "2室1厅",
    "direction": "南",
    "floor": "",
    "price": "3600",
    "tags": "",
    "source": "",
    "url": "https://sh.lianjia.com/zufang/SH2155482756371447808.html",
    "rent_type": "整租",
    "location": "嘉定-南翔-泰翔嘉苑",
    "scraped_at": "2026-04-23 17:15:39",
    "region": "nanxiang",
    "unit_price": 51.4,
    "lat": 31.285862,
    "lng": 121.312433
  },
  {
    "title": "整租·好世凤翔苑 3室2厅 南/北",
    "community": "好世凤翔苑",
    "area": "152.24",
    "rooms": "3室2厅",
    "direction": "南/北",
    "floor": "",
    "price": "11000",
    "tags": "",
    "source": "",
    "url": "https://sh.lianjia.com/zufang/SH2154169417016016896.html",
    "rent_type": "整租",
    "location": "嘉定-南翔-好世凤翔苑",
    "scraped_at": "2026-04-23 17:15:39",
    "region": "nanxiang",
    "unit_price": 72.3,
    "lat": 31.284922,
    "lng": 121.323044
  },
  {
    "title": "整租·柏悦翔湾 3室2厅 南",
    "community": "柏悦翔湾",
    "area": "94.26",
    "rooms": "3室2厅",
    "direction": "南",
    "floor": "",
    "price": "6500",
    "tags": "",
    "source": "",
    "url": "https://sh.lianjia.com/zufang/SH2152977860954947584.html",
    "rent_type": "整租",
    "location": "嘉定-南翔-柏悦翔湾",
    "scraped_at": "2026-04-23 17:15:39",
    "region": "nanxiang",
    "unit_price": 69.0,
    "lat": 31.216596,
    "lng": 121.295713
  },
  {
    "title": "整租·宏立瑞园 2室1厅 南",
    "community": "宏立瑞园",
    "area": "59.80",
    "rooms": "2室1厅",
    "direction": "南",
    "floor": "",
    "price": "3200",
    "tags": "",
    "source": "",
    "url": "https://sh.lianjia.com/zufang/SH2155852827736408064.html",
    "rent_type": "整租",
    "location": "嘉定-南翔-宏立瑞园",
    "scraped_at": "2026-04-23 17:15:39",
    "region": "nanxiang",
    "unit_price": 53.5,
    "lat": 31.309592,
    "lng": 121.323312
  },
  {
    "title": "整租·森林公馆(468弄) 1室2厅 南",
    "community": "森林公馆(468弄)",
    "area": "69.00",
    "rooms": "1室2厅",
    "direction": "南",
    "floor": "",
    "price": "4500",
    "tags": "",
    "source": "",
    "url": "https://sh.lianjia.com/zufang/SH2155990825253732352.html",
    "rent_type": "整租",
    "location": "嘉定-南翔-森林公馆(",
    "scraped_at": "2026-04-23 17:15:56",
    "region": "nanxiang",
    "unit_price": 65.2,
    "lat": 31.310047,
    "lng": 121.317869
  },
  {
    "title": "整租·漪园新村 3室2厅 南",
    "community": "漪园新村",
    "area": "123.00",
    "rooms": "3室2厅",
    "direction": "南",
    "floor": "",
    "price": "4500",
    "tags": "",
    "source": "",
    "url": "https://sh.lianjia.com/zufang/SH2153114680166449152.html",
    "rent_type": "整租",
    "location": "嘉定-南翔-漪园新村",
    "scraped_at": "2026-04-23 17:15:39",
    "region": "nanxiang",
    "unit_price": 36.6,
    "lat": 31.284265,
    "lng": 121.308196
  },
  {
    "title": "整租·德华路67号 3室2厅 南",
    "community": "德华路67号",
    "area": "96.00",
    "rooms": "3室2厅",
    "direction": "南",
    "floor": "",
    "price": "4500",
    "tags": "",
    "source": "",
    "url": "https://sh.lianjia.com/zufang/SH2154187401868607488.html",
    "rent_type": "整租",
    "location": "嘉定-南翔-德华路",
    "scraped_at": "2026-04-23 17:15:39",
    "region": "nanxiang",
    "unit_price": 46.9,
    "lat": 31.375566,
    "lng": 121.265276
  },
  {
    "title": "整租·宏立瑞园 3室1厅 南",
    "community": "宏立瑞园",
    "area": "85.00",
    "rooms": "3室1厅",
    "direction": "南",
    "floor": "",
    "price": "4000",
    "tags": "",
    "source": "",
    "url": "https://sh.lianjia.com/zufang/SH2155163006974033920.html",
    "rent_type": "整租",
    "location": "嘉定-南翔-宏立瑞园",
    "scraped_at": "2026-04-23 17:15:39",
    "region": "nanxiang",
    "unit_price": 47.1,
    "lat": 31.309592,
    "lng": 121.323312
  },
  {
    "title": "整租·骏丰嘉峰汇 2室1厅 南",
    "community": "骏丰嘉峰汇",
    "area": "69.00",
    "rooms": "2室1厅",
    "direction": "南",
    "floor": "",
    "price": "4500",
    "tags": "",
    "source": "",
    "url": "https://sh.lianjia.com/zufang/SH2155656594010931200.html",
    "rent_type": "整租",
    "location": "嘉定-南翔-骏丰嘉峰汇",
    "scraped_at": "2026-04-23 17:15:39",
    "region": "nanxiang",
    "unit_price": 65.2,
    "lat": 31.289413,
    "lng": 121.319414
  },
  {
    "title": "整租·南华小区 2室1厅 南",
    "community": "南华小区",
    "area": "46.10",
    "rooms": "2室1厅",
    "direction": "南",
    "floor": "",
    "price": "2900",
    "tags": "",
    "source": "",
    "url": "https://sh.lianjia.com/zufang/SH2150911413323825152.html",
    "rent_type": "整租",
    "location": "嘉定-南翔-南华小区",
    "scraped_at": "2026-04-23 17:15:42",
    "region": "nanxiang",
    "unit_price": 62.9,
    "lat": 31.287858,
    "lng": 121.308333
  },
  {
    "title": "整租·中冶翔腾 2室1厅 南",
    "community": "中冶翔腾",
    "area": "68.83",
    "rooms": "2室1厅",
    "direction": "南",
    "floor": "",
    "price": "5600",
    "tags": "",
    "source": "",
    "url": "https://sh.lianjia.com/zufang/SH2154426801714102272.html",
    "rent_type": "整租",
    "location": "嘉定-南翔-中冶翔腾",
    "scraped_at": "2026-04-23 17:15:42",
    "region": "nanxiang",
    "unit_price": 81.4,
    "lat": 31.296215,
    "lng": 121.321942
  },
  {
    "title": "整租·翔和雅苑 2室1厅 南",
    "community": "翔和雅苑",
    "area": "69.36",
    "rooms": "2室1厅",
    "direction": "南",
    "floor": "",
    "price": "3200",
    "tags": "",
    "source": "",
    "url": "https://sh.lianjia.com/zufang/SH2148729679786278912.html",
    "rent_type": "整租",
    "location": "嘉定-南翔-翔和雅苑",
    "scraped_at": "2026-04-23 17:15:42",
    "region": "nanxiang",
    "unit_price": 46.1,
    "lat": 31.312561,
    "lng": 121.298185
  },
  {
    "title": "整租·柏悦翔湾 4室2厅 南",
    "community": "柏悦翔湾",
    "area": "120.00",
    "rooms": "4室2厅",
    "direction": "南",
    "floor": "",
    "price": "7500",
    "tags": "",
    "source": "",
    "url": "https://sh.lianjia.com/zufang/SH2155548703379685376.html",
    "rent_type": "整租",
    "location": "嘉定-南翔-柏悦翔湾",
    "scraped_at": "2026-04-23 17:15:42",
    "region": "nanxiang",
    "unit_price": 62.5,
    "lat": 31.216596,
    "lng": 121.295713
  },
  {
    "title": "整租·骏丰嘉骊花园 3室1厅 南",
    "community": "骏丰嘉骊花园",
    "area": "92.00",
    "rooms": "3室1厅",
    "direction": "南",
    "floor": "",
    "price": "5500",
    "tags": "",
    "source": "",
    "url": "https://sh.lianjia.com/zufang/SH2156657190109184000.html",
    "rent_type": "整租",
    "location": "嘉定-南翔-骏丰嘉骊花园",
    "scraped_at": "2026-04-23 17:15:56",
    "region": "nanxiang",
    "unit_price": 59.8,
    "lat": 31.288377,
    "lng": 121.318919
  },
  {
    "title": "整租·中冶翔腾 2室1厅 南",
    "community": "中冶翔腾",
    "area": "85.00",
    "rooms": "2室1厅",
    "direction": "南",
    "floor": "",
    "price": "5000",
    "tags": "",
    "source": "",
    "url": "https://sh.lianjia.com/zufang/SH2149761780644052992.html",
    "rent_type": "整租",
    "location": "嘉定-南翔-中冶翔腾",
    "scraped_at": "2026-04-23 17:15:45",
    "region": "nanxiang",
    "unit_price": 58.8,
    "lat": 31.296215,
    "lng": 121.321942
  },
  {
    "title": "整租·中童巴比尼 2室2厅 南/北",
    "community": "中童巴比尼",
    "area": "76.00",
    "rooms": "2室2厅",
    "direction": "南/北",
    "floor": "",
    "price": "3800",
    "tags": "",
    "source": "",
    "url": "https://sh.lianjia.com/zufang/SH2151889904747937792.html",
    "rent_type": "整租",
    "location": "嘉定-南翔-中童巴比尼",
    "scraped_at": "2026-04-23 17:15:45",
    "region": "nanxiang",
    "unit_price": 50.0,
    "lat": 31.304576,
    "lng": 121.329585
  },
  {
    "title": "整租·德华路555号 1室1厅 南",
    "community": "德华路555号",
    "area": "40.00",
    "rooms": "1室1厅",
    "direction": "南",
    "floor": "",
    "price": "3200",
    "tags": "",
    "source": "",
    "url": "https://sh.lianjia.com/zufang/SH2153428697468633088.html",
    "rent_type": "整租",
    "location": "嘉定-南翔-德华路",
    "scraped_at": "2026-04-23 17:15:42",
    "region": "nanxiang",
    "unit_price": 80.0,
    "lat": 31.375566,
    "lng": 121.265276
  },
  {
    "title": "整租·宏立瑞园 2室2厅 南",
    "community": "宏立瑞园",
    "area": "84.00",
    "rooms": "2室2厅",
    "direction": "南",
    "floor": "",
    "price": "4500",
    "tags": "",
    "source": "",
    "url": "https://sh.lianjia.com/zufang/SH2155494376342552576.html",
    "rent_type": "整租",
    "location": "嘉定-南翔-宏立瑞园",
    "scraped_at": "2026-04-23 17:15:42",
    "region": "nanxiang",
    "unit_price": 53.6,
    "lat": 31.309592,
    "lng": 121.323312
  },
  {
    "title": "整租·通用国际 1室1厅 北",
    "community": "通用国际",
    "area": "33.83",
    "rooms": "1室1厅",
    "direction": "北",
    "floor": "",
    "price": "2900",
    "tags": "",
    "source": "",
    "url": "https://sh.lianjia.com/zufang/SH1898355232677560320.html",
    "rent_type": "整租",
    "location": "嘉定-南翔-通用国际",
    "scraped_at": "2026-04-23 17:15:45",
    "region": "nanxiang",
    "unit_price": 85.7,
    "lat": 31.2814,
    "lng": 121.3173
  },
  {
    "title": "整租·中建溪岸澜庭 3室2厅 东南",
    "community": "中建溪岸澜庭",
    "area": "84.53",
    "rooms": "3室2厅",
    "direction": "东南",
    "floor": "",
    "price": "6500",
    "tags": "",
    "source": "",
    "url": "https://sh.lianjia.com/zufang/SH2155904187701919744.html",
    "rent_type": "整租",
    "location": "嘉定-南翔-中建溪岸澜庭",
    "scraped_at": "2026-04-23 17:15:42",
    "region": "nanxiang",
    "unit_price": 76.9,
    "lat": 31.30809,
    "lng": 121.300497
  },
  {
    "title": "整租·旭辉U天地(商业类) 2室1厅 南",
    "community": "旭辉U天地(商业类)",
    "area": "48.50",
    "rooms": "2室1厅",
    "direction": "南",
    "floor": "",
    "price": "3600",
    "tags": "",
    "source": "",
    "url": "https://sh.lianjia.com/zufang/SH2156692597752463360.html",
    "rent_type": "整租",
    "location": "嘉定-南翔-旭辉",
    "scraped_at": "2026-04-23 17:15:56",
    "region": "nanxiang",
    "unit_price": 74.2,
    "lat": 31.222507,
    "lng": 121.380971
  },
  {
    "title": "整租·华润中央公园三期(浩翔路505弄) 2室1厅 南",
    "community": "华润中央公园三期(浩翔路505弄)",
    "area": "86.18",
    "rooms": "2室1厅",
    "direction": "南",
    "floor": "",
    "price": "6800",
    "tags": "",
    "source": "",
    "url": "https://sh.lianjia.com/zufang/SH2153517812067336192.html",
    "rent_type": "整租",
    "location": "嘉定-南翔-华润中央公园三期(浩翔路",
    "scraped_at": "2026-04-23 17:15:42",
    "region": "nanxiang",
    "unit_price": 78.9,
    "lat": 31.309016,
    "lng": 121.309958
  },
  {
    "title": "整租·中冶祥腾城市广场 3室2厅 南/北",
    "community": "中冶祥腾城市广场",
    "area": "111.17",
    "rooms": "3室2厅",
    "direction": "南/北",
    "floor": "",
    "price": "8000",
    "tags": "",
    "source": "",
    "url": "https://sh.lianjia.com/zufang/SH2062178439997161472.html",
    "rent_type": "整租",
    "location": "嘉定-南翔-中冶祥腾城市广场",
    "scraped_at": "2026-04-23 17:15:51",
    "region": "nanxiang",
    "unit_price": 72.0,
    "lat": 31.29602,
    "lng": 121.323229
  },
  {
    "title": "整租·中建溪岸澜庭 3室2厅 南",
    "community": "中建溪岸澜庭",
    "area": "89.06",
    "rooms": "3室2厅",
    "direction": "南",
    "floor": "",
    "price": "6500",
    "tags": "",
    "source": "",
    "url": "https://sh.lianjia.com/zufang/SH2153653235850674176.html",
    "rent_type": "整租",
    "location": "嘉定-南翔-中建溪岸澜庭",
    "scraped_at": "2026-04-23 17:15:42",
    "region": "nanxiang",
    "unit_price": 73.0,
    "lat": 31.30809,
    "lng": 121.300497
  },
  {
    "title": "整租·中冶祥腾城市广场 4室2厅 南",
    "community": "中冶祥腾城市广场",
    "area": "100.00",
    "rooms": "4室2厅",
    "direction": "南",
    "floor": "",
    "price": "12000",
    "tags": "",
    "source": "",
    "url": "https://sh.lianjia.com/zufang/SH2154057765474009088.html",
    "rent_type": "整租",
    "location": "嘉定-南翔-中冶祥腾城市广场",
    "scraped_at": "2026-04-23 17:15:42",
    "region": "nanxiang",
    "unit_price": 120.0,
    "lat": 31.29602,
    "lng": 121.323229
  },
  {
    "title": "整租·星信名邸 3室1厅 南/北",
    "community": "星信名邸",
    "area": "89.00",
    "rooms": "3室1厅",
    "direction": "南/北",
    "floor": "",
    "price": "7000",
    "tags": "",
    "source": "",
    "url": "https://sh.lianjia.com/zufang/SH2154861249014267904.html",
    "rent_type": "整租",
    "location": "嘉定-南翔-星信名邸",
    "scraped_at": "2026-04-23 17:15:56",
    "region": "nanxiang",
    "unit_price": 78.7,
    "lat": 31.30396,
    "lng": 121.301829
  },
  {
    "title": "整租·南华小区 1室1厅 南",
    "community": "南华小区",
    "area": "39.56",
    "rooms": "1室1厅",
    "direction": "南",
    "floor": "",
    "price": "2600",
    "tags": "",
    "source": "",
    "url": "https://sh.lianjia.com/zufang/SH2153706109288841216.html",
    "rent_type": "整租",
    "location": "嘉定-南翔-南华小区",
    "scraped_at": "2026-04-23 17:15:42",
    "region": "nanxiang",
    "unit_price": 65.7,
    "lat": 31.287858,
    "lng": 121.308333
  },
  {
    "title": "整租·格林公馆 3室2厅 南",
    "community": "格林公馆",
    "area": "88.69",
    "rooms": "3室2厅",
    "direction": "南",
    "floor": "",
    "price": "6000",
    "tags": "",
    "source": "",
    "url": "https://sh.lianjia.com/zufang/SH2154790834585731072.html",
    "rent_type": "整租",
    "location": "嘉定-南翔-格林公馆",
    "scraped_at": "2026-04-23 17:15:56",
    "region": "nanxiang",
    "unit_price": 67.7,
    "lat": 31.307041,
    "lng": 121.310855
  },
  {
    "title": "整租·菁英尚都 1室1厅 南",
    "community": "菁英尚都",
    "area": "45.00",
    "rooms": "1室1厅",
    "direction": "南",
    "floor": "",
    "price": "3200",
    "tags": "",
    "source": "",
    "url": "https://sh.lianjia.com/zufang/SH2157023494632636416.html",
    "rent_type": "整租",
    "location": "嘉定-南翔-菁英尚都",
    "scraped_at": "2026-04-23 17:15:56",
    "region": "nanxiang",
    "unit_price": 71.1,
    "lat": 31.288026,
    "lng": 121.323433
  },
  {
    "title": "整租·海伦堡爱ME城市 1室1厅 南",
    "community": "海伦堡爱ME城市",
    "area": "60.00",
    "rooms": "1室1厅",
    "direction": "南",
    "floor": "",
    "price": "3500",
    "tags": "",
    "source": "",
    "url": "https://sh.lianjia.com/zufang/SH2153489345615495168.html",
    "rent_type": "整租",
    "location": "嘉定-南翔-海伦堡爱",
    "scraped_at": "2026-04-23 17:15:42",
    "region": "nanxiang",
    "unit_price": 58.3,
    "lat": 31.279251,
    "lng": 121.330958
  },
  {
    "title": "整租·金地格林世界(布鲁斯郡) 4室2厅 南",
    "community": "金地格林世界(布鲁斯郡)",
    "area": "227.11",
    "rooms": "4室2厅",
    "direction": "南",
    "floor": "",
    "price": "20000",
    "tags": "",
    "source": "",
    "url": "https://sh.lianjia.com/zufang/SH1943197336117182464.html",
    "rent_type": "整租",
    "location": "嘉定-南翔-金地格林世界(布鲁斯郡)",
    "scraped_at": "2026-04-23 17:15:45",
    "region": "nanxiang",
    "unit_price": 88.1,
    "lat": 31.304368,
    "lng": 121.314322
  },
  {
    "title": "整租·中冶祥腾城市广场 2室2厅 南",
    "community": "中冶祥腾城市广场",
    "area": "75.00",
    "rooms": "2室2厅",
    "direction": "南",
    "floor": "",
    "price": "6000",
    "tags": "",
    "source": "",
    "url": "https://sh.lianjia.com/zufang/SH1963540109450018816.html",
    "rent_type": "整租",
    "location": "嘉定-南翔-中冶祥腾城市广场",
    "scraped_at": "2026-04-23 17:15:45",
    "region": "nanxiang",
    "unit_price": 80.0,
    "lat": 31.29602,
    "lng": 121.323229
  },
  {
    "title": "整租·菁英尚都 2室1厅 南",
    "community": "菁英尚都",
    "area": "40.00",
    "rooms": "2室1厅",
    "direction": "南",
    "floor": "",
    "price": "3900",
    "tags": "",
    "source": "",
    "url": "https://sh.lianjia.com/zufang/SH2156325970183716864.html",
    "rent_type": "整租",
    "location": "嘉定-南翔-菁英尚都",
    "scraped_at": "2026-04-23 17:15:42",
    "region": "nanxiang",
    "unit_price": 97.5,
    "lat": 31.288026,
    "lng": 121.323433
  },
  {
    "title": "整租·华润中央公园四期(浩翔路98弄)(别墅) 4室2厅 复式 南/北",
    "community": "华润中央公园四期(浩翔路98弄)(别墅)",
    "area": "229.91",
    "rooms": "4室2厅",
    "direction": "",
    "floor": "",
    "price": "10000",
    "tags": "",
    "source": "",
    "url": "https://sh.lianjia.com/zufang/SH2055965170525536256.html",
    "rent_type": "整租",
    "location": "嘉定-南翔-华润中央公园四期(浩翔路",
    "scraped_at": "2026-04-23 17:15:51",
    "region": "nanxiang",
    "unit_price": 43.5,
    "lat": 31.314062,
    "lng": 121.312898
  },
  {
    "title": "整租·绿地清猗园(威廉公馆三期) 2室2厅 南",
    "community": "绿地清猗园(威廉公馆三期)",
    "area": "89.23",
    "rooms": "2室2厅",
    "direction": "南",
    "floor": "",
    "price": "5770",
    "tags": "",
    "source": "",
    "url": "https://sh.lianjia.com/zufang/SH2065642585833078784.html",
    "rent_type": "整租",
    "location": "嘉定-南翔-绿地清猗园(威廉公馆三期)",
    "scraped_at": "2026-04-23 17:15:51",
    "region": "nanxiang",
    "unit_price": 64.7,
    "lat": 31.296095,
    "lng": 121.317364
  },
  {
    "title": "整租·菁英尚都 2室2厅 南",
    "community": "菁英尚都",
    "area": "46.00",
    "rooms": "2室2厅",
    "direction": "南",
    "floor": "",
    "price": "4050",
    "tags": "",
    "source": "",
    "url": "https://sh.lianjia.com/zufang/SH2075464539737948160.html",
    "rent_type": "整租",
    "location": "嘉定-南翔-菁英尚都",
    "scraped_at": "2026-04-23 17:15:51",
    "region": "nanxiang",
    "unit_price": 88.0,
    "lat": 31.288026,
    "lng": 121.323433
  },
  {
    "title": "整租·翔和雅苑 1室1厅 东南",
    "community": "翔和雅苑",
    "area": "54.00",
    "rooms": "1室1厅",
    "direction": "东南",
    "floor": "",
    "price": "3200",
    "tags": "",
    "source": "",
    "url": "https://sh.lianjia.com/zufang/SH2150794978060664832.html",
    "rent_type": "整租",
    "location": "嘉定-南翔-翔和雅苑",
    "scraped_at": "2026-04-23 17:15:48",
    "region": "nanxiang",
    "unit_price": 59.3,
    "lat": 31.312561,
    "lng": 121.298185
  },
  {
    "title": "整租·瑞和云庭 2室1厅 南",
    "community": "瑞和云庭",
    "area": "71.00",
    "rooms": "2室1厅",
    "direction": "南",
    "floor": "",
    "price": "2600",
    "tags": "",
    "source": "",
    "url": "https://sh.lianjia.com/zufang/SH2138594559322488832.html",
    "rent_type": "整租",
    "location": "嘉定-南翔-瑞和云庭",
    "scraped_at": "2026-04-23 17:15:42",
    "region": "nanxiang",
    "unit_price": 36.6,
    "lat": 31.306736,
    "lng": 121.268202
  },
  {
    "title": "整租·季景铭郡 3室2厅 南",
    "community": "季景铭郡",
    "area": "118.00",
    "rooms": "3室2厅",
    "direction": "南",
    "floor": "",
    "price": "7800",
    "tags": "",
    "source": "",
    "url": "https://sh.lianjia.com/zufang/SH2152624206456553472.html",
    "rent_type": "整租",
    "location": "嘉定-南翔-季景铭郡",
    "scraped_at": "2026-04-23 17:15:45",
    "region": "nanxiang",
    "unit_price": 66.1,
    "lat": 31.282999,
    "lng": 121.319742
  },
  {
    "title": "整租·季景铭郡 3室2厅 南/北",
    "community": "季景铭郡",
    "area": "102.79",
    "rooms": "3室2厅",
    "direction": "南/北",
    "floor": "",
    "price": "8500",
    "tags": "",
    "source": "",
    "url": "https://sh.lianjia.com/zufang/SH2105627037350756352.html",
    "rent_type": "整租",
    "location": "嘉定-南翔-季景铭郡",
    "scraped_at": "2026-04-23 17:16:19",
    "region": "nanxiang",
    "unit_price": 82.7,
    "lat": 31.282999,
    "lng": 121.319742
  },
  {
    "title": "整租·德华路515号 1室1厅 东南",
    "community": "德华路515号",
    "area": "40.21",
    "rooms": "1室1厅",
    "direction": "东南",
    "floor": "",
    "price": "2600",
    "tags": "",
    "source": "",
    "url": "https://sh.lianjia.com/zufang/SH2089278690583117824.html",
    "rent_type": "整租",
    "location": "嘉定-南翔-德华路",
    "scraped_at": "2026-04-23 17:15:51",
    "region": "nanxiang",
    "unit_price": 64.7,
    "lat": 31.375566,
    "lng": 121.265276
  },
  {
    "title": "整租·泰翔嘉苑 2室1厅 南",
    "community": "泰翔嘉苑",
    "area": "65.01",
    "rooms": "2室1厅",
    "direction": "南",
    "floor": "",
    "price": "3800",
    "tags": "",
    "source": "",
    "url": "https://sh.lianjia.com/zufang/SH2148031298722070528.html",
    "rent_type": "整租",
    "location": "嘉定-南翔-泰翔嘉苑",
    "scraped_at": "2026-04-23 17:15:45",
    "region": "nanxiang",
    "unit_price": 58.5,
    "lat": 31.285862,
    "lng": 121.312433
  },
  {
    "title": "整租·祥源福邸 3室1厅 南",
    "community": "祥源福邸",
    "area": "85.00",
    "rooms": "3室1厅",
    "direction": "南",
    "floor": "",
    "price": "3300",
    "tags": "",
    "source": "",
    "url": "https://sh.lianjia.com/zufang/SH2146864365100335104.html",
    "rent_type": "整租",
    "location": "嘉定-南翔-祥源福邸",
    "scraped_at": "2026-04-23 17:15:45",
    "region": "nanxiang",
    "unit_price": 38.8,
    "lat": 31.286036,
    "lng": 121.321593
  },
  {
    "title": "整租·三湘森林海尚(嘉定) 4室2厅 南",
    "community": "三湘森林海尚(嘉定)",
    "area": "256.00",
    "rooms": "4室2厅",
    "direction": "南",
    "floor": "",
    "price": "9000",
    "tags": "",
    "source": "",
    "url": "https://sh.lianjia.com/zufang/SH2104817186928328704.html",
    "rent_type": "整租",
    "location": "嘉定-南翔-三湘森林海尚(嘉定)",
    "scraped_at": "2026-04-23 17:16:19",
    "region": "nanxiang",
    "unit_price": 35.2,
    "lat": 31.305251,
    "lng": 121.325365
  },
  {
    "title": "整租·三湘森林海尚(嘉定) 5室2厅 复式 南/北",
    "community": "三湘森林海尚(嘉定)",
    "area": "350.00",
    "rooms": "5室2厅",
    "direction": "",
    "floor": "",
    "price": "13000",
    "tags": "",
    "source": "",
    "url": "https://sh.lianjia.com/zufang/SH2121927994967588864.html",
    "rent_type": "整租",
    "location": "嘉定-南翔-三湘森林海尚(嘉定)",
    "scraped_at": "2026-04-23 17:15:45",
    "region": "nanxiang",
    "unit_price": 37.1,
    "lat": 31.305251,
    "lng": 121.325365
  },
  {
    "title": "整租·华润中央公园四期(浩翔路98弄)(公寓) 3室2厅 南",
    "community": "华润中央公园四期(浩翔路98弄)(公寓)",
    "area": "128.93",
    "rooms": "3室2厅",
    "direction": "南",
    "floor": "",
    "price": "11300",
    "tags": "",
    "source": "",
    "url": "https://sh.lianjia.com/zufang/SH2152259021778714624.html",
    "rent_type": "整租",
    "location": "嘉定-南翔-华润中央公园四期(浩翔路",
    "scraped_at": "2026-04-23 17:15:45",
    "region": "nanxiang",
    "unit_price": 87.6,
    "lat": 31.314062,
    "lng": 121.312898
  },
  {
    "title": "整租·中建溪岸澜庭 3室1厅 东南",
    "community": "中建溪岸澜庭",
    "area": "89.24",
    "rooms": "3室1厅",
    "direction": "东南",
    "floor": "",
    "price": "4800",
    "tags": "",
    "source": "",
    "url": "https://sh.lianjia.com/zufang/SH2001604588964151296.html",
    "rent_type": "整租",
    "location": "嘉定-南翔-中建溪岸澜庭",
    "scraped_at": "2026-04-23 17:15:45",
    "region": "nanxiang",
    "unit_price": 53.8,
    "lat": 31.30809,
    "lng": 121.300497
  },
  {
    "title": "整租·宏立瑞园 3室2厅 南/北",
    "community": "宏立瑞园",
    "area": "116.55",
    "rooms": "3室2厅",
    "direction": "南/北",
    "floor": "",
    "price": "4400",
    "tags": "",
    "source": "",
    "url": "https://sh.lianjia.com/zufang/SH2079473075543343104.html",
    "rent_type": "整租",
    "location": "嘉定-南翔-宏立瑞园",
    "scraped_at": "2026-04-23 17:15:51",
    "region": "nanxiang",
    "unit_price": 37.8,
    "lat": 31.309592,
    "lng": 121.323312
  },
  {
    "title": "整租·中建溪岸澜庭 3室2厅 南/北",
    "community": "中建溪岸澜庭",
    "area": "129.56",
    "rooms": "3室2厅",
    "direction": "南/北",
    "floor": "",
    "price": "5500",
    "tags": "",
    "source": "",
    "url": "https://sh.lianjia.com/zufang/SH2096460584726822912.html",
    "rent_type": "整租",
    "location": "嘉定-南翔-中建溪岸澜庭",
    "scraped_at": "2026-04-23 17:15:51",
    "region": "nanxiang",
    "unit_price": 42.5,
    "lat": 31.30809,
    "lng": 121.300497
  },
  {
    "title": "整租·中童巴比尼 3室2厅 南",
    "community": "中童巴比尼",
    "area": "75.00",
    "rooms": "3室2厅",
    "direction": "南",
    "floor": "",
    "price": "4000",
    "tags": "",
    "source": "",
    "url": "https://sh.lianjia.com/zufang/SH2140682104319508480.html",
    "rent_type": "整租",
    "location": "嘉定-南翔-中童巴比尼",
    "scraped_at": "2026-04-23 17:15:45",
    "region": "nanxiang",
    "unit_price": 53.3,
    "lat": 31.304576,
    "lng": 121.329585
  },
  {
    "title": "整租·上隽嘉苑 4室2厅 南/北",
    "community": "上隽嘉苑",
    "area": "191.00",
    "rooms": "4室2厅",
    "direction": "南/北",
    "floor": "",
    "price": "9000",
    "tags": "",
    "source": "",
    "url": "https://sh.lianjia.com/zufang/SH2140769987655106560.html",
    "rent_type": "整租",
    "location": "嘉定-南翔-上隽嘉苑",
    "scraped_at": "2026-04-23 17:15:45",
    "region": "nanxiang",
    "unit_price": 47.1,
    "lat": 31.315648,
    "lng": 121.317914
  },
  {
    "title": "整租·华润中央公园二期(陈翔公路1588弄) 3室2厅 南",
    "community": "华润中央公园二期(陈翔公路1588弄)",
    "area": "148.60",
    "rooms": "3室2厅",
    "direction": "南",
    "floor": "",
    "price": "12000",
    "tags": "",
    "source": "",
    "url": "https://sh.lianjia.com/zufang/SH2141771809035386880.html",
    "rent_type": "整租",
    "location": "嘉定-南翔-华润中央公园二期(陈翔公路",
    "scraped_at": "2026-04-23 17:16:19",
    "region": "nanxiang",
    "unit_price": 80.8,
    "lat": 31.311493,
    "lng": 121.316216
  },
  {
    "title": "整租·圣莫尼卡 2室2厅 南",
    "community": "圣莫尼卡",
    "area": "93.00",
    "rooms": "2室2厅",
    "direction": "南",
    "floor": "",
    "price": "5400",
    "tags": "",
    "source": "",
    "url": "https://sh.lianjia.com/zufang/SH2146497504026296320.html",
    "rent_type": "整租",
    "location": "嘉定-南翔-圣莫尼卡",
    "scraped_at": "2026-04-23 17:15:45",
    "region": "nanxiang",
    "unit_price": 58.1,
    "lat": 31.306851,
    "lng": 121.320019
  },
  {
    "title": "整租·祥源福邸 3室2厅 南",
    "community": "祥源福邸",
    "area": "129.78",
    "rooms": "3室2厅",
    "direction": "南",
    "floor": "",
    "price": "5000",
    "tags": "",
    "source": "",
    "url": "https://sh.lianjia.com/zufang/SH2146897866608607232.html",
    "rent_type": "整租",
    "location": "嘉定-南翔-祥源福邸",
    "scraped_at": "2026-04-23 17:15:45",
    "region": "nanxiang",
    "unit_price": 38.5,
    "lat": 31.286036,
    "lng": 121.321593
  },
  {
    "title": "整租·世盟壹天地 1室1厅 南",
    "community": "世盟壹天地",
    "area": "36.00",
    "rooms": "1室1厅",
    "direction": "南",
    "floor": "",
    "price": "2800",
    "tags": "",
    "source": "",
    "url": "https://sh.lianjia.com/zufang/SH2149760931700146176.html",
    "rent_type": "整租",
    "location": "嘉定-南翔-世盟壹天地",
    "scraped_at": "2026-04-23 17:15:45",
    "region": "nanxiang",
    "unit_price": 77.8,
    "lat": 31.290998,
    "lng": 121.320443
  },
  {
    "title": "整租·通用国际 1室1厅 北",
    "community": "通用国际",
    "area": "48.00",
    "rooms": "1室1厅",
    "direction": "北",
    "floor": "",
    "price": "2600",
    "tags": "",
    "source": "",
    "url": "https://sh.lianjia.com/zufang/SH2149483864567840768.html",
    "rent_type": "整租",
    "location": "嘉定-南翔-通用国际",
    "scraped_at": "2026-04-23 17:15:45",
    "region": "nanxiang",
    "unit_price": 54.2,
    "lat": 31.2814,
    "lng": 121.3173
  },
  {
    "title": "整租·海伦堡爱ME城市 1室1厅 南",
    "community": "海伦堡爱ME城市",
    "area": "48.00",
    "rooms": "1室1厅",
    "direction": "南",
    "floor": "",
    "price": "2900",
    "tags": "",
    "source": "",
    "url": "https://sh.lianjia.com/zufang/SH2150762426889404416.html",
    "rent_type": "整租",
    "location": "嘉定-南翔-海伦堡爱",
    "scraped_at": "2026-04-23 17:15:45",
    "region": "nanxiang",
    "unit_price": 60.4,
    "lat": 31.279251,
    "lng": 121.330958
  },
  {
    "title": "整租·翔华新村 2室1厅 南",
    "community": "翔华新村",
    "area": "70.00",
    "rooms": "2室1厅",
    "direction": "南",
    "floor": "",
    "price": "3200",
    "tags": "",
    "source": "",
    "url": "https://sh.lianjia.com/zufang/SH2151989231889678336.html",
    "rent_type": "整租",
    "location": "嘉定-南翔-翔华新村",
    "scraped_at": "2026-04-23 17:15:45",
    "region": "nanxiang",
    "unit_price": 45.7,
    "lat": 31.285561,
    "lng": 121.306274
  },
  {
    "title": "整租·瑞和云庭 3室1厅 南/北",
    "community": "瑞和云庭",
    "area": "88.00",
    "rooms": "3室1厅",
    "direction": "南/北",
    "floor": "",
    "price": "4500",
    "tags": "",
    "source": "",
    "url": "https://sh.lianjia.com/zufang/SH2152240756692090880.html",
    "rent_type": "整租",
    "location": "嘉定-南翔-瑞和云庭",
    "scraped_at": "2026-04-23 17:15:45",
    "region": "nanxiang",
    "unit_price": 51.1,
    "lat": 31.306736,
    "lng": 121.268202
  },
  {
    "title": "整租·世盟壹天地 1室1厅 东",
    "community": "世盟壹天地",
    "area": "29.55",
    "rooms": "1室1厅",
    "direction": "东",
    "floor": "",
    "price": "2730",
    "tags": "",
    "source": "",
    "url": "https://sh.lianjia.com/zufang/SH1906314907129741312.html",
    "rent_type": "整租",
    "location": "嘉定-南翔-世盟壹天地",
    "scraped_at": "2026-04-23 17:15:48",
    "region": "nanxiang",
    "unit_price": 92.4,
    "lat": 31.290998,
    "lng": 121.320443
  },
  {
    "title": "整租·宏立瑞园 1室1厅 南",
    "community": "宏立瑞园",
    "area": "59.68",
    "rooms": "1室1厅",
    "direction": "南",
    "floor": "",
    "price": "4060",
    "tags": "",
    "source": "",
    "url": "https://sh.lianjia.com/zufang/SH1843536108713934848.html",
    "rent_type": "整租",
    "location": "嘉定-南翔-宏立瑞园",
    "scraped_at": "2026-04-23 17:15:48",
    "region": "nanxiang",
    "unit_price": 68.0,
    "lat": 31.309592,
    "lng": 121.323312
  },
  {
    "title": "整租·新城公馆(宝翔路191弄) 1室1厅 南",
    "community": "新城公馆(宝翔路191弄)",
    "area": "59.58",
    "rooms": "1室1厅",
    "direction": "南",
    "floor": "",
    "price": "3730",
    "tags": "",
    "source": "",
    "url": "https://sh.lianjia.com/zufang/SH1832804608204865536.html",
    "rent_type": "整租",
    "location": "嘉定-南翔-新城公馆(宝翔路",
    "scraped_at": "2026-04-23 17:15:48",
    "region": "nanxiang",
    "unit_price": 62.6,
    "lat": 31.304255,
    "lng": 121.322284
  },
  {
    "title": "整租·翔和雅苑1437弄 1室1厅 南",
    "community": "翔和雅苑1437弄",
    "area": "54.75",
    "rooms": "1室1厅",
    "direction": "南",
    "floor": "",
    "price": "2600",
    "tags": "",
    "source": "",
    "url": "https://sh.lianjia.com/zufang/SH2150887517669294080.html",
    "rent_type": "整租",
    "location": "嘉定-南翔-翔和雅苑",
    "scraped_at": "2026-04-23 17:15:48",
    "region": "nanxiang",
    "unit_price": 47.5,
    "lat": 31.312561,
    "lng": 121.298185
  },
  {
    "title": "整租·云翔佳苑南区 1室2厅 南",
    "community": "云翔佳苑南区",
    "area": "61.22",
    "rooms": "1室2厅",
    "direction": "南",
    "floor": "",
    "price": "4300",
    "tags": "",
    "source": "",
    "url": "https://sh.lianjia.com/zufang/SH2114285775330738176.html",
    "rent_type": "整租",
    "location": "嘉定-南翔-云翔佳苑南区",
    "scraped_at": "2026-04-23 17:16:19",
    "region": "nanxiang",
    "unit_price": 70.2,
    "lat": 31.294628,
    "lng": 121.285634
  },
  {
    "title": "整租·骏丰嘉峰汇 3室1厅 东",
    "community": "骏丰嘉峰汇",
    "area": "80.00",
    "rooms": "3室1厅",
    "direction": "东",
    "floor": "",
    "price": "3800",
    "tags": "",
    "source": "",
    "url": "https://sh.lianjia.com/zufang/SH2116043983342796800.html",
    "rent_type": "整租",
    "location": "嘉定-南翔-骏丰嘉峰汇",
    "scraped_at": "2026-04-23 17:16:19",
    "region": "nanxiang",
    "unit_price": 47.5,
    "lat": 31.289413,
    "lng": 121.319414
  },
  {
    "title": "整租·上隽嘉苑 3室2厅 南",
    "community": "上隽嘉苑",
    "area": "145.95",
    "rooms": "3室2厅",
    "direction": "南",
    "floor": "",
    "price": "6900",
    "tags": "",
    "source": "",
    "url": "https://sh.lianjia.com/zufang/SH2117172647765737472.html",
    "rent_type": "整租",
    "location": "嘉定-南翔-上隽嘉苑",
    "scraped_at": "2026-04-23 17:16:19",
    "region": "nanxiang",
    "unit_price": 47.3,
    "lat": 31.315648,
    "lng": 121.317914
  },
  {
    "title": "整租·菁英尚都 2室1厅 东北",
    "community": "菁英尚都",
    "area": "41.72",
    "rooms": "2室1厅",
    "direction": "东北",
    "floor": "",
    "price": "3500",
    "tags": "",
    "source": "",
    "url": "https://sh.lianjia.com/zufang/SH2117540988237905920.html",
    "rent_type": "整租",
    "location": "嘉定-南翔-菁英尚都",
    "scraped_at": "2026-04-23 17:15:48",
    "region": "nanxiang",
    "unit_price": 83.9,
    "lat": 31.288026,
    "lng": 121.323433
  },
  {
    "title": "整租·海伦堡爱ME城市 1室1厅 南",
    "community": "海伦堡爱ME城市",
    "area": "60.00",
    "rooms": "1室1厅",
    "direction": "南",
    "floor": "",
    "price": "3200",
    "tags": "",
    "source": "",
    "url": "https://sh.lianjia.com/zufang/SH2119657982387027968.html",
    "rent_type": "整租",
    "location": "嘉定-南翔-海伦堡爱",
    "scraped_at": "2026-04-23 17:15:48",
    "region": "nanxiang",
    "unit_price": 53.3,
    "lat": 31.279251,
    "lng": 121.330958
  },
  {
    "title": "整租·世盟壹天地 1室1厅 南",
    "community": "世盟壹天地",
    "area": "36.00",
    "rooms": "1室1厅",
    "direction": "南",
    "floor": "",
    "price": "3100",
    "tags": "",
    "source": "",
    "url": "https://sh.lianjia.com/zufang/SH2120871998388174848.html",
    "rent_type": "整租",
    "location": "嘉定-南翔-世盟壹天地",
    "scraped_at": "2026-04-23 17:15:48",
    "region": "nanxiang",
    "unit_price": 86.1,
    "lat": 31.290998,
    "lng": 121.320443
  },
  {
    "title": "整租·三湘森林海尚(嘉定) 2室2厅 南",
    "community": "三湘森林海尚(嘉定)",
    "area": "88.43",
    "rooms": "2室2厅",
    "direction": "南",
    "floor": "",
    "price": "5300",
    "tags": "",
    "source": "",
    "url": "https://sh.lianjia.com/zufang/SH2120782519249928192.html",
    "rent_type": "整租",
    "location": "嘉定-南翔-三湘森林海尚(嘉定)",
    "scraped_at": "2026-04-23 17:15:48",
    "region": "nanxiang",
    "unit_price": 59.9,
    "lat": 31.305251,
    "lng": 121.325365
  },
  {
    "title": "整租·南翔秀城嘉孚雅苑 1室1厅 南",
    "community": "南翔秀城嘉孚雅苑",
    "area": "61.00",
    "rooms": "1室1厅",
    "direction": "南",
    "floor": "",
    "price": "3500",
    "tags": "",
    "source": "",
    "url": "https://sh.lianjia.com/zufang/SH2122187434031579136.html",
    "rent_type": "整租",
    "location": "嘉定-南翔-南翔秀城嘉孚雅苑",
    "scraped_at": "2026-04-23 17:15:48",
    "region": "nanxiang",
    "unit_price": 57.4,
    "lat": 31.30193,
    "lng": 121.270255
  },
  {
    "title": "整租·中建溪岸澜庭 4室1厅 南",
    "community": "中建溪岸澜庭",
    "area": "100.00",
    "rooms": "4室1厅",
    "direction": "南",
    "floor": "",
    "price": "6000",
    "tags": "",
    "source": "",
    "url": "https://sh.lianjia.com/zufang/SH2122678734833057792.html",
    "rent_type": "整租",
    "location": "嘉定-南翔-中建溪岸澜庭",
    "scraped_at": "2026-04-23 17:15:48",
    "region": "nanxiang",
    "unit_price": 60.0,
    "lat": 31.30809,
    "lng": 121.300497
  },
  {
    "title": "整租·华润中央公园二期(陈翔公路1588弄) 2室2厅 南",
    "community": "华润中央公园二期(陈翔公路1588弄)",
    "area": "81.07",
    "rooms": "2室2厅",
    "direction": "南",
    "floor": "",
    "price": "6600",
    "tags": "",
    "source": "",
    "url": "https://sh.lianjia.com/zufang/SH2124400906500833280.html",
    "rent_type": "整租",
    "location": "嘉定-南翔-华润中央公园二期(陈翔公路",
    "scraped_at": "2026-04-23 17:15:48",
    "region": "nanxiang",
    "unit_price": 81.4,
    "lat": 31.311493,
    "lng": 121.316216
  },
  {
    "title": "整租·新城公馆(宝翔路225弄) 4室2厅 南",
    "community": "新城公馆(宝翔路225弄)",
    "area": "168.00",
    "rooms": "4室2厅",
    "direction": "南",
    "floor": "",
    "price": "12600",
    "tags": "",
    "source": "",
    "url": "https://sh.lianjia.com/zufang/SH2125151735826612224.html",
    "rent_type": "整租",
    "location": "嘉定-南翔-新城公馆(宝翔路",
    "scraped_at": "2026-04-23 17:15:48",
    "region": "nanxiang",
    "unit_price": 75.0,
    "lat": 31.304255,
    "lng": 121.322284
  },
  {
    "title": "整租·万城银座 4室2厅 西南",
    "community": "万城银座",
    "area": "98.00",
    "rooms": "4室2厅",
    "direction": "西南",
    "floor": "",
    "price": "5200",
    "tags": "",
    "source": "",
    "url": "https://sh.lianjia.com/zufang/SH2126265430233317376.html",
    "rent_type": "整租",
    "location": "嘉定-南翔-万城银座",
    "scraped_at": "2026-04-23 17:15:48",
    "region": "nanxiang",
    "unit_price": 53.1,
    "lat": 31.283419,
    "lng": 121.328265
  },
  {
    "title": "整租·金地格林世界(白金果岭) 6室2厅 复式 南/北",
    "community": "金地格林世界(白金果岭)",
    "area": "332.58",
    "rooms": "6室2厅",
    "direction": "",
    "floor": "",
    "price": "11000",
    "tags": "",
    "source": "",
    "url": "https://sh.lianjia.com/zufang/SH2128147987782696960.html",
    "rent_type": "整租",
    "location": "嘉定-南翔-金地格林世界(白金果岭)",
    "scraped_at": "2026-04-23 17:15:48",
    "region": "nanxiang",
    "unit_price": 33.1,
    "lat": 31.307655,
    "lng": 121.315902
  },
  {
    "title": "整租·海伦堡·玖悦源筑 3室2厅 南",
    "community": "海伦堡·玖悦源筑",
    "area": "99.39",
    "rooms": "3室2厅",
    "direction": "南",
    "floor": "",
    "price": "4950",
    "tags": "",
    "source": "",
    "url": "https://sh.lianjia.com/zufang/SH2128008290825666560.html",
    "rent_type": "整租",
    "location": "嘉定-南翔-海伦堡",
    "scraped_at": "2026-04-23 17:15:48",
    "region": "nanxiang",
    "unit_price": 49.8,
    "lat": 31.322289,
    "lng": 121.259929
  },
  {
    "title": "整租·万城银座 2室1厅 南",
    "community": "万城银座",
    "area": "50.00",
    "rooms": "2室1厅",
    "direction": "南",
    "floor": "",
    "price": "3800",
    "tags": "",
    "source": "",
    "url": "https://sh.lianjia.com/zufang/SH2128823986702778368.html",
    "rent_type": "整租",
    "location": "嘉定-南翔-万城银座",
    "scraped_at": "2026-04-23 17:15:48",
    "region": "nanxiang",
    "unit_price": 76.0,
    "lat": 31.283419,
    "lng": 121.328265
  },
  {
    "title": "整租·中冶祥腾城市广场 2室1厅 南",
    "community": "中冶祥腾城市广场",
    "area": "50.00",
    "rooms": "2室1厅",
    "direction": "南",
    "floor": "",
    "price": "4600",
    "tags": "",
    "source": "",
    "url": "https://sh.lianjia.com/zufang/SH2129850680024760320.html",
    "rent_type": "整租",
    "location": "嘉定-南翔-中冶祥腾城市广场",
    "scraped_at": "2026-04-23 17:15:48",
    "region": "nanxiang",
    "unit_price": 92.0,
    "lat": 31.29602,
    "lng": 121.323229
  },
  {
    "title": "整租·金地格林世界白金院邸(公寓) 2室1厅 南",
    "community": "金地格林世界白金院邸(公寓)",
    "area": "87.43",
    "rooms": "2室1厅",
    "direction": "南",
    "floor": "",
    "price": "5200",
    "tags": "",
    "source": "",
    "url": "https://sh.lianjia.com/zufang/SH2133037732312645632.html",
    "rent_type": "整租",
    "location": "嘉定-南翔-金地格林世界白金院邸(公寓)",
    "scraped_at": "2026-04-23 17:15:48",
    "region": "nanxiang",
    "unit_price": 59.5,
    "lat": 31.305259,
    "lng": 121.312395
  },
  {
    "title": "整租·华润中央公园二期(陈翔公路1588弄) 2室2厅 南",
    "community": "华润中央公园二期(陈翔公路1588弄)",
    "area": "83.31",
    "rooms": "2室2厅",
    "direction": "南",
    "floor": "",
    "price": "6500",
    "tags": "",
    "source": "",
    "url": "https://sh.lianjia.com/zufang/SH2134206319807168512.html",
    "rent_type": "整租",
    "location": "嘉定-南翔-华润中央公园二期(陈翔公路",
    "scraped_at": "2026-04-23 17:15:48",
    "region": "nanxiang",
    "unit_price": 78.0,
    "lat": 31.311493,
    "lng": 121.316216
  },
  {
    "title": "整租·银翔新村 2室1厅 南",
    "community": "银翔新村",
    "area": "71.27",
    "rooms": "2室1厅",
    "direction": "南",
    "floor": "",
    "price": "4100",
    "tags": "",
    "source": "",
    "url": "https://sh.lianjia.com/zufang/SH2150568685108985856.html",
    "rent_type": "整租",
    "location": "嘉定-南翔-银翔新村",
    "scraped_at": "2026-04-23 17:15:51",
    "region": "nanxiang",
    "unit_price": 57.5,
    "lat": 31.287019,
    "lng": 121.316351
  },
  {
    "title": "整租·东海别墅 5室2厅 复式 东南",
    "community": "东海别墅",
    "area": "199.40",
    "rooms": "5室2厅",
    "direction": "",
    "floor": "",
    "price": "13500",
    "tags": "",
    "source": "",
    "url": "https://sh.lianjia.com/zufang/SH2077358076507193344.html",
    "rent_type": "整租",
    "location": "嘉定-南翔-东海别墅",
    "scraped_at": "2026-04-23 17:15:51",
    "region": "nanxiang",
    "unit_price": 67.7,
    "lat": 31.297761,
    "lng": 121.329554
  },
  {
    "title": "整租·昱翔佳苑 3室2厅 南",
    "community": "昱翔佳苑",
    "area": "124.11",
    "rooms": "3室2厅",
    "direction": "南",
    "floor": "",
    "price": "6500",
    "tags": "",
    "source": "",
    "url": "https://sh.lianjia.com/zufang/SH2079075711938723840.html",
    "rent_type": "整租",
    "location": "嘉定-南翔-昱翔佳苑",
    "scraped_at": "2026-04-23 17:15:51",
    "region": "nanxiang",
    "unit_price": 52.4,
    "lat": 31.281312,
    "lng": 121.317204
  },
  {
    "title": "整租·民东公寓 3室2厅 南",
    "community": "民东公寓",
    "area": "116.84",
    "rooms": "3室2厅",
    "direction": "南",
    "floor": "",
    "price": "5600",
    "tags": "",
    "source": "",
    "url": "https://sh.lianjia.com/zufang/SH2091091057017094144.html",
    "rent_type": "整租",
    "location": "嘉定-南翔-民东公寓",
    "scraped_at": "2026-04-23 17:15:51",
    "region": "nanxiang",
    "unit_price": 47.9,
    "lat": 31.293033,
    "lng": 121.315335
  },
  {
    "title": "整租·旭辉U天地(商业类) 2室2厅 南",
    "community": "旭辉U天地(商业类)",
    "area": "48.00",
    "rooms": "2室2厅",
    "direction": "南",
    "floor": "",
    "price": "3220",
    "tags": "",
    "source": "",
    "url": "https://sh.lianjia.com/zufang/SH2093625657908002816.html",
    "rent_type": "整租",
    "location": "嘉定-南翔-旭辉",
    "scraped_at": "2026-04-23 17:15:51",
    "region": "nanxiang",
    "unit_price": 67.1,
    "lat": 31.222507,
    "lng": 121.380971
  },
  {
    "title": "整租·智翔路8号 3室2厅 南",
    "community": "智翔路8号",
    "area": "54.27",
    "rooms": "3室2厅",
    "direction": "南",
    "floor": "",
    "price": "4500",
    "tags": "",
    "source": "",
    "url": "https://sh.lianjia.com/zufang/SH2095141346690990080.html",
    "rent_type": "整租",
    "location": "嘉定-南翔-智翔路",
    "scraped_at": "2026-04-23 17:15:51",
    "region": "nanxiang",
    "unit_price": 82.9,
    "lat": 31.31142,
    "lng": 121.313675
  },
  {
    "title": "整租·通用国际 3室1厅 南",
    "community": "通用国际",
    "area": "88.00",
    "rooms": "3室1厅",
    "direction": "南",
    "floor": "",
    "price": "5500",
    "tags": "",
    "source": "",
    "url": "https://sh.lianjia.com/zufang/SH2096183566097448960.html",
    "rent_type": "整租",
    "location": "嘉定-南翔-通用国际",
    "scraped_at": "2026-04-23 17:15:51",
    "region": "nanxiang",
    "unit_price": 62.5,
    "lat": 31.2814,
    "lng": 121.3173
  },
  {
    "title": "整租·嘉宝新园 3室2厅 东南",
    "community": "嘉宝新园",
    "area": "120.36",
    "rooms": "3室2厅",
    "direction": "东南",
    "floor": "",
    "price": "5000",
    "tags": "",
    "source": "",
    "url": "https://sh.lianjia.com/zufang/SH2096963680590626816.html",
    "rent_type": "整租",
    "location": "嘉定-南翔-嘉宝新园",
    "scraped_at": "2026-04-23 17:15:51",
    "region": "nanxiang",
    "unit_price": 41.5,
    "lat": 31.297698,
    "lng": 121.312477
  },
  {
    "title": "整租·智翔路8号 2室1厅 东",
    "community": "智翔路8号",
    "area": "52.63",
    "rooms": "2室1厅",
    "direction": "东",
    "floor": "",
    "price": "3900",
    "tags": "",
    "source": "",
    "url": "https://sh.lianjia.com/zufang/SH2097640775306182656.html",
    "rent_type": "整租",
    "location": "嘉定-南翔-智翔路",
    "scraped_at": "2026-04-23 17:15:51",
    "region": "nanxiang",
    "unit_price": 74.1,
    "lat": 31.31142,
    "lng": 121.313675
  },
  {
    "title": "整租·湖畔天下一期 3室2厅 南/北",
    "community": "湖畔天下一期",
    "area": "103.94",
    "rooms": "3室2厅",
    "direction": "南/北",
    "floor": "",
    "price": "6300",
    "tags": "",
    "source": "",
    "url": "https://sh.lianjia.com/zufang/SH2101156796809871360.html",
    "rent_type": "整租",
    "location": "嘉定-南翔-湖畔天下一期",
    "scraped_at": "2026-04-23 17:15:51",
    "region": "nanxiang",
    "unit_price": 60.6,
    "lat": 31.313037,
    "lng": 121.304572
  },
  {
    "title": "整租·融信海纳印象 3室2厅 南",
    "community": "融信海纳印象",
    "area": "104.54",
    "rooms": "3室2厅",
    "direction": "南",
    "floor": "",
    "price": "8200",
    "tags": "",
    "source": "",
    "url": "https://sh.lianjia.com/zufang/SH2101187727692136448.html",
    "rent_type": "整租",
    "location": "嘉定-南翔-融信海纳印象",
    "scraped_at": "2026-04-23 17:15:51",
    "region": "nanxiang",
    "unit_price": 78.4,
    "lat": 31.301545,
    "lng": 121.307738
  },
  {
    "title": "整租·路劲翡丽湾(公寓) 2室2厅 南",
    "community": "路劲翡丽湾(公寓)",
    "area": "91.93",
    "rooms": "2室2厅",
    "direction": "南",
    "floor": "",
    "price": "5000",
    "tags": "",
    "source": "",
    "url": "https://sh.lianjia.com/zufang/SH2103071161737805824.html",
    "rent_type": "整租",
    "location": "嘉定-南翔-路劲翡丽湾(公寓)",
    "scraped_at": "2026-04-23 17:16:19",
    "region": "nanxiang",
    "unit_price": 54.4,
    "lat": 31.315859,
    "lng": 121.319164
  },
  {
    "title": "整租·金地格林世界(卢尔公寓) 3室2厅 南",
    "community": "金地格林世界(卢尔公寓)",
    "area": "125.00",
    "rooms": "3室2厅",
    "direction": "南",
    "floor": "",
    "price": "8000",
    "tags": "",
    "source": "",
    "url": "https://sh.lianjia.com/zufang/SH2104410108657139712.html",
    "rent_type": "整租",
    "location": "嘉定-南翔-金地格林世界(卢尔公寓)",
    "scraped_at": "2026-04-23 17:16:19",
    "region": "nanxiang",
    "unit_price": 64.0,
    "lat": 31.300145,
    "lng": 121.322466
  },
  {
    "title": "整租·星信名邸 3室2厅 南",
    "community": "星信名邸",
    "area": "85.21",
    "rooms": "3室2厅",
    "direction": "南",
    "floor": "",
    "price": "7000",
    "tags": "",
    "source": "",
    "url": "https://sh.lianjia.com/zufang/SH2107049633791344640.html",
    "rent_type": "整租",
    "location": "嘉定-南翔-星信名邸",
    "scraped_at": "2026-04-23 17:16:19",
    "region": "nanxiang",
    "unit_price": 82.1,
    "lat": 31.30396,
    "lng": 121.301829
  },
  {
    "title": "整租·连飞虹湖天地 1室1厅 西南",
    "community": "连飞虹湖天地",
    "area": "155.34",
    "rooms": "1室1厅",
    "direction": "西南",
    "floor": "",
    "price": "4800",
    "tags": "",
    "source": "",
    "url": "https://sh.lianjia.com/zufang/SH2109941402640056320.html",
    "rent_type": "整租",
    "location": "嘉定-南翔-连飞虹湖天地",
    "scraped_at": "2026-04-23 17:15:51",
    "region": "nanxiang",
    "unit_price": 30.9,
    "lat": 31.279855,
    "lng": 121.32486
  },
  {
    "title": "整租·格林公馆 3室2厅 南",
    "community": "格林公馆",
    "area": "88.00",
    "rooms": "3室2厅",
    "direction": "南",
    "floor": "",
    "price": "6500",
    "tags": "",
    "source": "",
    "url": "https://sh.lianjia.com/zufang/SH2058398057724116992.html",
    "rent_type": "整租",
    "location": "嘉定-南翔-格林公馆",
    "scraped_at": "2026-04-23 17:15:51",
    "region": "nanxiang",
    "unit_price": 73.9,
    "lat": 31.307041,
    "lng": 121.310855
  },
  {
    "title": "整租·海伦堡爱ME城市 2室1厅 南",
    "community": "海伦堡爱ME城市",
    "area": "76.00",
    "rooms": "2室1厅",
    "direction": "南",
    "floor": "",
    "price": "4100",
    "tags": "",
    "source": "",
    "url": "https://sh.lianjia.com/zufang/SH2106002684355018752.html",
    "rent_type": "整租",
    "location": "嘉定-南翔-海伦堡爱",
    "scraped_at": "2026-04-23 17:15:51",
    "region": "nanxiang",
    "unit_price": 53.9,
    "lat": 31.279251,
    "lng": 121.330958
  },
  {
    "title": "整租·旭辉U天地(商业类) 1室1厅 南",
    "community": "旭辉U天地(商业类)",
    "area": "49.00",
    "rooms": "1室1厅",
    "direction": "南",
    "floor": "",
    "price": "3500",
    "tags": "",
    "source": "",
    "url": "https://sh.lianjia.com/zufang/SH2107475803905196032.html",
    "rent_type": "整租",
    "location": "嘉定-南翔-旭辉",
    "scraped_at": "2026-04-23 17:15:51",
    "region": "nanxiang",
    "unit_price": 71.4,
    "lat": 31.222507,
    "lng": 121.380971
  },
  {
    "title": "整租·华润中央公园三期(浩翔路505弄) 3室2厅 南/北",
    "community": "华润中央公园三期(浩翔路505弄)",
    "area": "106.68",
    "rooms": "3室2厅",
    "direction": "南/北",
    "floor": "",
    "price": "7200",
    "tags": "",
    "source": "",
    "url": "https://sh.lianjia.com/zufang/SH2105544339135397888.html",
    "rent_type": "整租",
    "location": "嘉定-南翔-华润中央公园三期(浩翔路",
    "scraped_at": "2026-04-23 17:15:51",
    "region": "nanxiang",
    "unit_price": 67.5,
    "lat": 31.309016,
    "lng": 121.309958
  },
  {
    "title": "整租·宏立瑞园 4室2厅 南/北",
    "community": "宏立瑞园",
    "area": "121.69",
    "rooms": "4室2厅",
    "direction": "南/北",
    "floor": "",
    "price": "5300",
    "tags": "",
    "source": "",
    "url": "https://sh.lianjia.com/zufang/SH2107787765922922496.html",
    "rent_type": "整租",
    "location": "嘉定-南翔-宏立瑞园",
    "scraped_at": "2026-04-23 17:15:51",
    "region": "nanxiang",
    "unit_price": 43.6,
    "lat": 31.309592,
    "lng": 121.323312
  },
  {
    "title": "整租·虹翔公寓 3室1厅 南/北",
    "community": "虹翔公寓",
    "area": "88.00",
    "rooms": "3室1厅",
    "direction": "南/北",
    "floor": "",
    "price": "3400",
    "tags": "",
    "source": "",
    "url": "https://sh.lianjia.com/zufang/SH2109526444416696320.html",
    "rent_type": "整租",
    "location": "嘉定-南翔-虹翔公寓",
    "scraped_at": "2026-04-23 17:15:51",
    "region": "nanxiang",
    "unit_price": 38.6,
    "lat": 31.298807,
    "lng": 121.305545
  },
  {
    "title": "整租·融信海纳印象 3室2厅 南",
    "community": "融信海纳印象",
    "area": "104.54",
    "rooms": "3室2厅",
    "direction": "南",
    "floor": "",
    "price": "7000",
    "tags": "",
    "source": "",
    "url": "https://sh.lianjia.com/zufang/SH2144474520663097344.html",
    "rent_type": "整租",
    "location": "嘉定-南翔-融信海纳印象",
    "scraped_at": "2026-04-23 17:15:56",
    "region": "nanxiang",
    "unit_price": 67.0,
    "lat": 31.301545,
    "lng": 121.307738
  },
  {
    "title": "整租·民东公寓 4室1厅 南",
    "community": "民东公寓",
    "area": "82.28",
    "rooms": "4室1厅",
    "direction": "南",
    "floor": "",
    "price": "4500",
    "tags": "",
    "source": "",
    "url": "https://sh.lianjia.com/zufang/SH2144653836373983232.html",
    "rent_type": "整租",
    "location": "嘉定-南翔-民东公寓",
    "scraped_at": "2026-04-23 17:15:56",
    "region": "nanxiang",
    "unit_price": 54.7,
    "lat": 31.293033,
    "lng": 121.315335
  },
  {
    "title": "整租·红翔新村 3室2厅 南",
    "community": "红翔新村",
    "area": "86.00",
    "rooms": "3室2厅",
    "direction": "南",
    "floor": "",
    "price": "5000",
    "tags": "",
    "source": "",
    "url": "https://sh.lianjia.com/zufang/SH2145130274927673344.html",
    "rent_type": "整租",
    "location": "嘉定-南翔-红翔新村",
    "scraped_at": "2026-04-23 17:15:56",
    "region": "nanxiang",
    "unit_price": 58.1,
    "lat": 31.287427,
    "lng": 121.303623
  },
  {
    "title": "整租·虹桥璀璨领峯 3室1厅 南",
    "community": "虹桥璀璨领峯",
    "area": "106.01",
    "rooms": "3室1厅",
    "direction": "南",
    "floor": "",
    "price": "6800",
    "tags": "",
    "source": "",
    "url": "https://sh.lianjia.com/zufang/SH2145251776759070720.html",
    "rent_type": "整租",
    "location": "嘉定-南翔-虹桥璀璨领峯",
    "scraped_at": "2026-04-23 17:15:56",
    "region": "nanxiang",
    "unit_price": 64.1,
    "lat": 31.340735,
    "lng": 121.171026
  },
  {
    "title": "整租·金地格林世界(卢尔公寓风情街) 3室2厅 南/北",
    "community": "金地格林世界(卢尔公寓风情街)",
    "area": "113.00",
    "rooms": "3室2厅",
    "direction": "南/北",
    "floor": "",
    "price": "7000",
    "tags": "",
    "source": "",
    "url": "https://sh.lianjia.com/zufang/SH2145427444755070976.html",
    "rent_type": "整租",
    "location": "嘉定-南翔-金地格林世界(卢尔公寓风情街)",
    "scraped_at": "2026-04-23 17:15:56",
    "region": "nanxiang",
    "unit_price": 61.9,
    "lat": 31.300922,
    "lng": 121.322276
  },
  {
    "title": "整租·世盟壹天地 2室1厅 南",
    "community": "世盟壹天地",
    "area": "68.00",
    "rooms": "2室1厅",
    "direction": "南",
    "floor": "",
    "price": "3800",
    "tags": "",
    "source": "",
    "url": "https://sh.lianjia.com/zufang/SH2145857010929762304.html",
    "rent_type": "整租",
    "location": "嘉定-南翔-世盟壹天地",
    "scraped_at": "2026-04-23 17:15:56",
    "region": "nanxiang",
    "unit_price": 55.9,
    "lat": 31.290998,
    "lng": 121.320443
  },
  {
    "title": "整租·绿地清猗园(威廉公馆二期) 4室1厅 南",
    "community": "绿地清猗园(威廉公馆二期)",
    "area": "130.00",
    "rooms": "4室1厅",
    "direction": "南",
    "floor": "",
    "price": "5800",
    "tags": "",
    "source": "",
    "url": "https://sh.lianjia.com/zufang/SH2146163209298509824.html",
    "rent_type": "整租",
    "location": "嘉定-南翔-绿地清猗园(威廉公馆二期)",
    "scraped_at": "2026-04-23 17:15:56",
    "region": "nanxiang",
    "unit_price": 44.6,
    "lat": 31.296426,
    "lng": 121.316649
  },
  {
    "title": "整租·中建溪岸澜庭 2室1厅 南",
    "community": "中建溪岸澜庭",
    "area": "75.50",
    "rooms": "2室1厅",
    "direction": "南",
    "floor": "",
    "price": "5200",
    "tags": "",
    "source": "",
    "url": "https://sh.lianjia.com/zufang/SH2155698269588553728.html",
    "rent_type": "整租",
    "location": "嘉定-南翔-中建溪岸澜庭",
    "scraped_at": "2026-04-23 17:15:56",
    "region": "nanxiang",
    "unit_price": 68.9,
    "lat": 31.30809,
    "lng": 121.300497
  },
  {
    "title": "整租·海伦堡爱ME城市 2室2厅 南",
    "community": "海伦堡爱ME城市",
    "area": "70.00",
    "rooms": "2室2厅",
    "direction": "南",
    "floor": "",
    "price": "3900",
    "tags": "",
    "source": "",
    "url": "https://sh.lianjia.com/zufang/SH2156027527909343232.html",
    "rent_type": "整租",
    "location": "嘉定-南翔-海伦堡爱",
    "scraped_at": "2026-04-23 17:15:56",
    "region": "nanxiang",
    "unit_price": 55.7,
    "lat": 31.279251,
    "lng": 121.330958
  },
  {
    "title": "整租·永翔佳苑（西区465弄） 2室2厅 南",
    "community": "永翔佳苑（西区465弄）",
    "area": "89.00",
    "rooms": "2室2厅",
    "direction": "南",
    "floor": "",
    "price": "5000",
    "tags": "",
    "source": "",
    "url": "https://sh.lianjia.com/zufang/SH2156005003737694208.html",
    "rent_type": "整租",
    "location": "嘉定-南翔-永翔佳苑",
    "scraped_at": "2026-04-23 17:15:56",
    "region": "nanxiang",
    "unit_price": 56.2,
    "lat": 31.291338,
    "lng": 121.329913
  },
  {
    "title": "整租·新华悦都 3室1厅 南",
    "community": "新华悦都",
    "area": "83.00",
    "rooms": "3室1厅",
    "direction": "南",
    "floor": "",
    "price": "5800",
    "tags": "",
    "source": "",
    "url": "https://sh.lianjia.com/zufang/SH2156038852064575488.html",
    "rent_type": "整租",
    "location": "嘉定-南翔-新华悦都",
    "scraped_at": "2026-04-23 17:15:56",
    "region": "nanxiang",
    "unit_price": 69.9,
    "lat": 31.281434,
    "lng": 121.331219
  },
  {
    "title": "整租·华润中央公园三期(浩翔路505弄) 2室2厅 南",
    "community": "华润中央公园三期(浩翔路505弄)",
    "area": "84.55",
    "rooms": "2室2厅",
    "direction": "南",
    "floor": "",
    "price": "6600",
    "tags": "",
    "source": "",
    "url": "https://sh.lianjia.com/zufang/SH2156015495105478656.html",
    "rent_type": "整租",
    "location": "嘉定-南翔-华润中央公园三期(浩翔路",
    "scraped_at": "2026-04-23 17:15:56",
    "region": "nanxiang",
    "unit_price": 78.1,
    "lat": 31.309016,
    "lng": 121.309958
  },
  {
    "title": "整租·同济融景雅苑 2室1厅 南",
    "community": "同济融景雅苑",
    "area": "81.52",
    "rooms": "2室1厅",
    "direction": "南",
    "floor": "",
    "price": "5500",
    "tags": "",
    "source": "",
    "url": "https://sh.lianjia.com/zufang/SH2156240478230544384.html",
    "rent_type": "整租",
    "location": "嘉定-南翔-同济融景雅苑",
    "scraped_at": "2026-04-23 17:15:56",
    "region": "nanxiang",
    "unit_price": 67.5,
    "lat": 31.284801,
    "lng": 121.318544
  },
  {
    "title": "整租·阳光苑三期 3室2厅 南/北",
    "community": "阳光苑三期",
    "area": "134.25",
    "rooms": "3室2厅",
    "direction": "南/北",
    "floor": "",
    "price": "4500",
    "tags": "",
    "source": "",
    "url": "https://sh.lianjia.com/zufang/SH2156608594475220992.html",
    "rent_type": "整租",
    "location": "嘉定-南翔-阳光苑三期",
    "scraped_at": "2026-04-23 17:15:56",
    "region": "nanxiang",
    "unit_price": 33.5,
    "lat": 31.317394,
    "lng": 121.321722
  },
  {
    "title": "整租·解放街41号 2室0厅 南",
    "community": "解放街41号",
    "area": "50.70",
    "rooms": "2室0厅",
    "direction": "南",
    "floor": "",
    "price": "3000",
    "tags": "",
    "source": "",
    "url": "https://sh.lianjia.com/zufang/SH2156662461493673984.html",
    "rent_type": "整租",
    "location": "嘉定-南翔-解放街",
    "scraped_at": "2026-04-23 17:15:56",
    "region": "nanxiang",
    "unit_price": 59.2,
    "lat": 31.28989,
    "lng": 121.308787
  },
  {
    "title": "整租·世盟壹天地 1室1厅 南",
    "community": "世盟壹天地",
    "area": "36.00",
    "rooms": "1室1厅",
    "direction": "南",
    "floor": "",
    "price": "2800",
    "tags": "",
    "source": "",
    "url": "https://sh.lianjia.com/zufang/SH2156973788166619136.html",
    "rent_type": "整租",
    "location": "嘉定-南翔-世盟壹天地",
    "scraped_at": "2026-04-23 17:15:56",
    "region": "nanxiang",
    "unit_price": 77.8,
    "lat": 31.290998,
    "lng": 121.320443
  },
  {
    "title": "整租·上隽嘉苑 2室2厅 南",
    "community": "上隽嘉苑",
    "area": "90.54",
    "rooms": "2室2厅",
    "direction": "南",
    "floor": "",
    "price": "5000",
    "tags": "",
    "source": "",
    "url": "https://sh.lianjia.com/zufang/SH2157074562884304896.html",
    "rent_type": "整租",
    "location": "嘉定-南翔-上隽嘉苑",
    "scraped_at": "2026-04-23 17:15:56",
    "region": "nanxiang",
    "unit_price": 55.2,
    "lat": 31.315648,
    "lng": 121.317914
  },
  {
    "title": "整租·泰翔嘉苑 3室2厅 南/北",
    "community": "泰翔嘉苑",
    "area": "121.00",
    "rooms": "3室2厅",
    "direction": "南/北",
    "floor": "",
    "price": "6500",
    "tags": "",
    "source": "",
    "url": "https://sh.lianjia.com/zufang/SH2157428354297364480.html",
    "rent_type": "整租",
    "location": "嘉定-南翔-泰翔嘉苑",
    "scraped_at": "2026-04-23 17:15:56",
    "region": "nanxiang",
    "unit_price": 53.7,
    "lat": 31.285862,
    "lng": 121.312433
  },
  {
    "title": "整租·通用国际 1室1厅 南",
    "community": "通用国际",
    "area": "53.00",
    "rooms": "1室1厅",
    "direction": "南",
    "floor": "",
    "price": "3600",
    "tags": "",
    "source": "",
    "url": "https://sh.lianjia.com/zufang/SH2157418359489036288.html",
    "rent_type": "整租",
    "location": "嘉定-南翔-通用国际",
    "scraped_at": "2026-04-23 17:15:56",
    "region": "nanxiang",
    "unit_price": 67.9,
    "lat": 31.2814,
    "lng": 121.3173
  },
  {
    "title": "整租·云翔佳苑北区 1室1厅 南",
    "community": "云翔佳苑北区",
    "area": "61.22",
    "rooms": "1室1厅",
    "direction": "南",
    "floor": "",
    "price": "3400",
    "tags": "",
    "source": "",
    "url": "https://sh.lianjia.com/zufang/SH2154907571427737600.html",
    "rent_type": "整租",
    "location": "嘉定-南翔-云翔佳苑北区",
    "scraped_at": "2026-04-23 17:15:56",
    "region": "nanxiang",
    "unit_price": 55.5,
    "lat": 31.296226,
    "lng": 121.283819
  },
  {
    "title": "整租·世盟壹天地 1室2厅 东",
    "community": "世盟壹天地",
    "area": "67.00",
    "rooms": "1室2厅",
    "direction": "东",
    "floor": "",
    "price": "4800",
    "tags": "",
    "source": "",
    "url": "https://sh.lianjia.com/zufang/SH2141216615692238848.html",
    "rent_type": "整租",
    "location": "嘉定-南翔-世盟壹天地",
    "scraped_at": "2026-04-23 17:16:19",
    "region": "nanxiang",
    "unit_price": 71.6,
    "lat": 31.290998,
    "lng": 121.320443
  },
  {
    "title": "整租·中冶祥腾城市广场 3室1厅 南",
    "community": "中冶祥腾城市广场",
    "area": "70.00",
    "rooms": "3室1厅",
    "direction": "南",
    "floor": "",
    "price": "4500",
    "tags": "",
    "source": "",
    "url": "https://sh.lianjia.com/zufang/SH2141485819167244288.html",
    "rent_type": "整租",
    "location": "嘉定-南翔-中冶祥腾城市广场",
    "scraped_at": "2026-04-23 17:16:19",
    "region": "nanxiang",
    "unit_price": 64.3,
    "lat": 31.29602,
    "lng": 121.323229
  },
  {
    "title": "整租·金地格林世界(圣琼斯湾) 4室2厅 南",
    "community": "金地格林世界(圣琼斯湾)",
    "area": "224.11",
    "rooms": "4室2厅",
    "direction": "南",
    "floor": "",
    "price": "18000",
    "tags": "",
    "source": "",
    "url": "https://sh.lianjia.com/zufang/SH2141540515500261376.html",
    "rent_type": "整租",
    "location": "嘉定-南翔-金地格林世界(圣琼斯湾)",
    "scraped_at": "2026-04-23 17:16:19",
    "region": "nanxiang",
    "unit_price": 80.3,
    "lat": 31.304754,
    "lng": 121.317927
  },