[
  {
    "title": "整租·南都天水苑 3室2厅 南",
    "community": "南都天水苑",
    "area": "119.18",
    "rooms": "3室2厅",
    "direction": "南",
    "floor": "",
    "price": "6300",
    "tags": "",
    "source": "",
    "url": "https://hz.lianjia.com/zufang/HZ2144790963686473728.html",
    "rent_type": "整租",
    "location": "拱墅区-天水-南都天水苑",
    "scraped_at": "2026-05-03 22:50:20",
    "region": "tianshui1",
    "unit_price": 52.9,
    "lat": 30.270379,
    "lng": 120.162114
  },
  {
    "title": "整租·西子大厦 1室1厅 南",
    "community": "西子大厦",
    "area": "47.21",
    "rooms": "1室1厅",
    "direction": "南",
    "floor": "",
    "price": "3100",
    "tags": "",
    "source": "",
    "url": "https://hz.lianjia.com/zufang/HZ2120856413541498880.html",
    "rent_type": "整租",
    "location": "拱墅区-天水-西子大厦",
    "scraped_at": "2026-05-03 22:50:20",
    "region": "tianshui1",
    "unit_price": 65.7,
    "lat": 30.27183,
    "lng": 120.163652
  },
  {
    "title": "整租·社坛苑 2室1厅 南",
    "community": "社坛苑",
    "area": "68.84",
    "rooms": "2室1厅",
    "direction": "南",
    "floor": "",
    "price": "3400",
    "tags": "",
    "source": "",
    "url": "https://hz.lianjia.com/zufang/HZ2013994860364693504.html",
    "rent_type": "整租",
    "location": "拱墅区-天水-社坛苑",
    "scraped_at": "2026-05-03 22:50:20",
    "region": "tianshui1",
    "unit_price": 49.4,
    "lat": 30.26842,
    "lng": 120.165326
  },
  {
    "title": "独栋·金地草莓社区 武林广场店 嘉里中心，凤起路旁公寓整租独卫 拎包入住 直租 1室1厅",
    "community": "金地草莓社区 武林广场店 嘉里中心，凤起路旁公寓整租独卫 拎包入住 直租",
    "area": "25.00",
    "rooms": "1室1厅",
    "direction": "",
    "floor": "",
    "price": "2650",
    "tags": "",
    "source": "",
    "url": "https://hz.lianjia.com/apartment/94751.html",
    "rent_type": "独栋",
    "location": "",
    "scraped_at": "2026-05-03 22:50:20",
    "region": "tianshui1",
    "unit_price": 106.0,
    "lat": 30.24612,
    "lng": 120.03334
  },
  {
    "title": "整租·九鼎名仕顿商务楼 1室0厅 东",
    "community": "九鼎名仕顿商务楼",
    "area": "48.72",
    "rooms": "1室0厅",
    "direction": "东",
    "floor": "",
    "price": "2500",
    "tags": "",
    "source": "",
    "url": "https://hz.lianjia.com/zufang/HZ2052609713874403328.html",
    "rent_type": "整租",
    "location": "拱墅区-天水-九鼎名仕顿商务楼",
    "scraped_at": "2026-05-03 22:50:20",
    "region": "tianshui1",
    "unit_price": 51.3,
    "lat": 30.269415,
    "lng": 120.164889
  },
  {
    "title": "合租·社坛苑 4居室 北卧",
    "community": "社坛苑 4居室 北卧",
    "area": "5.99",
    "rooms": "",
    "direction": "",
    "floor": "",
    "price": "1230",
    "tags": "",
    "source": "",
    "url": "https://hz.lianjia.com/zufang/HZ2154102493749968896.html",
    "rent_type": "合租",
    "location": "拱墅区-天水-社坛苑",
    "scraped_at": "2026-05-03 22:50:20",
    "region": "tianshui1",
    "unit_price": 205.3,
    "lat": 30.269066,
    "lng": 120.16553
  },
  {
    "title": "整租·胭脂新村 1室1厅 南",
    "community": "胭脂新村",
    "area": "54.14",
    "rooms": "1室1厅",
    "direction": "南",
    "floor": "",
    "price": "2800",
    "tags": "",
    "source": "",
    "url": "https://hz.lianjia.com/zufang/HZ2017580970621796352.html",
    "rent_type": "整租",
    "location": "拱墅区-天水-胭脂新村",
    "scraped_at": "2026-05-03 22:50:20",
    "region": "tianshui1",
    "unit_price": 51.7,
    "lat": 30.273523,
    "lng": 120.163931
  },
  {
    "title": "整租·皇亲苑 1室1厅 南",
    "community": "皇亲苑",
    "area": "39.00",
    "rooms": "1室1厅",
    "direction": "南",
    "floor": "",
    "price": "3300",
    "tags": "",
    "source": "",
    "url": "https://hz.lianjia.com/zufang/HZ2160346047065358336.html",
    "rent_type": "整租",
    "location": "拱墅区-天水-皇亲苑",
    "scraped_at": "2026-05-03 22:50:20",
    "region": "tianshui1",
    "unit_price": 84.6,
    "lat": 30.267756,
    "lng": 120.16094
  },
  {
    "title": "整租·西子大厦 1室0厅 北",
    "community": "西子大厦",
    "area": "47.21",
    "rooms": "1室0厅",
    "direction": "北",
    "floor": "",
    "price": "3020",
    "tags": "",
    "source": "",
    "url": "https://hz.lianjia.com/zufang/HZ2016305888339427328.html",
    "rent_type": "整租",
    "location": "拱墅区-天水-西子大厦",
    "scraped_at": "2026-05-03 22:50:20",
    "region": "tianshui1",
    "unit_price": 64.0,
    "lat": 30.27183,
    "lng": 120.163652
  },
  {
    "title": "合租·中山北路421号 3居室 西卧",
    "community": "中山北路421号 3居室 西卧",
    "area": "7.50",
    "rooms": "",
    "direction": "",
    "floor": "",
    "price": "1290",
    "tags": "",
    "source": "",
    "url": "https://hz.lianjia.com/zufang/HZ2017657647343337472.html",
    "rent_type": "合租",
    "location": "拱墅区-天水-中山北路",
    "scraped_at": "2026-05-03 22:50:20",
    "region": "tianshui1",
    "unit_price": 172.0,
    "lat": 30.27066,
    "lng": 120.16211
  },
  {
    "title": "整租·三华园 1室1厅 南/北",
    "community": "三华园",
    "area": "65.14",
    "rooms": "1室1厅",
    "direction": "南/北",
    "floor": "",
    "price": "3050",
    "tags": "",
    "source": "",
    "url": "https://hz.lianjia.com/zufang/HZ2083808336012115968.html",
    "rent_type": "整租",
    "location": "拱墅区-天水-三华园",
    "scraped_at": "2026-05-03 22:50:20",
    "region": "tianshui1",
    "unit_price": 46.8,
    "lat": 30.267356,
    "lng": 120.165399
  },
  {
    "title": "整租·百井人家 3室1厅 南",
    "community": "百井人家",
    "area": "110.00",
    "rooms": "3室1厅",
    "direction": "南",
    "floor": "",
    "price": "9300",
    "tags": "",
    "source": "",
    "url": "https://hz.lianjia.com/zufang/HZ2152360422991200256.html",
    "rent_type": "整租",
    "location": "拱墅区-天水-百井人家",
    "scraped_at": "2026-05-03 22:50:20",
    "region": "tianshui1",
    "unit_price": 84.5,
    "lat": 30.26894,
    "lng": 120.16196
  },
  {
    "title": "整租·九鼎名仕顿商务楼 1室1厅 北",
    "community": "九鼎名仕顿商务楼",
    "area": "47.76",
    "rooms": "1室1厅",
    "direction": "北",
    "floor": "",
    "price": "2700",
    "tags": "",
    "source": "",
    "url": "https://hz.lianjia.com/zufang/HZ2145019406986510336.html",
    "rent_type": "整租",
    "location": "拱墅区-天水-九鼎名仕顿商务楼",
    "scraped_at": "2026-05-03 22:50:20",
    "region": "tianshui1",
    "unit_price": 56.5,
    "lat": 30.269415,
    "lng": 120.164889
  },
  {
    "title": "合租·三华园 4居室 东卧",
    "community": "三华园 4居室 东卧",
    "area": "11.14",
    "rooms": "",
    "direction": "",
    "floor": "",
    "price": "1560",
    "tags": "",
    "source": "",
    "url": "https://hz.lianjia.com/zufang/HZ2157380566083698688.html",
    "rent_type": "合租",
    "location": "拱墅区-天水-三华园",
    "scraped_at": "2026-05-03 22:50:20",
    "region": "tianshui1",
    "unit_price": 140.0,
    "lat": 30.267715,
    "lng": 120.165313
  },
  {
    "title": "合租·天水巷 2居室 南卧",
    "community": "天水巷 2居室 南卧",
    "area": "13.80",
    "rooms": "",
    "direction": "",
    "floor": "",
    "price": "1760",
    "tags": "",
    "source": "",
    "url": "https://hz.lianjia.com/zufang/HZ2130216458246946816.html",
    "rent_type": "合租",
    "location": "拱墅区-天水-天水巷",
    "scraped_at": "2026-05-03 22:50:20",
    "region": "tianshui1",
    "unit_price": 127.5,
    "lat": 30.274092,
    "lng": 120.16539
  },
  {
    "title": "整租·社坛苑 2室1厅 南",
    "community": "社坛苑",
    "area": "68.84",
    "rooms": "2室1厅",
    "direction": "南",
    "floor": "",
    "price": "3500",
    "tags": "",
    "source": "",
    "url": "https://hz.lianjia.com/zufang/HZ2151618011956510720.html",
    "rent_type": "整租",
    "location": "拱墅区-天水-社坛苑",
    "scraped_at": "2026-05-03 22:50:20",
    "region": "tianshui1",
    "unit_price": 50.8,
    "lat": 30.26842,
    "lng": 120.165326
  },
  {
    "title": "整租·中大广场 3室2厅 南",
    "community": "中大广场",
    "area": "118.03",
    "rooms": "3室2厅",
    "direction": "南",
    "floor": "",
    "price": "7000",
    "tags": "",
    "source": "",
    "url": "https://hz.lianjia.com/zufang/HZ2161694272699498496.html",
    "rent_type": "整租",
    "location": "拱墅区-天水-中大广场",
    "scraped_at": "2026-05-03 22:50:20",
    "region": "tianshui1",
    "unit_price": 59.3,
    "lat": 30.26817,
    "lng": 120.16498
  },
  {
    "title": "整租·西子大厦 1室1厅 东/南",
    "community": "西子大厦",
    "area": "45.18",
    "rooms": "1室1厅",
    "direction": "东/南",
    "floor": "",
    "price": "3200",
    "tags": "",
    "source": "",
    "url": "https://hz.lianjia.com/zufang/HZ2145832344819335168.html",
    "rent_type": "整租",
    "location": "拱墅区-天水-西子大厦",
    "scraped_at": "2026-05-03 22:50:20",
    "region": "tianshui1",
    "unit_price": 70.8,
    "lat": 30.27183,
    "lng": 120.163652
  },
  {
    "title": "整租·中山北路558号 3室1厅 南/北",
    "community": "中山北路558号",
    "area": "81.00",
    "rooms": "3室1厅",
    "direction": "南/北",
    "floor": "",
    "price": "5500",
    "tags": "",
    "source": "",
    "url": "https://hz.lianjia.com/zufang/HZ2160619407770910720.html",
    "rent_type": "整租",
    "location": "拱墅区-天水-中山北路",
    "scraped_at": "2026-05-03 22:50:20",
    "region": "tianshui1",
    "unit_price": 67.9,
    "lat": 30.273441,
    "lng": 120.162184
  },
  {
    "title": "整租·三华园 1室1厅 南",
    "community": "三华园",
    "area": "30.00",
    "rooms": "1室1厅",
    "direction": "南",
    "floor": "",
    "price": "2450",
    "tags": "",
    "source": "",
    "url": "https://hz.lianjia.com/zufang/HZ2094020130487926784.html",
    "rent_type": "整租",
    "location": "拱墅区-天水-三华园",
    "scraped_at": "2026-05-03 22:50:20",
    "region": "tianshui1",
    "unit_price": 81.7,
    "lat": 30.267356,
    "lng": 120.165399
  },
  {
    "title": "整租·西子大厦 1室1厅 南",
    "community": "西子大厦",
    "area": "47.00",
    "rooms": "1室1厅",
    "direction": "南",
    "floor": "",
    "price": "3300",
    "tags": "",
    "source": "",
    "url": "https://hz.lianjia.com/zufang/HZ2158614404269080576.html",
    "rent_type": "整租",
    "location": "拱墅区-天水-西子大厦",
    "scraped_at": "2026-05-03 22:50:20",
    "region": "tianshui1",
    "unit_price": 70.2,
    "lat": 30.27183,
    "lng": 120.163652
  },
  {
    "title": "整租·百井坊巷 2室1厅 南",
    "community": "百井坊巷",
    "area": "78.00",
    "rooms": "2室1厅",
    "direction": "南",
    "floor": "",
    "price": "4200",
    "tags": "",
    "source": "",
    "url": "https://hz.lianjia.com/zufang/HZ2083451268465950720.html",
    "rent_type": "整租",
    "location": "拱墅区-天水-百井坊巷",
    "scraped_at": "2026-05-03 22:50:20",
    "region": "tianshui1",
    "unit_price": 53.8,
    "lat": 30.26894,
    "lng": 120.16196
  },
  {
    "title": "合租·皇亲苑 3居室 南卧",
    "community": "皇亲苑 3居室 南卧",
    "area": "12.00",
    "rooms": "",
    "direction": "",
    "floor": "",
    "price": "2130",
    "tags": "",
    "source": "",
    "url": "https://hz.lianjia.com/zufang/HZ2151887736003362816.html",
    "rent_type": "合租",
    "location": "拱墅区-天水-皇亲苑",
    "scraped_at": "2026-05-03 22:50:20",
    "region": "tianshui1",
    "unit_price": 177.5,
    "lat": 30.267264,
    "lng": 120.16134
  },
  {
    "title": "合租·皇亲苑 5居室 南卧",
    "community": "皇亲苑 5居室 南卧",
    "area": "14.00",
    "rooms": "",
    "direction": "",
    "floor": "",
    "price": "1590",
    "tags": "",
    "source": "",
    "url": "https://hz.lianjia.com/zufang/HZ2122238847872925696.html",
    "rent_type": "合租",
    "location": "拱墅区-天水-皇亲苑",
    "scraped_at": "2026-05-03 22:50:20",
    "region": "tianshui1",
    "unit_price": 113.6,
    "lat": 30.267816,
    "lng": 120.16125
  }
]