[
  {
    "title": "整租·庆隆苑一区 2室1厅 西南",
    "community": "庆隆苑一区",
    "area": "61.60",
    "rooms": "2室1厅",
    "direction": "西南",
    "floor": "",
    "price": "2800",
    "tags": "",
    "source": "",
    "url": "https://hz.lianjia.com/zufang/HZ2027294524081963008.html",
    "rent_type": "整租",
    "location": "拱墅区-和睦-庆隆苑一区",
    "scraped_at": "2026-05-03 22:25:06",
    "region": "hemu",
    "unit_price": 45.5,
    "lat": 30.297394,
    "lng": 120.118568
  },
  {
    "title": "整租·庆隆苑三区 3室2厅 南",
    "community": "庆隆苑三区",
    "area": "110.00",
    "rooms": "3室2厅",
    "direction": "南",
    "floor": "",
    "price": "6300",
    "tags": "",
    "source": "",
    "url": "https://hz.lianjia.com/zufang/HZ2160708440782012416.html",
    "rent_type": "整租",
    "location": "拱墅区-和睦-庆隆苑三区",
    "scraped_at": "2026-05-03 22:24:17",
    "region": "hemu",
    "unit_price": 57.3,
    "lat": 30.29806,
    "lng": 120.11986
  },
  {
    "title": "整租·凯德湖墅 2室1厅 南/北",
    "community": "凯德湖墅",
    "area": "89.25",
    "rooms": "2室1厅",
    "direction": "南/北",
    "floor": "",
    "price": "4950",
    "tags": "",
    "source": "",
    "url": "https://hz.lianjia.com/zufang/HZ2158130346795728896.html",
    "rent_type": "整租",
    "location": "拱墅区-和睦-凯德湖墅",
    "scraped_at": "2026-05-03 22:25:06",
    "region": "hemu",
    "unit_price": 55.5,
    "lat": 30.313384,
    "lng": 120.121302
  },
  {
    "title": "独栋·hello+公寓 古翠店 一室一厅一卫一厨 1室1厅",
    "community": "hello+公寓 古翠店 一室一厅一卫一厨",
    "area": "56.00",
    "rooms": "1室1厅",
    "direction": "",
    "floor": "",
    "price": "4550-4750",
    "tags": "",
    "source": "",
    "url": "https://hz.lianjia.com/apartment/74859.html",
    "rent_type": "独栋",
    "location": "",
    "scraped_at": "2026-05-03 22:24:17",
    "region": "hemu",
    "unit_price": "",
    "lat": 30.075285,
    "lng": 119.584158
  },
  {
    "title": "整租·三宝郡庭 3室2厅 南",
    "community": "三宝郡庭",
    "area": "117.84",
    "rooms": "3室2厅",
    "direction": "南",
    "floor": "",
    "price": "5830",
    "tags": "",
    "source": "",
    "url": "https://hz.lianjia.com/zufang/HZ2161317291109646336.html",
    "rent_type": "整租",
    "location": "拱墅区-和睦-三宝郡庭",
    "scraped_at": "2026-05-03 22:25:06",
    "region": "hemu",
    "unit_price": 49.5,
    "lat": 30.300274,
    "lng": 120.135758
  },
  {
    "title": "合租·杭曜置地中心一区 3居室 南卧",
    "community": "杭曜置地中心一区 3居室 南卧",
    "area": "139.00",
    "rooms": "",
    "direction": "",
    "floor": "",
    "price": "10800",
    "tags": "",
    "source": "",
    "url": "https://hz.lianjia.com/zufang/HZ2159170854993264640.html",
    "rent_type": "合租",
    "location": "拱墅区-和睦-杭曜置地中心一区",
    "scraped_at": "2026-05-03 22:24:17",
    "region": "hemu",
    "unit_price": 77.7,
    "lat": 30.316522,
    "lng": 120.119036
  },
  {
    "title": "整租·和睦院 1室1厅 南",
    "community": "和睦院",
    "area": "32.00",
    "rooms": "1室1厅",
    "direction": "南",
    "floor": "",
    "price": "2000",
    "tags": "",
    "source": "",
    "url": "https://hz.lianjia.com/zufang/HZ1950123719493943296.html",
    "rent_type": "整租",
    "location": "拱墅区-和睦-和睦院",
    "scraped_at": "2026-05-03 22:25:06",
    "region": "hemu",
    "unit_price": 62.5,
    "lat": 30.313384,
    "lng": 120.121302
  },
  {
    "title": "整租·首开杭州金茂府 4室2厅 南/北",
    "community": "首开杭州金茂府",
    "area": "168.00",
    "rooms": "4室2厅",
    "direction": "南/北",
    "floor": "",
    "price": "14000",
    "tags": "",
    "source": "",
    "url": "https://hz.lianjia.com/zufang/HZ2104460629065596928.html",
    "rent_type": "整租",
    "location": "拱墅区-和睦-首开杭州金茂府",
    "scraped_at": "2026-05-03 22:24:17",
    "region": "hemu",
    "unit_price": 83.3,
    "lat": 30.299893,
    "lng": 120.118937
  },
  {
    "title": "整租·中粮大悦城 1室1厅 南",
    "community": "中粮大悦城",
    "area": "82.10",
    "rooms": "1室1厅",
    "direction": "南",
    "floor": "",
    "price": "4800",
    "tags": "",
    "source": "",
    "url": "https://hz.lianjia.com/zufang/HZ2146260478165254144.html",
    "rent_type": "整租",
    "location": "拱墅区-和睦-中粮大悦城",
    "scraped_at": "2026-05-03 22:25:06",
    "region": "hemu",
    "unit_price": 58.5,
    "lat": 30.313384,
    "lng": 120.121302
  },
  {
    "title": "合租·小河佳苑 4居室 南卧",
    "community": "小河佳苑 4居室 南卧",
    "area": "8.70",
    "rooms": "",
    "direction": "",
    "floor": "",
    "price": "1330",
    "tags": "",
    "source": "",
    "url": "https://hz.lianjia.com/zufang/HZ2039169511789166592.html",
    "rent_type": "合租",
    "location": "拱墅区-和睦-小河佳苑",
    "scraped_at": "2026-05-03 22:24:17",
    "region": "hemu",
    "unit_price": 152.9,
    "lat": 30.311481,
    "lng": 120.128812
  },
  {
    "title": "整租·吉兴公寓 2室1厅 南",
    "community": "吉兴公寓",
    "area": "76.00",
    "rooms": "2室1厅",
    "direction": "南",
    "floor": "",
    "price": "4000",
    "tags": "",
    "source": "",
    "url": "https://hz.lianjia.com/zufang/HZ2155873101219364864.html",
    "rent_type": "整租",
    "location": "拱墅区-和睦-吉兴公寓",
    "scraped_at": "2026-05-03 22:25:06",
    "region": "hemu",
    "unit_price": 52.6,
    "lat": 30.313384,
    "lng": 120.121302
  },
  {
    "title": "独栋·幸福家 大悦城店 无中介费·自带商业体大悦城· 1室1厅",
    "community": "幸福家 大悦城店 无中介费·自带商业体大悦城·",
    "area": "70.00",
    "rooms": "1室1厅",
    "direction": "",
    "floor": "",
    "price": "6000",
    "tags": "",
    "source": "",
    "url": "https://hz.lianjia.com/apartment/98980.html",
    "rent_type": "独栋",
    "location": "",
    "scraped_at": "2026-05-03 22:24:17",
    "region": "hemu",
    "unit_price": 85.7,
    "lat": 30.300644,
    "lng": 120.310476
  },
  {
    "title": "整租·杭曜置地中心二区 4室2厅 南/北",
    "community": "杭曜置地中心二区",
    "area": "139.00",
    "rooms": "4室2厅",
    "direction": "南/北",
    "floor": "",
    "price": "8600",
    "tags": "",
    "source": "",
    "url": "https://hz.lianjia.com/zufang/HZ2118653537868054528.html",
    "rent_type": "整租",
    "location": "拱墅区-和睦-杭曜置地中心二区",
    "scraped_at": "2026-05-03 22:24:17",
    "region": "hemu",
    "unit_price": 61.9,
    "lat": 30.314952,
    "lng": 120.117105
  },
  {
    "title": "独栋·迈租公寓 大悦城店 边套全景落地窗带衣帽间 2室1厅",
    "community": "迈租公寓 大悦城店 边套全景落地窗带衣帽间",
    "area": "95.00",
    "rooms": "2室1厅",
    "direction": "",
    "floor": "",
    "price": "7000",
    "tags": "",
    "source": "",
    "url": "https://hz.lianjia.com/apartment/89397.html",
    "rent_type": "独栋",
    "location": "",
    "scraped_at": "2026-05-03 22:24:17",
    "region": "hemu",
    "unit_price": 73.7,
    "lat": 30.304328,
    "lng": 120.121639
  },
  {
    "title": "整租·华润绿城杭樾润府 4室2厅 南",
    "community": "华润绿城杭樾润府",
    "area": "139.19",
    "rooms": "4室2厅",
    "direction": "南",
    "floor": "",
    "price": "9800",
    "tags": "",
    "source": "",
    "url": "https://hz.lianjia.com/zufang/HZ2124751882025959424.html",
    "rent_type": "整租",
    "location": "拱墅区-和睦-华润绿城杭樾润府",
    "scraped_at": "2026-05-03 22:24:17",
    "region": "hemu",
    "unit_price": 70.4,
    "lat": 30.313384,
    "lng": 120.121302
  },
  {
    "title": "合租·都景公寓 3居室 南卧",
    "community": "都景公寓 3居室 南卧",
    "area": "12.50",
    "rooms": "",
    "direction": "",
    "floor": "",
    "price": "1590",
    "tags": "",
    "source": "",
    "url": "https://hz.lianjia.com/zufang/HZ2075156368901275648.html",
    "rent_type": "合租",
    "location": "拱墅区-和睦-都景公寓",
    "scraped_at": "2026-05-03 22:24:17",
    "region": "hemu",
    "unit_price": 127.2,
    "lat": 30.31119,
    "lng": 120.12725
  },
  {
    "title": "独栋·三文鱼雅居 揽悦公寓店 大悦城揽悦公寓loft豪华装修，房东直租 2室1厅",
    "community": "三文鱼雅居 揽悦公寓店 大悦城揽悦公寓loft豪华装修，房东直租",
    "area": "65.00",
    "rooms": "2室1厅",
    "direction": "",
    "floor": "",
    "price": "5800",
    "tags": "",
    "source": "",
    "url": "https://hz.lianjia.com/apartment/70038.html",
    "rent_type": "独栋",
    "location": "",
    "scraped_at": "2026-05-03 22:24:17",
    "region": "hemu",
    "unit_price": 89.2,
    "lat": 29.80414,
    "lng": 119.69157
  },
  {
    "title": "整租·星瓒颂锦府 4室2厅 西南",
    "community": "星瓒颂锦府",
    "area": "130.00",
    "rooms": "4室2厅",
    "direction": "西南",
    "floor": "",
    "price": "10500",
    "tags": "",
    "source": "",
    "url": "https://hz.lianjia.com/zufang/HZ2148680838504513536.html",
    "rent_type": "整租",
    "location": "拱墅区-和睦-星瓒颂锦府",
    "scraped_at": "2026-05-03 22:24:17",
    "region": "hemu",
    "unit_price": 80.8,
    "lat": 30.313384,
    "lng": 120.121302
  },
  {
    "title": "独栋·艾遇公寓 三宝郡庭 精装修 一室一厅 配置齐全 拎包入住 1室1厅",
    "community": "艾遇公寓 三宝郡庭 精装修 一室一厅 配置齐全 拎包入住",
    "area": "63.00",
    "rooms": "1室1厅",
    "direction": "",
    "floor": "",
    "price": "4000",
    "tags": "",
    "source": "",
    "url": "https://hz.lianjia.com/apartment/106472.html",
    "rent_type": "独栋",
    "location": "",
    "scraped_at": "2026-05-03 22:24:17",
    "region": "hemu",
    "unit_price": 63.5,
    "lat": 30.06023,
    "lng": 119.94142
  },
  {
    "title": "整租·馥香园 5室2厅 南",
    "community": "馥香园",
    "area": "246.00",
    "rooms": "5室2厅",
    "direction": "南",
    "floor": "",
    "price": "27000",
    "tags": "",
    "source": "",
    "url": "https://hz.lianjia.com/zufang/HZ2155203662010384384.html",
    "rent_type": "整租",
    "location": "拱墅区-和睦-馥香园",
    "scraped_at": "2026-05-03 22:24:36",
    "region": "hemu",
    "unit_price": 109.8,
    "lat": 30.313384,
    "lng": 120.121302
  },
  {
    "title": "整租·华润绿城杭樾润府 4室2厅 东/南",
    "community": "华润绿城杭樾润府",
    "area": "139.00",
    "rooms": "4室2厅",
    "direction": "东/南",
    "floor": "",
    "price": "8500",
    "tags": "",
    "source": "",
    "url": "https://hz.lianjia.com/zufang/HZ2126552107367530496.html",
    "rent_type": "整租",
    "location": "拱墅区-和睦-华润绿城杭樾润府",
    "scraped_at": "2026-05-03 22:24:17",
    "region": "hemu",
    "unit_price": 61.2,
    "lat": 30.313384,
    "lng": 120.121302
  },
  {
    "title": "独栋·艾遇公寓 世纪新筑店 大悦城正对面 十号线地铁口 朝南户型 性价比高 开间",
    "community": "艾遇公寓 世纪新筑店 大悦城正对面 十号线地铁口 朝南户型 性价比高 开间",
    "area": "30.00",
    "rooms": "",
    "direction": "",
    "floor": "",
    "price": "2000",
    "tags": "",
    "source": "",
    "url": "https://hz.lianjia.com/apartment/106786.html",
    "rent_type": "独栋",
    "location": "",
    "scraped_at": "2026-05-03 22:24:17",
    "region": "hemu",
    "unit_price": 66.7,
    "lat": 30.390966,
    "lng": 120.099385
  },
  {
    "title": "整租·中粮大悦城 1室1厅 LOFT 南",
    "community": "中粮大悦城",
    "area": "60.00",
    "rooms": "1室1厅",
    "direction": "",
    "floor": "",
    "price": "4100",
    "tags": "",
    "source": "",
    "url": "https://hz.lianjia.com/zufang/HZ2153467836511551488.html",
    "rent_type": "整租",
    "location": "拱墅区-和睦-中粮大悦城",
    "scraped_at": "2026-05-03 22:24:17",
    "region": "hemu",
    "unit_price": 68.3,
    "lat": 30.313384,
    "lng": 120.121302
  },
  {
    "title": "整租·三宝郡庭 3室2厅 南",
    "community": "三宝郡庭",
    "area": "118.00",
    "rooms": "3室2厅",
    "direction": "南",
    "floor": "",
    "price": "5600",
    "tags": "",
    "source": "",
    "url": "https://hz.lianjia.com/zufang/HZ2155233189033934848.html",
    "rent_type": "整租",
    "location": "拱墅区-和睦-三宝郡庭",
    "scraped_at": "2026-05-03 22:24:17",
    "region": "hemu",
    "unit_price": 47.5,
    "lat": 30.300274,
    "lng": 120.135758
  },
  {
    "title": "整租·中粮大悦城 1室1厅 北",
    "community": "中粮大悦城",
    "area": "52.00",
    "rooms": "1室1厅",
    "direction": "北",
    "floor": "",
    "price": "3800",
    "tags": "",
    "source": "",
    "url": "https://hz.lianjia.com/zufang/HZ2142929714291933184.html",
    "rent_type": "整租",
    "location": "拱墅区-和睦-中粮大悦城",
    "scraped_at": "2026-05-03 22:24:36",
    "region": "hemu",
    "unit_price": 73.1,
    "lat": 30.313384,
    "lng": 120.121302
  },
  {
    "title": "整租·杭曜置地中心一区 3室2厅 南",
    "community": "杭曜置地中心一区",
    "area": "123.00",
    "rooms": "3室2厅",
    "direction": "南",
    "floor": "",
    "price": "8500",
    "tags": "",
    "source": "",
    "url": "https://hz.lianjia.com/zufang/HZ2155648878186070016.html",
    "rent_type": "整租",
    "location": "拱墅区-和睦-杭曜置地中心一区",
    "scraped_at": "2026-05-03 22:24:40",
    "region": "hemu",
    "unit_price": 69.1,
    "lat": 30.316522,
    "lng": 120.119036
  },
  {
    "title": "整租·中粮大悦城 2室2厅 南",
    "community": "中粮大悦城",
    "area": "52.37",
    "rooms": "2室2厅",
    "direction": "南",
    "floor": "",
    "price": "4000",
    "tags": "",
    "source": "",
    "url": "https://hz.lianjia.com/zufang/HZ2141851724183240704.html",
    "rent_type": "整租",
    "location": "拱墅区-和睦-中粮大悦城",
    "scraped_at": "2026-05-03 22:25:06",
    "region": "hemu",
    "unit_price": 76.4,
    "lat": 30.313384,
    "lng": 120.121302
  },
  {
    "title": "整租·揽云锦绣里 5室2厅 南",
    "community": "揽云锦绣里",
    "area": "225.00",
    "rooms": "5室2厅",
    "direction": "南",
    "floor": "",
    "price": "26000",
    "tags": "",
    "source": "",
    "url": "https://hz.lianjia.com/zufang/HZ2154540302734458880.html",
    "rent_type": "整租",
    "location": "拱墅区-和睦-揽云锦绣里",
    "scraped_at": "2026-05-03 22:24:40",
    "region": "hemu",
    "unit_price": 115.6,
    "lat": 30.313384,
    "lng": 120.121302
  },
  {
    "title": "整租·中粮大悦城 2室1厅 东南",
    "community": "中粮大悦城",
    "area": "54.37",
    "rooms": "2室1厅",
    "direction": "东南",
    "floor": "",
    "price": "4200",
    "tags": "",
    "source": "",
    "url": "https://hz.lianjia.com/zufang/HZ2157483980767625216.html",
    "rent_type": "整租",
    "location": "拱墅区-和睦-中粮大悦城",
    "scraped_at": "2026-05-03 22:25:06",
    "region": "hemu",
    "unit_price": 77.2,
    "lat": 30.313384,
    "lng": 120.121302
  },
  {
    "title": "合租·吉兴公寓 3居室 北卧",
    "community": "吉兴公寓 3居室 北卧",
    "area": "10.90",
    "rooms": "",
    "direction": "",
    "floor": "",
    "price": "1330",
    "tags": "",
    "source": "",
    "url": "https://hz.lianjia.com/zufang/HZ2106218185257648128.html",
    "rent_type": "合租",
    "location": "拱墅区-和睦-吉兴公寓",
    "scraped_at": "2026-05-03 22:24:20",
    "region": "hemu",
    "unit_price": 122.0,
    "lat": 30.31084,
    "lng": 120.12365
  },
  {
    "title": "整租·中粮大悦城 2室1厅 复式 南",
    "community": "中粮大悦城",
    "area": "57.75",
    "rooms": "2室1厅",
    "direction": "",
    "floor": "",
    "price": "4500",
    "tags": "",
    "source": "",
    "url": "https://hz.lianjia.com/zufang/HZ1949489794547449856.html",
    "rent_type": "整租",
    "location": "拱墅区-和睦-中粮大悦城",
    "scraped_at": "2026-05-03 22:25:06",
    "region": "hemu",
    "unit_price": 77.9,
    "lat": 30.313384,
    "lng": 120.121302
  },
  {
    "title": "合租·小河佳苑 4居室 南卧",
    "community": "小河佳苑 4居室 南卧",
    "area": "11.44",
    "rooms": "",
    "direction": "",
    "floor": "",
    "price": "1330",
    "tags": "",
    "source": "",
    "url": "https://hz.lianjia.com/zufang/HZ2128087642858848256.html",
    "rent_type": "合租",
    "location": "拱墅区-和睦-小河佳苑",
    "scraped_at": "2026-05-03 22:24:20",
    "region": "hemu",
    "unit_price": 116.3,
    "lat": 30.311481,
    "lng": 120.128812
  },
  {
    "title": "整租·中粮大悦城 2室1厅 跃层 东南",
    "community": "中粮大悦城",
    "area": "47.89",
    "rooms": "2室1厅",
    "direction": "",
    "floor": "",
    "price": "3900",
    "tags": "",
    "source": "",
    "url": "https://hz.lianjia.com/zufang/HZ1949686880492584960.html",
    "rent_type": "整租",
    "location": "拱墅区-和睦-中粮大悦城",
    "scraped_at": "2026-05-03 22:25:06",
    "region": "hemu",
    "unit_price": 81.4,
    "lat": 30.313384,
    "lng": 120.121302
  },
  {
    "title": "整租·凯德湖墅 3室1厅 南",
    "community": "凯德湖墅",
    "area": "90.00",
    "rooms": "3室1厅",
    "direction": "南",
    "floor": "",
    "price": "5800",
    "tags": "",
    "source": "",
    "url": "https://hz.lianjia.com/zufang/HZ2154854203036532736.html",
    "rent_type": "整租",
    "location": "拱墅区-和睦-凯德湖墅",
    "scraped_at": "2026-05-03 22:24:43",
    "region": "hemu",
    "unit_price": 64.4,
    "lat": 30.313384,
    "lng": 120.121302
  },
  {
    "title": "整租·都景公寓 3室1厅 南",
    "community": "都景公寓",
    "area": "86.47",
    "rooms": "3室1厅",
    "direction": "南",
    "floor": "",
    "price": "4200",
    "tags": "",
    "source": "",
    "url": "https://hz.lianjia.com/zufang/HZ1975149182935105536.html",
    "rent_type": "整租",
    "location": "拱墅区-和睦-都景公寓",
    "scraped_at": "2026-05-03 22:25:06",
    "region": "hemu",
    "unit_price": 48.6,
    "lat": 30.313384,
    "lng": 120.121302
  },
  {
    "title": "合租·小河佳苑 3居室 南卧",
    "community": "小河佳苑 3居室 南卧",
    "area": "14.00",
    "rooms": "",
    "direction": "",
    "floor": "",
    "price": "1348",
    "tags": "",
    "source": "",
    "url": "https://hz.lianjia.com/zufang/HZ2142960402965725184.html",
    "rent_type": "合租",
    "location": "拱墅区-和睦-小河佳苑",
    "scraped_at": "2026-05-03 22:24:20",
    "region": "hemu",
    "unit_price": 96.3,
    "lat": 30.311481,
    "lng": 120.128812
  },
  {
    "title": "整租·都景公寓 2室1厅 南",
    "community": "都景公寓",
    "area": "74.02",
    "rooms": "2室1厅",
    "direction": "南",
    "floor": "",
    "price": "4000",
    "tags": "",
    "source": "",
    "url": "https://hz.lianjia.com/zufang/HZ1981411512924766208.html",
    "rent_type": "整租",
    "location": "拱墅区-和睦-都景公寓",
    "scraped_at": "2026-05-03 22:25:06",
    "region": "hemu",
    "unit_price": 54.0,
    "lat": 30.313384,
    "lng": 120.121302
  },
  {
    "title": "合租·小河佳苑 4居室 东卧",
    "community": "小河佳苑 4居室 东卧",
    "area": "9.50",
    "rooms": "",
    "direction": "",
    "floor": "",
    "price": "1190",
    "tags": "",
    "source": "",
    "url": "https://hz.lianjia.com/zufang/HZ2155331394551676928.html",
    "rent_type": "合租",
    "location": "拱墅区-和睦-小河佳苑",
    "scraped_at": "2026-05-03 22:24:20",
    "region": "hemu",
    "unit_price": 125.3,
    "lat": 30.30947,
    "lng": 120.1317
  },
  {
    "title": "整租·华润绿城杭樾润府 4室2厅 南",
    "community": "华润绿城杭樾润府",
    "area": "139.00",
    "rooms": "4室2厅",
    "direction": "南",
    "floor": "",
    "price": "8188",
    "tags": "",
    "source": "",
    "url": "https://hz.lianjia.com/zufang/HZ2152716859927953408.html",
    "rent_type": "整租",
    "location": "拱墅区-和睦-华润绿城杭樾润府",
    "scraped_at": "2026-05-03 22:24:20",
    "region": "hemu",
    "unit_price": 58.9,
    "lat": 30.313384,
    "lng": 120.121302
  },
  {
    "title": "整租·中粮大悦城 2室1厅 南",
    "community": "中粮大悦城",
    "area": "54.37",
    "rooms": "2室1厅",
    "direction": "南",
    "floor": "",
    "price": "4200",
    "tags": "",
    "source": "",
    "url": "https://hz.lianjia.com/zufang/HZ2028450943086886912.html",
    "rent_type": "整租",
    "location": "拱墅区-和睦-中粮大悦城",
    "scraped_at": "2026-05-03 22:25:06",
    "region": "hemu",
    "unit_price": 77.2,
    "lat": 30.313384,
    "lng": 120.121302
  },
  {
    "title": "整租·星瓒颂锦府 3室2厅 南",
    "community": "星瓒颂锦府",
    "area": "108.00",
    "rooms": "3室2厅",
    "direction": "南",
    "floor": "",
    "price": "7800",
    "tags": "",
    "source": "",
    "url": "https://hz.lianjia.com/zufang/HZ2143256540335833088.html",
    "rent_type": "整租",
    "location": "拱墅区-和睦-星瓒颂锦府",
    "scraped_at": "2026-05-03 22:24:36",
    "region": "hemu",
    "unit_price": 72.2,
    "lat": 30.313384,
    "lng": 120.121302
  },
  {
    "title": "整租·联合世纪新筑 3室2厅 南",
    "community": "联合世纪新筑",
    "area": "125.31",
    "rooms": "3室2厅",
    "direction": "南",
    "floor": "",
    "price": "6500",
    "tags": "",
    "source": "",
    "url": "https://hz.lianjia.com/zufang/HZ2140311110916505600.html",
    "rent_type": "整租",
    "location": "拱墅区-和睦-联合世纪新筑",
    "scraped_at": "2026-05-03 22:25:06",
    "region": "hemu",
    "unit_price": 51.9,
    "lat": 30.313384,
    "lng": 120.121302
  },
  {
    "title": "整租·广兴新村 1室1厅 南/北",
    "community": "广兴新村",
    "area": "30.07",
    "rooms": "1室1厅",
    "direction": "南/北",
    "floor": "",
    "price": "2000",
    "tags": "",
    "source": "",
    "url": "https://hz.lianjia.com/zufang/HZ2145386906781745152.html",
    "rent_type": "整租",
    "location": "拱墅区-和睦-广兴新村",
    "scraped_at": "2026-05-03 22:25:06",
    "region": "hemu",
    "unit_price": 66.5,
    "lat": 30.311872,
    "lng": 120.115741
  },
  {
    "title": "整租·杭曜置地中心一区 4室2厅 南",
    "community": "杭曜置地中心一区",
    "area": "139.00",
    "rooms": "4室2厅",
    "direction": "南",
    "floor": "",
    "price": "10500",
    "tags": "",
    "source": "",
    "url": "https://hz.lianjia.com/zufang/HZ2156985872564617216.html",
    "rent_type": "整租",
    "location": "拱墅区-和睦-杭曜置地中心一区",
    "scraped_at": "2026-05-03 22:24:20",
    "region": "hemu",
    "unit_price": 75.5,
    "lat": 30.316522,
    "lng": 120.119036
  },
  {
    "title": "整租·中粮大悦城 2室1厅 南",
    "community": "中粮大悦城",
    "area": "67.07",
    "rooms": "2室1厅",
    "direction": "南",
    "floor": "",
    "price": "4400",
    "tags": "",
    "source": "",
    "url": "https://hz.lianjia.com/zufang/HZ2149173416870019072.html",
    "rent_type": "整租",
    "location": "拱墅区-和睦-中粮大悦城",
    "scraped_at": "2026-05-03 22:25:06",
    "region": "hemu",
    "unit_price": 65.6,
    "lat": 30.313384,
    "lng": 120.121302
  },
  {
    "title": "整租·滨江锦绣之城 4室2厅 南",
    "community": "滨江锦绣之城",
    "area": "135.00",
    "rooms": "4室2厅",
    "direction": "南",
    "floor": "",
    "price": "14000",
    "tags": "",
    "source": "",
    "url": "https://hz.lianjia.com/zufang/HZ2154108649373433856.html",
    "rent_type": "整租",
    "location": "拱墅区-和睦-滨江锦绣之城",
    "scraped_at": "2026-05-03 22:24:43",
    "region": "hemu",
    "unit_price": 103.7,
    "lat": 30.313384,
    "lng": 120.121302
  },
  {
    "title": "整租·华润绿城杭樾润府 3室2厅 南",
    "community": "华润绿城杭樾润府",
    "area": "115.00",
    "rooms": "3室2厅",
    "direction": "南",
    "floor": "",
    "price": "7400",
    "tags": "",
    "source": "",
    "url": "https://hz.lianjia.com/zufang/HZ2148603415201054720.html",
    "rent_type": "整租",
    "location": "拱墅区-和睦-华润绿城杭樾润府",
    "scraped_at": "2026-05-03 22:24:20",
    "region": "hemu",
    "unit_price": 64.3,
    "lat": 30.313384,
    "lng": 120.121302
  },
  {
    "title": "整租·广兴新村 1室1厅 南",
    "community": "广兴新村",
    "area": "47.00",
    "rooms": "1室1厅",
    "direction": "南",
    "floor": "",
    "price": "2100",
    "tags": "",
    "source": "",
    "url": "https://hz.lianjia.com/zufang/HZ2020873824085475328.html",
    "rent_type": "整租",
    "location": "拱墅区-和睦-广兴新村",
    "scraped_at": "2026-05-03 22:25:06",
    "region": "hemu",
    "unit_price": 44.7,
    "lat": 30.311872,
    "lng": 120.115741
  },
  {
    "title": "整租·三宝郡庭 2室1厅 南/西北",
    "community": "三宝郡庭",
    "area": "60.00",
    "rooms": "2室1厅",
    "direction": "南/西北",
    "floor": "",
    "price": "2900",
    "tags": "",
    "source": "",
    "url": "https://hz.lianjia.com/zufang/HZ2146864727110713344.html",
    "rent_type": "整租",
    "location": "拱墅区-和睦-三宝郡庭",
    "scraped_at": "2026-05-03 22:24:20",
    "region": "hemu",
    "unit_price": 48.3,
    "lat": 30.300274,
    "lng": 120.135758
  },
  {
    "title": "整租·万科古翠隐秀 3室2厅 南",
    "community": "万科古翠隐秀",
    "area": "104.00",
    "rooms": "3室2厅",
    "direction": "南",
    "floor": "",
    "price": "9500",
    "tags": "",
    "source": "",
    "url": "https://hz.lianjia.com/zufang/HZ2146135834812743680.html",
    "rent_type": "整租",
    "location": "拱墅区-和睦-万科古翠隐秀",
    "scraped_at": "2026-05-03 22:24:20",
    "region": "hemu",
    "unit_price": 91.3,
    "lat": 30.313384,
    "lng": 120.121302
  },
  {
    "title": "整租·和睦新村 2室1厅 南",
    "community": "和睦新村",
    "area": "61.00",
    "rooms": "2室1厅",
    "direction": "南",
    "floor": "",
    "price": "2800",
    "tags": "",
    "source": "",
    "url": "https://hz.lianjia.com/zufang/HZ2157324846395031552.html",
    "rent_type": "整租",
    "location": "拱墅区-和睦-和睦新村",
    "scraped_at": "2026-05-03 22:24:40",
    "region": "hemu",
    "unit_price": 45.9,
    "lat": 30.31376,
    "lng": 120.11856
  },
  {
    "title": "整租·万科古翠隐秀 4室2厅 南",
    "community": "万科古翠隐秀",
    "area": "144.00",
    "rooms": "4室2厅",
    "direction": "南",
    "floor": "",
    "price": "14000",
    "tags": "",
    "source": "",
    "url": "https://hz.lianjia.com/zufang/HZ2153498517153251328.html",
    "rent_type": "整租",
    "location": "拱墅区-和睦-万科古翠隐秀",
    "scraped_at": "2026-05-03 22:24:20",
    "region": "hemu",
    "unit_price": 97.2,
    "lat": 30.313384,
    "lng": 120.121302
  },
  {
    "title": "整租·华丰新村 2室1厅 南",
    "community": "华丰新村",
    "area": "53.37",
    "rooms": "2室1厅",
    "direction": "南",
    "floor": "",
    "price": "3000",
    "tags": "",
    "source": "",
    "url": "https://hz.lianjia.com/zufang/HZ1862738823272726528.html",
    "rent_type": "整租",
    "location": "拱墅区-和睦-华丰新村",
    "scraped_at": "2026-05-03 22:25:06",
    "region": "hemu",
    "unit_price": 56.2,
    "lat": 30.31426,
    "lng": 120.12232
  },
  {
    "title": "整租·中粮大悦城 2室1厅 复式 西南",
    "community": "中粮大悦城",
    "area": "47.01",
    "rooms": "2室1厅",
    "direction": "",
    "floor": "",
    "price": "3800",
    "tags": "",
    "source": "",
    "url": "https://hz.lianjia.com/zufang/HZ2027988848620863488.html",
    "rent_type": "整租",
    "location": "拱墅区-和睦-中粮大悦城",
    "scraped_at": "2026-05-03 22:25:06",
    "region": "hemu",
    "unit_price": 80.8,
    "lat": 30.313384,
    "lng": 120.121302
  },
  {
    "title": "整租·中粮大悦城 2室1厅 南",
    "community": "中粮大悦城",
    "area": "47.89",
    "rooms": "2室1厅",
    "direction": "南",
    "floor": "",
    "price": "4000",
    "tags": "",
    "source": "",
    "url": "https://hz.lianjia.com/zufang/HZ2041475347307823104.html",
    "rent_type": "整租",
    "location": "拱墅区-和睦-中粮大悦城",
    "scraped_at": "2026-05-03 22:25:06",
    "region": "hemu",
    "unit_price": 83.5,
    "lat": 30.313384,
    "lng": 120.121302
  },
  {
    "title": "整租·广兴新村 1室1厅 南",
    "community": "广兴新村",
    "area": "44.86",
    "rooms": "1室1厅",
    "direction": "南",
    "floor": "",
    "price": "2300",
    "tags": "",
    "source": "",
    "url": "https://hz.lianjia.com/zufang/HZ2160774616253988864.html",
    "rent_type": "整租",
    "location": "拱墅区-和睦-广兴新村",
    "scraped_at": "2026-05-03 22:25:06",
    "region": "hemu",
    "unit_price": 51.3,
    "lat": 30.311872,
    "lng": 120.115741
  },
  {
    "title": "整租·和睦新村 2室1厅 南",
    "community": "和睦新村",
    "area": "46.58",
    "rooms": "2室1厅",
    "direction": "南",
    "floor": "",
    "price": "2600",
    "tags": "",
    "source": "",
    "url": "https://hz.lianjia.com/zufang/HZ2014923001425821696.html",
    "rent_type": "整租",
    "location": "拱墅区-和睦-和睦新村",
    "scraped_at": "2026-05-03 22:25:06",
    "region": "hemu",
    "unit_price": 55.8,
    "lat": 30.31376,
    "lng": 120.11856
  },
  {
    "title": "整租·万科古翠隐秀 4室2厅 南",
    "community": "万科古翠隐秀",
    "area": "144.00",
    "rooms": "4室2厅",
    "direction": "南",
    "floor": "",
    "price": "14000",
    "tags": "",
    "source": "",
    "url": "https://hz.lianjia.com/zufang/HZ2151530762157948928.html",
    "rent_type": "整租",
    "location": "拱墅区-和睦-万科古翠隐秀",
    "scraped_at": "2026-05-03 22:24:23",
    "region": "hemu",
    "unit_price": 97.2,
    "lat": 30.313384,
    "lng": 120.121302
  },
  {
    "title": "整租·和睦新村 2室1厅 南",
    "community": "和睦新村",
    "area": "42.15",
    "rooms": "2室1厅",
    "direction": "南",
    "floor": "",
    "price": "2800",
    "tags": "",
    "source": "",
    "url": "https://hz.lianjia.com/zufang/HZ2161061256809676800.html",
    "rent_type": "整租",
    "location": "拱墅区-和睦-和睦新村",
    "scraped_at": "2026-05-03 22:25:06",
    "region": "hemu",
    "unit_price": 66.4,
    "lat": 30.31376,
    "lng": 120.11856
  },
  {
    "title": "整租·杭曜置地中心一区 4室2厅 西南",
    "community": "杭曜置地中心一区",
    "area": "139.00",
    "rooms": "4室2厅",
    "direction": "西南",
    "floor": "",
    "price": "11000",
    "tags": "",
    "source": "",
    "url": "https://hz.lianjia.com/zufang/HZ2155222951429931008.html",
    "rent_type": "整租",
    "location": "拱墅区-和睦-杭曜置地中心一区",
    "scraped_at": "2026-05-03 22:24:43",
    "region": "hemu",
    "unit_price": 79.1,
    "lat": 30.316522,
    "lng": 120.119036
  },
  {
    "title": "整租·滨融府 4室2厅 南",
    "community": "滨融府",
    "area": "139.00",
    "rooms": "4室2厅",
    "direction": "南",
    "floor": "",
    "price": "13000",
    "tags": "",
    "source": "",
    "url": "https://hz.lianjia.com/zufang/HZ2121893029240373248.html",
    "rent_type": "整租",
    "location": "拱墅区-和睦-滨融府",
    "scraped_at": "2026-05-03 22:24:40",
    "region": "hemu",
    "unit_price": 93.5,
    "lat": 30.313384,
    "lng": 120.121302
  },
  {
    "title": "整租·华润绿城杭樾润府 4室2厅 南",
    "community": "华润绿城杭樾润府",
    "area": "173.00",
    "rooms": "4室2厅",
    "direction": "南",
    "floor": "",
    "price": "14220",
    "tags": "",
    "source": "",
    "url": "https://hz.lianjia.com/zufang/HZ2109583765494824960.html",
    "rent_type": "整租",
    "location": "拱墅区-和睦-华润绿城杭樾润府",
    "scraped_at": "2026-05-03 22:24:23",
    "region": "hemu",
    "unit_price": 82.2,
    "lat": 30.313384,
    "lng": 120.121302
  },
  {
    "title": "整租·杭曜置地中心二区 3室1厅 南",
    "community": "杭曜置地中心二区",
    "area": "120.00",
    "rooms": "3室1厅",
    "direction": "南",
    "floor": "",
    "price": "8000",
    "tags": "",
    "source": "",
    "url": "https://hz.lianjia.com/zufang/HZ2149450434526314496.html",
    "rent_type": "整租",
    "location": "拱墅区-和睦-杭曜置地中心二区",
    "scraped_at": "2026-05-03 22:24:23",
    "region": "hemu",
    "unit_price": 66.7,
    "lat": 30.314952,
    "lng": 120.117105
  },
  {
    "title": "整租·星瓒颂锦府 3室2厅 南",
    "community": "星瓒颂锦府",
    "area": "108.00",
    "rooms": "3室2厅",
    "direction": "南",
    "floor": "",
    "price": "8500",
    "tags": "",
    "source": "",
    "url": "https://hz.lianjia.com/zufang/HZ2150796447883198464.html",
    "rent_type": "整租",
    "location": "拱墅区-和睦-星瓒颂锦府",
    "scraped_at": "2026-05-03 22:24:23",
    "region": "hemu",
    "unit_price": 78.7,
    "lat": 30.313384,
    "lng": 120.121302
  },
  {
    "title": "整租·三宝郡庭 2室1厅 南",
    "community": "三宝郡庭",
    "area": "61.00",
    "rooms": "2室1厅",
    "direction": "南",
    "floor": "",
    "price": "3500",
    "tags": "",
    "source": "",
    "url": "https://hz.lianjia.com/zufang/HZ2157768413231972352.html",
    "rent_type": "整租",
    "location": "拱墅区-和睦-三宝郡庭",
    "scraped_at": "2026-05-03 22:24:40",
    "region": "hemu",
    "unit_price": 57.4,
    "lat": 30.300274,
    "lng": 120.135758
  },
  {
    "title": "整租·星瓒颂锦府 3室2厅 南",
    "community": "星瓒颂锦府",
    "area": "108.00",
    "rooms": "3室2厅",
    "direction": "南",
    "floor": "",
    "price": "7300",
    "tags": "",
    "source": "",
    "url": "https://hz.lianjia.com/zufang/HZ2142915662870216704.html",
    "rent_type": "整租",
    "location": "拱墅区-和睦-星瓒颂锦府",
    "scraped_at": "2026-05-03 22:24:23",
    "region": "hemu",
    "unit_price": 67.6,
    "lat": 30.313384,
    "lng": 120.121302
  },
  {
    "title": "整租·馥香园 4室2厅 南",
    "community": "馥香园",
    "area": "175.00",
    "rooms": "4室2厅",
    "direction": "南",
    "floor": "",
    "price": "18500",
    "tags": "",
    "source": "",
    "url": "https://hz.lianjia.com/zufang/HZ2138700151265427456.html",
    "rent_type": "整租",
    "location": "拱墅区-和睦-馥香园",
    "scraped_at": "2026-05-03 22:24:23",
    "region": "hemu",
    "unit_price": 105.7,
    "lat": 30.313384,
    "lng": 120.121302
  },
  {
    "title": "整租·和睦院 2室1厅 南",
    "community": "和睦院",
    "area": "72.69",
    "rooms": "2室1厅",
    "direction": "南",
    "floor": "",
    "price": "3500",
    "tags": "",
    "source": "",
    "url": "https://hz.lianjia.com/zufang/HZ2156216800956645376.html",
    "rent_type": "整租",
    "location": "拱墅区-和睦-和睦院",
    "scraped_at": "2026-05-03 22:24:23",
    "region": "hemu",
    "unit_price": 48.1,
    "lat": 30.313384,
    "lng": 120.121302
  },
  {
    "title": "整租·和新北苑 3室1厅 南",
    "community": "和新北苑",
    "area": "88.00",
    "rooms": "3室1厅",
    "direction": "南",
    "floor": "",
    "price": "3800",
    "tags": "",
    "source": "",
    "url": "https://hz.lianjia.com/zufang/HZ2144251092286832640.html",
    "rent_type": "整租",
    "location": "拱墅区-和睦-和新北苑",
    "scraped_at": "2026-05-03 22:24:36",
    "region": "hemu",
    "unit_price": 43.2,
    "lat": 30.313384,
    "lng": 120.121302
  },
  {
    "title": "整租·庆云居 2室2厅 南",
    "community": "庆云居",
    "area": "90.00",
    "rooms": "2室2厅",
    "direction": "南",
    "floor": "",
    "price": "4100",
    "tags": "",
    "source": "",
    "url": "https://hz.lianjia.com/zufang/HZ2146890160908795904.html",
    "rent_type": "整租",
    "location": "拱墅区-和睦-庆云居",
    "scraped_at": "2026-05-03 22:24:23",
    "region": "hemu",
    "unit_price": 45.6,
    "lat": 30.313384,
    "lng": 120.121302
  },
  {
    "title": "整租·万科古翠隐秀 3室2厅 南",
    "community": "万科古翠隐秀",
    "area": "125.00",
    "rooms": "3室2厅",
    "direction": "南",
    "floor": "",
    "price": "11500",
    "tags": "",
    "source": "",
    "url": "https://hz.lianjia.com/zufang/HZ2146991925922627584.html",
    "rent_type": "整租",
    "location": "拱墅区-和睦-万科古翠隐秀",
    "scraped_at": "2026-05-03 22:24:23",
    "region": "hemu",
    "unit_price": 92.0,
    "lat": 30.313384,
    "lng": 120.121302
  },
  {
    "title": "整租·三宝郡庭 3室2厅 南",
    "community": "三宝郡庭",
    "area": "117.00",
    "rooms": "3室2厅",
    "direction": "南",
    "floor": "",
    "price": "5800",
    "tags": "",
    "source": "",
    "url": "https://hz.lianjia.com/zufang/HZ2147626686143791104.html",
    "rent_type": "整租",
    "location": "拱墅区-和睦-三宝郡庭",
    "scraped_at": "2026-05-03 22:24:23",
    "region": "hemu",
    "unit_price": 49.6,
    "lat": 30.300274,
    "lng": 120.135758
  },
  {
    "title": "整租·三宝郡庭 4室2厅 南",
    "community": "三宝郡庭",
    "area": "138.00",
    "rooms": "4室2厅",
    "direction": "南",
    "floor": "",
    "price": "5500",
    "tags": "",
    "source": "",
    "url": "https://hz.lianjia.com/zufang/HZ2147693022219862016.html",
    "rent_type": "整租",
    "location": "拱墅区-和睦-三宝郡庭",
    "scraped_at": "2026-05-03 22:24:23",
    "region": "hemu",
    "unit_price": 39.9,
    "lat": 30.300274,
    "lng": 120.135758
  },
  {
    "title": "整租·三宝郡庭 2室1厅 南",
    "community": "三宝郡庭",
    "area": "88.00",
    "rooms": "2室1厅",
    "direction": "南",
    "floor": "",
    "price": "4500",
    "tags": "",
    "source": "",
    "url": "https://hz.lianjia.com/zufang/HZ2148326868850311168.html",
    "rent_type": "整租",
    "location": "拱墅区-和睦-三宝郡庭",
    "scraped_at": "2026-05-03 22:24:23",
    "region": "hemu",
    "unit_price": 51.1,
    "lat": 30.300274,
    "lng": 120.135758
  },
  {
    "title": "整租·馥香园 5室2厅 东/南",
    "community": "馥香园",
    "area": "245.30",
    "rooms": "5室2厅",
    "direction": "东/南",
    "floor": "",
    "price": "23800",
    "tags": "",
    "source": "",
    "url": "https://hz.lianjia.com/zufang/HZ2149080546683125760.html",
    "rent_type": "整租",
    "location": "拱墅区-和睦-馥香园",
    "scraped_at": "2026-05-03 22:24:23",
    "region": "hemu",
    "unit_price": 97.0,
    "lat": 30.313384,
    "lng": 120.121302
  },
  {
    "title": "整租·杭曜置地中心二区 4室2厅 南/西",
    "community": "杭曜置地中心二区",
    "area": "139.00",
    "rooms": "4室2厅",
    "direction": "南/西",
    "floor": "",
    "price": "12000",
    "tags": "",
    "source": "",
    "url": "https://hz.lianjia.com/zufang/HZ2149151783216218112.html",
    "rent_type": "整租",
    "location": "拱墅区-和睦-杭曜置地中心二区",
    "scraped_at": "2026-05-03 22:24:23",
    "region": "hemu",
    "unit_price": 86.3,
    "lat": 30.314952,
    "lng": 120.117105
  },
  {
    "title": "整租·和睦院 2室1厅 南",
    "community": "和睦院",
    "area": "72.69",
    "rooms": "2室1厅",
    "direction": "南",
    "floor": "",
    "price": "3900",
    "tags": "",
    "source": "",
    "url": "https://hz.lianjia.com/zufang/HZ2097242485708292096.html",
    "rent_type": "整租",
    "location": "拱墅区-和睦-和睦院",
    "scraped_at": "2026-05-03 22:24:23",
    "region": "hemu",
    "unit_price": 53.7,
    "lat": 30.313384,
    "lng": 120.121302
  },
  {
    "title": "整租·首开杭州金茂府 4室2厅 南",
    "community": "首开杭州金茂府",
    "area": "168.00",
    "rooms": "4室2厅",
    "direction": "南",
    "floor": "",
    "price": "20000",
    "tags": "",
    "source": "",
    "url": "https://hz.lianjia.com/zufang/HZ2104886071299932160.html",
    "rent_type": "整租",
    "location": "拱墅区-和睦-首开杭州金茂府",
    "scraped_at": "2026-05-03 22:24:23",
    "region": "hemu",
    "unit_price": 119.0,
    "lat": 30.299893,
    "lng": 120.118937
  },
  {
    "title": "整租·万科古翠隐秀 4室2厅 南",
    "community": "万科古翠隐秀",
    "area": "145.00",
    "rooms": "4室2厅",
    "direction": "南",
    "floor": "",
    "price": "15500",
    "tags": "",
    "source": "",
    "url": "https://hz.lianjia.com/zufang/HZ2137509416629436416.html",
    "rent_type": "整租",
    "location": "拱墅区-和睦-万科古翠隐秀",
    "scraped_at": "2026-05-03 22:24:23",
    "region": "hemu",
    "unit_price": 106.9,
    "lat": 30.313384,
    "lng": 120.121302
  },
  {
    "title": "整租·中粮大悦城 1室1厅 南",
    "community": "中粮大悦城",
    "area": "52.00",
    "rooms": "1室1厅",
    "direction": "南",
    "floor": "",
    "price": "3800",
    "tags": "",
    "source": "",
    "url": "https://hz.lianjia.com/zufang/HZ2142923359652937728.html",
    "rent_type": "整租",
    "location": "拱墅区-和睦-中粮大悦城",
    "scraped_at": "2026-05-03 22:24:36",
    "region": "hemu",
    "unit_price": 73.1,
    "lat": 30.313384,
    "lng": 120.121302
  },
  {
    "title": "整租·华润绿城杭樾润府 4室2厅 南",
    "community": "华润绿城杭樾润府",
    "area": "139.00",
    "rooms": "4室2厅",
    "direction": "南",
    "floor": "",
    "price": "10800",
    "tags": "",
    "source": "",
    "url": "https://hz.lianjia.com/zufang/HZ2154081135049572352.html",
    "rent_type": "整租",
    "location": "拱墅区-和睦-华润绿城杭樾润府",
    "scraped_at": "2026-05-03 22:24:23",
    "region": "hemu",
    "unit_price": 77.7,
    "lat": 30.313384,
    "lng": 120.121302
  },
  {
    "title": "整租·星瓒颂锦府 3室2厅 南",
    "community": "星瓒颂锦府",
    "area": "107.95",
    "rooms": "3室2厅",
    "direction": "南",
    "floor": "",
    "price": "8000",
    "tags": "",
    "source": "",
    "url": "https://hz.lianjia.com/zufang/HZ2154807538355273728.html",
    "rent_type": "整租",
    "location": "拱墅区-和睦-星瓒颂锦府",
    "scraped_at": "2026-05-03 22:24:43",
    "region": "hemu",
    "unit_price": 74.1,
    "lat": 30.313384,
    "lng": 120.121302
  },
  {
    "title": "整租·华润绿城杭樾润府 4室2厅 南",
    "community": "华润绿城杭樾润府",
    "area": "139.00",
    "rooms": "4室2厅",
    "direction": "南",
    "floor": "",
    "price": "9680",
    "tags": "",
    "source": "",
    "url": "https://hz.lianjia.com/zufang/HZ2125188479267635200.html",
    "rent_type": "整租",
    "location": "拱墅区-和睦-华润绿城杭樾润府",
    "scraped_at": "2026-05-03 22:24:23",
    "region": "hemu",
    "unit_price": 69.6,
    "lat": 30.313384,
    "lng": 120.121302
  },
  {
    "title": "整租·万科古翠隐秀 3室2厅 南",
    "community": "万科古翠隐秀",
    "area": "122.84",
    "rooms": "3室2厅",
    "direction": "南",
    "floor": "",
    "price": "11000",
    "tags": "",
    "source": "",
    "url": "https://hz.lianjia.com/zufang/HZ2150068215076618240.html",
    "rent_type": "整租",
    "location": "拱墅区-和睦-万科古翠隐秀",
    "scraped_at": "2026-05-03 22:24:23",
    "region": "hemu",
    "unit_price": 89.5,
    "lat": 30.313384,
    "lng": 120.121302
  },
  {
    "title": "整租·中粮大悦城 2室1厅 南",
    "community": "中粮大悦城",
    "area": "47.89",
    "rooms": "2室1厅",
    "direction": "南",
    "floor": "",
    "price": "3700",
    "tags": "",
    "source": "",
    "url": "https://hz.lianjia.com/zufang/HZ2150913828676698112.html",
    "rent_type": "整租",
    "location": "拱墅区-和睦-中粮大悦城",
    "scraped_at": "2026-05-03 22:24:26",
    "region": "hemu",
    "unit_price": 77.3,
    "lat": 30.313384,
    "lng": 120.121302
  },
  {
    "title": "整租·万科古翠隐秀 4室2厅 南",
    "community": "万科古翠隐秀",
    "area": "144.00",
    "rooms": "4室2厅",
    "direction": "南",
    "floor": "",
    "price": "15000",
    "tags": "",
    "source": "",
    "url": "https://hz.lianjia.com/zufang/HZ2159613850368868352.html",
    "rent_type": "整租",
    "location": "拱墅区-和睦-万科古翠隐秀",
    "scraped_at": "2026-05-03 22:24:26",
    "region": "hemu",
    "unit_price": 104.2,
    "lat": 30.313384,
    "lng": 120.121302
  },
  {
    "title": "整租·都景公寓 3室2厅 东南",
    "community": "都景公寓",
    "area": "135.00",
    "rooms": "3室2厅",
    "direction": "东南",
    "floor": "",
    "price": "7200",
    "tags": "",
    "source": "",
    "url": "https://hz.lianjia.com/zufang/HZ2160250785932247040.html",
    "rent_type": "整租",
    "location": "拱墅区-和睦-都景公寓",
    "scraped_at": "2026-05-03 22:24:26",
    "region": "hemu",
    "unit_price": 53.3,
    "lat": 30.313384,
    "lng": 120.121302
  },
  {
    "title": "整租·吉兴公寓 2室1厅 南",
    "community": "吉兴公寓",
    "area": "76.00",
    "rooms": "2室1厅",
    "direction": "南",
    "floor": "",
    "price": "4000",
    "tags": "",
    "source": "",
    "url": "https://hz.lianjia.com/zufang/HZ2160602808699584512.html",
    "rent_type": "整租",
    "location": "拱墅区-和睦-吉兴公寓",
    "scraped_at": "2026-05-03 22:24:40",
    "region": "hemu",
    "unit_price": 52.6,
    "lat": 30.313384,
    "lng": 120.121302
  },
  {
    "title": "整租·杭曜置地中心一区 4室2厅 南",
    "community": "杭曜置地中心一区",
    "area": "137.96",
    "rooms": "4室2厅",
    "direction": "南",
    "floor": "",
    "price": "9500",
    "tags": "",
    "source": "",
    "url": "https://hz.lianjia.com/zufang/HZ2160724416508461056.html",
    "rent_type": "整租",
    "location": "拱墅区-和睦-杭曜置地中心一区",
    "scraped_at": "2026-05-03 22:24:26",
    "region": "hemu",
    "unit_price": 68.9,
    "lat": 30.316522,
    "lng": 120.119036
  },
  {
    "title": "整租·和睦新村 2室1厅 南",
    "community": "和睦新村",
    "area": "68.00",
    "rooms": "2室1厅",
    "direction": "南",
    "floor": "",
    "price": "3200",
    "tags": "",
    "source": "",
    "url": "https://hz.lianjia.com/zufang/HZ2157471464075296768.html",
    "rent_type": "整租",
    "location": "拱墅区-和睦-和睦新村",
    "scraped_at": "2026-05-03 22:24:36",
    "region": "hemu",
    "unit_price": 47.1,
    "lat": 30.31376,
    "lng": 120.11856
  },
  {
    "title": "整租·三宝郡庭 3室1厅 南",
    "community": "三宝郡庭",
    "area": "88.00",
    "rooms": "3室1厅",
    "direction": "南",
    "floor": "",
    "price": "4500",
    "tags": "",
    "source": "",
    "url": "https://hz.lianjia.com/zufang/HZ2161301474624143360.html",
    "rent_type": "整租",
    "location": "拱墅区-和睦-三宝郡庭",
    "scraped_at": "2026-05-03 22:24:36",
    "region": "hemu",
    "unit_price": 51.1,
    "lat": 30.300274,
    "lng": 120.135758
  },
  {
    "title": "整租·小河佳苑 2室2厅 南/北",
    "community": "小河佳苑",
    "area": "93.67",
    "rooms": "2室2厅",
    "direction": "南/北",
    "floor": "",
    "price": "3800",
    "tags": "",
    "source": "",
    "url": "https://hz.lianjia.com/zufang/HZ2144662256258908160.html",
    "rent_type": "整租",
    "location": "拱墅区-和睦-小河佳苑",
    "scraped_at": "2026-05-03 22:24:26",
    "region": "hemu",
    "unit_price": 40.6,
    "lat": 30.311481,
    "lng": 120.128812
  },
  {
    "title": "整租·星瓒颂锦府 4室2厅 南",
    "community": "星瓒颂锦府",
    "area": "129.00",
    "rooms": "4室2厅",
    "direction": "南",
    "floor": "",
    "price": "11800",
    "tags": "",
    "source": "",
    "url": "https://hz.lianjia.com/zufang/HZ2139273273869860864.html",
    "rent_type": "整租",
    "location": "拱墅区-和睦-星瓒颂锦府",
    "scraped_at": "2026-05-03 22:24:26",
    "region": "hemu",
    "unit_price": 91.5,
    "lat": 30.313384,
    "lng": 120.121302
  },
  {
    "title": "整租·万科古翠隐秀 4室2厅 南/北",
    "community": "万科古翠隐秀",
    "area": "197.00",
    "rooms": "4室2厅",
    "direction": "南/北",
    "floor": "",
    "price": "21800",
    "tags": "",
    "source": "",
    "url": "https://hz.lianjia.com/zufang/HZ2110630090025992192.html",
    "rent_type": "整租",
    "location": "拱墅区-和睦-万科古翠隐秀",
    "scraped_at": "2026-05-03 22:24:43",
    "region": "hemu",
    "unit_price": 110.7,
    "lat": 30.313384,
    "lng": 120.121302
  },
  {
    "title": "整租·首开杭州金茂府 4室2厅 南",
    "community": "首开杭州金茂府",
    "area": "168.00",
    "rooms": "4室2厅",
    "direction": "南",
    "floor": "",
    "price": "16000",
    "tags": "",
    "source": "",
    "url": "https://hz.lianjia.com/zufang/HZ2150453073695211520.html",
    "rent_type": "整租",
    "location": "拱墅区-和睦-首开杭州金茂府",
    "scraped_at": "2026-05-03 22:24:43",
    "region": "hemu",
    "unit_price": 95.2,
    "lat": 30.299893,
    "lng": 120.118937
  },
  {
    "title": "整租·都景公寓 2室1厅 南",
    "community": "都景公寓",
    "area": "74.00",
    "rooms": "2室1厅",
    "direction": "南",
    "floor": "",
    "price": "4200",
    "tags": "",
    "source": "",
    "url": "https://hz.lianjia.com/zufang/HZ2153341250747498496.html",
    "rent_type": "整租",
    "location": "拱墅区-和睦-都景公寓",
    "scraped_at": "2026-05-03 22:24:40",
    "region": "hemu",
    "unit_price": 56.8,
    "lat": 30.313384,
    "lng": 120.121302
  },
  {
    "title": "整租·和睦新村 2室1厅 南",
    "community": "和睦新村",
    "area": "46.87",
    "rooms": "2室1厅",
    "direction": "南",
    "floor": "",
    "price": "3100",
    "tags": "",
    "source": "",
    "url": "https://hz.lianjia.com/zufang/HZ2152730155900993536.html",
    "rent_type": "整租",
    "location": "拱墅区-和睦-和睦新村",
    "scraped_at": "2026-05-03 22:24:43",
    "region": "hemu",
    "unit_price": 66.1,
    "lat": 30.31376,
    "lng": 120.11856
  },
  {
    "title": "整租·和新南苑 2室2厅 南",
    "community": "和新南苑",
    "area": "59.05",
    "rooms": "2室2厅",
    "direction": "南",
    "floor": "",
    "price": "3100",
    "tags": "",
    "source": "",
    "url": "https://hz.lianjia.com/zufang/HZ2143620204909821952.html",
    "rent_type": "整租",
    "location": "拱墅区-和睦-和新南苑",
    "scraped_at": "2026-05-03 22:24:26",
    "region": "hemu",
    "unit_price": 52.5,
    "lat": 30.313384,
    "lng": 120.121302
  },
  {
    "title": "整租·庆隆苑三区 1室1厅 南",
    "community": "庆隆苑三区",
    "area": "45.00",
    "rooms": "1室1厅",
    "direction": "南",
    "floor": "",
    "price": "2385",
    "tags": "",
    "source": "",
    "url": "https://hz.lianjia.com/zufang/HZ2156373127708278784.html",
    "rent_type": "整租",
    "location": "拱墅区-和睦-庆隆苑三区",
    "scraped_at": "2026-05-03 22:24:26",
    "region": "hemu",
    "unit_price": 53.0,
    "lat": 30.29806,
    "lng": 120.11986
  },
  {
    "title": "整租·三宝郡庭 2室1厅 南",
    "community": "三宝郡庭",
    "area": "61.00",
    "rooms": "2室1厅",
    "direction": "南",
    "floor": "",
    "price": "4200",
    "tags": "",
    "source": "",
    "url": "https://hz.lianjia.com/zufang/HZ2161486996680212480.html",
    "rent_type": "整租",
    "location": "拱墅区-和睦-三宝郡庭",
    "scraped_at": "2026-05-03 22:24:36",
    "region": "hemu",
    "unit_price": 68.9,
    "lat": 30.300274,
    "lng": 120.135758
  },
  {
    "title": "整租·滨融府 5室2厅 南/北",
    "community": "滨融府",
    "area": "307.00",
    "rooms": "5室2厅",
    "direction": "南/北",
    "floor": "",
    "price": "29029",
    "tags": "",
    "source": "",
    "url": "https://hz.lianjia.com/zufang/HZ2137479557509283840.html",
    "rent_type": "整租",
    "location": "拱墅区-和睦-滨融府",
    "scraped_at": "2026-05-03 22:24:26",
    "region": "hemu",
    "unit_price": 94.6,
    "lat": 30.313384,
    "lng": 120.121302
  },
  {
    "title": "整租·广兴新村 2室1厅 南",
    "community": "广兴新村",
    "area": "70.00",
    "rooms": "2室1厅",
    "direction": "南",
    "floor": "",
    "price": "3000",
    "tags": "",
    "source": "",
    "url": "https://hz.lianjia.com/zufang/HZ2120473132593577984.html",
    "rent_type": "整租",
    "location": "拱墅区-和睦-广兴新村",
    "scraped_at": "2026-05-03 22:24:26",
    "region": "hemu",
    "unit_price": 42.9,
    "lat": 30.311872,
    "lng": 120.115741
  },
  {
    "title": "整租·华润绿城杭樾润府 4室2厅 东南",
    "community": "华润绿城杭樾润府",
    "area": "139.07",
    "rooms": "4室2厅",
    "direction": "东南",
    "floor": "",
    "price": "9000",
    "tags": "",
    "source": "",
    "url": "https://hz.lianjia.com/zufang/HZ2151714600179990528.html",
    "rent_type": "整租",
    "location": "拱墅区-和睦-华润绿城杭樾润府",
    "scraped_at": "2026-05-03 22:24:26",
    "region": "hemu",
    "unit_price": 64.7,
    "lat": 30.313384,
    "lng": 120.121302
  },
  {
    "title": "整租·揽云锦绣里 5室2厅 南/北",
    "community": "揽云锦绣里",
    "area": "225.00",
    "rooms": "5室2厅",
    "direction": "南/北",
    "floor": "",
    "price": "25000",
    "tags": "",
    "source": "",
    "url": "https://hz.lianjia.com/zufang/HZ2113571647251283968.html",
    "rent_type": "整租",
    "location": "拱墅区-和睦-揽云锦绣里",
    "scraped_at": "2026-05-03 22:24:26",
    "region": "hemu",
    "unit_price": 111.1,
    "lat": 30.313384,
    "lng": 120.121302
  },
  {
    "title": "整租·广兴新村 3室1厅 南",
    "community": "广兴新村",
    "area": "88.00",
    "rooms": "3室1厅",
    "direction": "南",
    "floor": "",
    "price": "3400",
    "tags": "",
    "source": "",
    "url": "https://hz.lianjia.com/zufang/HZ2155891604492124160.html",
    "rent_type": "整租",
    "location": "拱墅区-和睦-广兴新村",
    "scraped_at": "2026-05-03 22:24:40",
    "region": "hemu",
    "unit_price": 38.6,
    "lat": 30.311872,
    "lng": 120.115741
  },
  {
    "title": "整租·中粮大悦城 1室1厅 北",
    "community": "中粮大悦城",
    "area": "52.00",
    "rooms": "1室1厅",
    "direction": "北",
    "floor": "",
    "price": "3800",
    "tags": "",
    "source": "",
    "url": "https://hz.lianjia.com/zufang/HZ2142928003611492352.html",
    "rent_type": "整租",
    "location": "拱墅区-和睦-中粮大悦城",
    "scraped_at": "2026-05-03 22:24:26",
    "region": "hemu",
    "unit_price": 73.1,
    "lat": 30.313384,
    "lng": 120.121302
  },
  {
    "title": "整租·吉兴公寓 3室1厅 南",
    "community": "吉兴公寓",
    "area": "88.63",
    "rooms": "3室1厅",
    "direction": "南",
    "floor": "",
    "price": "4800",
    "tags": "",
    "source": "",
    "url": "https://hz.lianjia.com/zufang/HZ2148704238702690304.html",
    "rent_type": "整租",
    "location": "拱墅区-和睦-吉兴公寓",
    "scraped_at": "2026-05-03 22:24:26",
    "region": "hemu",
    "unit_price": 54.2,
    "lat": 30.313384,
    "lng": 120.121302
  },
  {
    "title": "整租·和睦新村 2室1厅 南",
    "community": "和睦新村",
    "area": "54.00",
    "rooms": "2室1厅",
    "direction": "南",
    "floor": "",
    "price": "3100",
    "tags": "",
    "source": "",
    "url": "https://hz.lianjia.com/zufang/HZ2142933306419707904.html",
    "rent_type": "整租",
    "location": "拱墅区-和睦-和睦新村",
    "scraped_at": "2026-05-03 22:24:36",
    "region": "hemu",
    "unit_price": 57.4,
    "lat": 30.31376,
    "lng": 120.11856
  },
  {
    "title": "整租·华润绿城杭樾润府 3室2厅 南",
    "community": "华润绿城杭樾润府",
    "area": "115.00",
    "rooms": "3室2厅",
    "direction": "南",
    "floor": "",
    "price": "7000",
    "tags": "",
    "source": "",
    "url": "https://hz.lianjia.com/zufang/HZ2094626346427744256.html",
    "rent_type": "整租",
    "location": "拱墅区-和睦-华润绿城杭樾润府",
    "scraped_at": "2026-05-03 22:24:26",
    "region": "hemu",
    "unit_price": 60.9,
    "lat": 30.313384,
    "lng": 120.121302
  },
  {
    "title": "整租·首开杭州金茂府 4室2厅 南",
    "community": "首开杭州金茂府",
    "area": "167.93",
    "rooms": "4室2厅",
    "direction": "南",
    "floor": "",
    "price": "19000",
    "tags": "",
    "source": "",
    "url": "https://hz.lianjia.com/zufang/HZ2141392296413757440.html",
    "rent_type": "整租",
    "location": "拱墅区-和睦-首开杭州金茂府",
    "scraped_at": "2026-05-03 22:24:26",
    "region": "hemu",
    "unit_price": 113.1,
    "lat": 30.299893,
    "lng": 120.118937
  },
  {
    "title": "整租·三宝郡庭 1室1厅 南",
    "community": "三宝郡庭",
    "area": "61.00",
    "rooms": "1室1厅",
    "direction": "南",
    "floor": "",
    "price": "3750",
    "tags": "",
    "source": "",
    "url": "https://hz.lianjia.com/zufang/HZ2159171717996478464.html",
    "rent_type": "整租",
    "location": "拱墅区-和睦-三宝郡庭",
    "scraped_at": "2026-05-03 22:24:26",
    "region": "hemu",
    "unit_price": 61.5,
    "lat": 30.300274,
    "lng": 120.135758
  },
  {
    "title": "整租·三宝郡庭 2室1厅 南",
    "community": "三宝郡庭",
    "area": "64.00",
    "rooms": "2室1厅",
    "direction": "南",
    "floor": "",
    "price": "3100",
    "tags": "",
    "source": "",
    "url": "https://hz.lianjia.com/zufang/HZ2094666709347598336.html",
    "rent_type": "整租",
    "location": "拱墅区-和睦-三宝郡庭",
    "scraped_at": "2026-05-03 22:24:36",
    "region": "hemu",
    "unit_price": 48.4,
    "lat": 30.300274,
    "lng": 120.135758
  },
  {
    "title": "整租·星瓒颂锦府 4室2厅 南",
    "community": "星瓒颂锦府",
    "area": "139.00",
    "rooms": "4室2厅",
    "direction": "南",
    "floor": "",
    "price": "12000",
    "tags": "",
    "source": "",
    "url": "https://hz.lianjia.com/zufang/HZ2161695146746314752.html",
    "rent_type": "整租",
    "location": "拱墅区-和睦-星瓒颂锦府",
    "scraped_at": "2026-05-03 22:24:29",
    "region": "hemu",
    "unit_price": 86.3,
    "lat": 30.313384,
    "lng": 120.121302
  },
  {
    "title": "整租·中粮大悦城 2室1厅 西北",
    "community": "中粮大悦城",
    "area": "54.00",
    "rooms": "2室1厅",
    "direction": "西北",
    "floor": "",
    "price": "4600",
    "tags": "",
    "source": "",
    "url": "https://hz.lianjia.com/zufang/HZ2154812545985150976.html",
    "rent_type": "整租",
    "location": "拱墅区-和睦-中粮大悦城",
    "scraped_at": "2026-05-03 22:24:29",
    "region": "hemu",
    "unit_price": 85.2,
    "lat": 30.313384,
    "lng": 120.121302
  },
  {
    "title": "整租·滨江锦绣之城 4室2厅 南",
    "community": "滨江锦绣之城",
    "area": "129.00",
    "rooms": "4室2厅",
    "direction": "南",
    "floor": "",
    "price": "13800",
    "tags": "",
    "source": "",
    "url": "https://hz.lianjia.com/zufang/HZ2158831953866915840.html",
    "rent_type": "整租",
    "location": "拱墅区-和睦-滨江锦绣之城",
    "scraped_at": "2026-05-03 22:24:29",
    "region": "hemu",
    "unit_price": 107.0,
    "lat": 30.313384,
    "lng": 120.121302
  },
  {
    "title": "整租·馥香园 5室2厅 南",
    "community": "馥香园",
    "area": "243.60",
    "rooms": "5室2厅",
    "direction": "南",
    "floor": "",
    "price": "30000",
    "tags": "",
    "source": "",
    "url": "https://hz.lianjia.com/zufang/HZ2142569911300390912.html",
    "rent_type": "整租",
    "location": "拱墅区-和睦-馥香园",
    "scraped_at": "2026-05-03 22:24:36",
    "region": "hemu",
    "unit_price": 123.2,
    "lat": 30.313384,
    "lng": 120.121302
  },
  {
    "title": "整租·小河佳苑 2室1厅 南",
    "community": "小河佳苑",
    "area": "63.19",
    "rooms": "2室1厅",
    "direction": "南",
    "floor": "",
    "price": "4000",
    "tags": "",
    "source": "",
    "url": "https://hz.lianjia.com/zufang/HZ2150509380712267776.html",
    "rent_type": "整租",
    "location": "拱墅区-和睦-小河佳苑",
    "scraped_at": "2026-05-03 22:24:29",
    "region": "hemu",
    "unit_price": 63.3,
    "lat": 30.311481,
    "lng": 120.128812
  },
  {
    "title": "整租·景上公寓 3室2厅 南",
    "community": "景上公寓",
    "area": "127.00",
    "rooms": "3室2厅",
    "direction": "南",
    "floor": "",
    "price": "6500",
    "tags": "",
    "source": "",
    "url": "https://hz.lianjia.com/zufang/HZ2154440167581024256.html",
    "rent_type": "整租",
    "location": "拱墅区-和睦-景上公寓",
    "scraped_at": "2026-05-03 22:24:29",
    "region": "hemu",
    "unit_price": 51.2,
    "lat": 30.313384,
    "lng": 120.121302
  },
  {
    "title": "整租·吉兴公寓 2室1厅 南",
    "community": "吉兴公寓",
    "area": "51.00",
    "rooms": "2室1厅",
    "direction": "南",
    "floor": "",
    "price": "2800",
    "tags": "",
    "source": "",
    "url": "https://hz.lianjia.com/zufang/HZ2157044228079747072.html",
    "rent_type": "整租",
    "location": "拱墅区-和睦-吉兴公寓",
    "scraped_at": "2026-05-03 22:24:40",
    "region": "hemu",
    "unit_price": 54.9,
    "lat": 30.313384,
    "lng": 120.121302
  },
  {
    "title": "整租·三宝郡庭 2室1厅 南",
    "community": "三宝郡庭",
    "area": "65.00",
    "rooms": "2室1厅",
    "direction": "南",
    "floor": "",
    "price": "3900",
    "tags": "",
    "source": "",
    "url": "https://hz.lianjia.com/zufang/HZ2153410866140151808.html",
    "rent_type": "整租",
    "location": "拱墅区-和睦-三宝郡庭",
    "scraped_at": "2026-05-03 22:24:29",
    "region": "hemu",
    "unit_price": 60.0,
    "lat": 30.300274,
    "lng": 120.135758
  },
  {
    "title": "整租·首开杭州金茂府 3室2厅 南",
    "community": "首开杭州金茂府",
    "area": "144.00",
    "rooms": "3室2厅",
    "direction": "南",
    "floor": "",
    "price": "15000",
    "tags": "",
    "source": "",
    "url": "https://hz.lianjia.com/zufang/HZ2151316597183086592.html",
    "rent_type": "整租",
    "location": "拱墅区-和睦-首开杭州金茂府",
    "scraped_at": "2026-05-03 22:24:29",
    "region": "hemu",
    "unit_price": 104.2,
    "lat": 30.299893,
    "lng": 120.118937
  },
  {
    "title": "整租·和新南苑 2室1厅 南/北",
    "community": "和新南苑",
    "area": "71.08",
    "rooms": "2室1厅",
    "direction": "南/北",
    "floor": "",
    "price": "3300",
    "tags": "",
    "source": "",
    "url": "https://hz.lianjia.com/zufang/HZ2127632867386195968.html",
    "rent_type": "整租",
    "location": "拱墅区-和睦-和新南苑",
    "scraped_at": "2026-05-03 22:24:29",
    "region": "hemu",
    "unit_price": 46.4,
    "lat": 30.313384,
    "lng": 120.121302
  },
  {
    "title": "整租·联合世纪新筑 2室2厅 南",
    "community": "联合世纪新筑",
    "area": "89.00",
    "rooms": "2室2厅",
    "direction": "南",
    "floor": "",
    "price": "4600",
    "tags": "",
    "source": "",
    "url": "https://hz.lianjia.com/zufang/HZ2117089156680122368.html",
    "rent_type": "整租",
    "location": "拱墅区-和睦-联合世纪新筑",
    "scraped_at": "2026-05-03 22:24:29",
    "region": "hemu",
    "unit_price": 51.7,
    "lat": 30.313384,
    "lng": 120.121302
  },
  {
    "title": "整租·滨融府 3室2厅 南",
    "community": "滨融府",
    "area": "120.00",
    "rooms": "3室2厅",
    "direction": "南",
    "floor": "",
    "price": "11000",
    "tags": "",
    "source": "",
    "url": "https://hz.lianjia.com/zufang/HZ2137794230393765888.html",
    "rent_type": "整租",
    "location": "拱墅区-和睦-滨融府",
    "scraped_at": "2026-05-03 22:24:29",
    "region": "hemu",
    "unit_price": 91.7,
    "lat": 30.313384,
    "lng": 120.121302
  },
  {
    "title": "整租·都景公寓 2室1厅 南",
    "community": "都景公寓",
    "area": "87.00",
    "rooms": "2室1厅",
    "direction": "南",
    "floor": "",
    "price": "4800",
    "tags": "",
    "source": "",
    "url": "https://hz.lianjia.com/zufang/HZ2153462290890883072.html",
    "rent_type": "整租",
    "location": "拱墅区-和睦-都景公寓",
    "scraped_at": "2026-05-03 22:24:29",
    "region": "hemu",
    "unit_price": 55.2,
    "lat": 30.313384,
    "lng": 120.121302
  },
  {
    "title": "整租·庆隆苑三区 2室0厅 南",
    "community": "庆隆苑三区",
    "area": "45.00",
    "rooms": "2室0厅",
    "direction": "南",
    "floor": "",
    "price": "2600",
    "tags": "",
    "source": "",
    "url": "https://hz.lianjia.com/zufang/HZ2093531020295929856.html",
    "rent_type": "整租",
    "location": "拱墅区-和睦-庆隆苑三区",
    "scraped_at": "2026-05-03 22:24:29",
    "region": "hemu",
    "unit_price": 57.8,
    "lat": 30.29806,
    "lng": 120.11986
  },
  {
    "title": "整租·中粮大悦城 2室2厅 LOFT 东南/南",
    "community": "中粮大悦城",
    "area": "110.00",
    "rooms": "2室2厅",
    "direction": "",
    "floor": "",
    "price": "7500",
    "tags": "",
    "source": "",
    "url": "https://hz.lianjia.com/zufang/HZ2156594460975169536.html",
    "rent_type": "整租",
    "location": "拱墅区-和睦-中粮大悦城",
    "scraped_at": "2026-05-03 22:24:29",
    "region": "hemu",
    "unit_price": 68.2,
    "lat": 30.313384,
    "lng": 120.121302
  },
  {
    "title": "整租·万科古翠隐秀 3室2厅 南",
    "community": "万科古翠隐秀",
    "area": "104.00",
    "rooms": "3室2厅",
    "direction": "南",
    "floor": "",
    "price": "10500",
    "tags": "",
    "source": "",
    "url": "https://hz.lianjia.com/zufang/HZ2151269217880506368.html",
    "rent_type": "整租",
    "location": "拱墅区-和睦-万科古翠隐秀",
    "scraped_at": "2026-05-03 22:24:43",
    "region": "hemu",
    "unit_price": 101.0,
    "lat": 30.313384,
    "lng": 120.121302
  },
  {
    "title": "整租·星瓒颂锦府 4室2厅 西南",
    "community": "星瓒颂锦府",
    "area": "177.00",
    "rooms": "4室2厅",
    "direction": "西南",
    "floor": "",
    "price": "12800",
    "tags": "",
    "source": "",
    "url": "https://hz.lianjia.com/zufang/HZ2148341162623107072.html",
    "rent_type": "整租",
    "location": "拱墅区-和睦-星瓒颂锦府",
    "scraped_at": "2026-05-03 22:24:29",
    "region": "hemu",
    "unit_price": 72.3,
    "lat": 30.313384,
    "lng": 120.121302
  },
  {
    "title": "整租·华丰新村 5室1厅 南",
    "community": "华丰新村",
    "area": "77.00",
    "rooms": "5室1厅",
    "direction": "南",
    "floor": "",
    "price": "3100",
    "tags": "",
    "source": "",
    "url": "https://hz.lianjia.com/zufang/HZ2142963050439770112.html",
    "rent_type": "整租",
    "location": "拱墅区-和睦-华丰新村",
    "scraped_at": "2026-05-03 22:24:36",
    "region": "hemu",
    "unit_price": 40.3,
    "lat": 30.31426,
    "lng": 120.12232
  },
  {
    "title": "整租·中粮大悦城 1室1厅 南",
    "community": "中粮大悦城",
    "area": "70.00",
    "rooms": "1室1厅",
    "direction": "南",
    "floor": "",
    "price": "5800",
    "tags": "",
    "source": "",
    "url": "https://hz.lianjia.com/zufang/HZ2156617259412357120.html",
    "rent_type": "整租",
    "location": "拱墅区-和睦-中粮大悦城",
    "scraped_at": "2026-05-03 22:24:29",
    "region": "hemu",
    "unit_price": 82.9,
    "lat": 30.313384,
    "lng": 120.121302
  },
  {
    "title": "整租·中粮大悦城 1室1厅 南",
    "community": "中粮大悦城",
    "area": "70.00",
    "rooms": "1室1厅",
    "direction": "南",
    "floor": "",
    "price": "6000",
    "tags": "",
    "source": "",
    "url": "https://hz.lianjia.com/zufang/HZ2149718962684821504.html",
    "rent_type": "整租",
    "location": "拱墅区-和睦-中粮大悦城",
    "scraped_at": "2026-05-03 22:24:29",
    "region": "hemu",
    "unit_price": 85.7,
    "lat": 30.313384,
    "lng": 120.121302
  },
  {
    "title": "整租·天悦府 3室2厅 南",
    "community": "天悦府",
    "area": "120.00",
    "rooms": "3室2厅",
    "direction": "南",
    "floor": "",
    "price": "9200",
    "tags": "",
    "source": "",
    "url": "https://hz.lianjia.com/zufang/HZ2156030594599878656.html",
    "rent_type": "整租",
    "location": "拱墅区-和睦-天悦府",
    "scraped_at": "2026-05-03 22:24:36",
    "region": "hemu",
    "unit_price": 76.7,
    "lat": 30.313384,
    "lng": 120.121302
  },
  {
    "title": "整租·三宝郡庭 2室0厅 南",
    "community": "三宝郡庭",
    "area": "50.00",
    "rooms": "2室0厅",
    "direction": "南",
    "floor": "",
    "price": "2850",
    "tags": "",
    "source": "",
    "url": "https://hz.lianjia.com/zufang/HZ2149088585536503808.html",
    "rent_type": "整租",
    "location": "拱墅区-和睦-三宝郡庭",
    "scraped_at": "2026-05-03 22:24:29",
    "region": "hemu",
    "unit_price": 57.0,
    "lat": 30.300274,
    "lng": 120.135758
  },
  {
    "title": "整租·滨融府 4室1厅 南",
    "community": "滨融府",
    "area": "139.00",
    "rooms": "4室1厅",
    "direction": "南",
    "floor": "",
    "price": "15000",
    "tags": "",
    "source": "",
    "url": "https://hz.lianjia.com/zufang/HZ2153056468394311680.html",
    "rent_type": "整租",
    "location": "拱墅区-和睦-滨融府",
    "scraped_at": "2026-05-03 22:24:40",
    "region": "hemu",
    "unit_price": 107.9,
    "lat": 30.313384,
    "lng": 120.121302
  },
  {
    "title": "整租·杭曜置地中心二区 4室2厅 南",
    "community": "杭曜置地中心二区",
    "area": "179.71",
    "rooms": "4室2厅",
    "direction": "南",
    "floor": "",
    "price": "13000",
    "tags": "",
    "source": "",
    "url": "https://hz.lianjia.com/zufang/HZ2152430127311486976.html",
    "rent_type": "整租",
    "location": "拱墅区-和睦-杭曜置地中心二区",
    "scraped_at": "2026-05-03 22:24:40",
    "region": "hemu",
    "unit_price": 72.3,
    "lat": 30.314952,
    "lng": 120.117105
  },
  {
    "title": "整租·三宝郡庭 2室1厅 南/北",
    "community": "三宝郡庭",
    "area": "61.00",
    "rooms": "2室1厅",
    "direction": "南/北",
    "floor": "",
    "price": "3300",
    "tags": "",
    "source": "",
    "url": "https://hz.lianjia.com/zufang/HZ2145738747205910528.html",
    "rent_type": "整租",
    "location": "拱墅区-和睦-三宝郡庭",
    "scraped_at": "2026-05-03 22:24:29",
    "region": "hemu",
    "unit_price": 54.1,
    "lat": 30.300274,
    "lng": 120.135758
  },
  {
    "title": "整租·滨融府 4室2厅 南",
    "community": "滨融府",
    "area": "139.96",
    "rooms": "4室2厅",
    "direction": "南",
    "floor": "",
    "price": "13800",
    "tags": "",
    "source": "",
    "url": "https://hz.lianjia.com/zufang/HZ2146523716236869632.html",
    "rent_type": "整租",
    "location": "拱墅区-和睦-滨融府",
    "scraped_at": "2026-05-03 22:24:29",
    "region": "hemu",
    "unit_price": 98.6,
    "lat": 30.313384,
    "lng": 120.121302
  },
  {
    "title": "整租·揽云锦绣里 5室2厅 南",
    "community": "揽云锦绣里",
    "area": "268.00",
    "rooms": "5室2厅",
    "direction": "南",
    "floor": "",
    "price": "26000",
    "tags": "",
    "source": "",
    "url": "https://hz.lianjia.com/zufang/HZ2133055143996817408.html",
    "rent_type": "整租",
    "location": "拱墅区-和睦-揽云锦绣里",
    "scraped_at": "2026-05-03 22:24:29",
    "region": "hemu",
    "unit_price": 97.0,
    "lat": 30.313384,
    "lng": 120.121302
  },
  {
    "title": "整租·杭曜置地中心二区 4室2厅 南",
    "community": "杭曜置地中心二区",
    "area": "139.00",
    "rooms": "4室2厅",
    "direction": "南",
    "floor": "",
    "price": "12000",
    "tags": "",
    "source": "",
    "url": "https://hz.lianjia.com/zufang/HZ2121192096520994816.html",
    "rent_type": "整租",
    "location": "拱墅区-和睦-杭曜置地中心二区",
    "scraped_at": "2026-05-03 22:24:29",
    "region": "hemu",
    "unit_price": 86.3,
    "lat": 30.314952,
    "lng": 120.117105
  },
  {
    "title": "整租·广兴新村 3室2厅 南",
    "community": "广兴新村",
    "area": "86.00",
    "rooms": "3室2厅",
    "direction": "南",
    "floor": "",
    "price": "3300",
    "tags": "",
    "source": "",
    "url": "https://hz.lianjia.com/zufang/HZ2108072374489317376.html",
    "rent_type": "整租",
    "location": "拱墅区-和睦-广兴新村",
    "scraped_at": "2026-05-03 22:24:29",
    "region": "hemu",
    "unit_price": 38.4,
    "lat": 30.311872,
    "lng": 120.115741
  },
  {
    "title": "整租·中粮大悦城 2室1厅 复式 东北",
    "community": "中粮大悦城",
    "area": "69.00",
    "rooms": "2室1厅",
    "direction": "",
    "floor": "",
    "price": "5500",
    "tags": "",
    "source": "",
    "url": "https://hz.lianjia.com/zufang/HZ2115054395707097088.html",
    "rent_type": "整租",
    "location": "拱墅区-和睦-中粮大悦城",
    "scraped_at": "2026-05-03 22:24:29",
    "region": "hemu",
    "unit_price": 79.7,
    "lat": 30.313384,
    "lng": 120.121302
  },
  {
    "title": "整租·长征桥路48弄 2室1厅 南/北",
    "community": "长征桥路48弄",
    "area": "50.00",
    "rooms": "2室1厅",
    "direction": "南/北",
    "floor": "",
    "price": "3100",
    "tags": "",
    "source": "",
    "url": "https://hz.lianjia.com/zufang/HZ2139675487201394688.html",
    "rent_type": "整租",
    "location": "拱墅区-和睦-长征桥路",
    "scraped_at": "2026-05-03 22:24:33",
    "region": "hemu",
    "unit_price": 62.0,
    "lat": 30.311281,
    "lng": 120.123912
  },
  {
    "title": "整租·三宝郡庭 2室1厅 南",
    "community": "三宝郡庭",
    "area": "61.00",
    "rooms": "2室1厅",
    "direction": "南",
    "floor": "",
    "price": "3600",
    "tags": "",
    "source": "",
    "url": "https://hz.lianjia.com/zufang/HZ2154877929950019584.html",
    "rent_type": "整租",
    "location": "拱墅区-和睦-三宝郡庭",
    "scraped_at": "2026-05-03 22:24:33",
    "region": "hemu",
    "unit_price": 59.0,
    "lat": 30.300274,
    "lng": 120.135758
  },
  {
    "title": "整租·庆隆苑一区 3室1厅 南",
    "community": "庆隆苑一区",
    "area": "61.60",
    "rooms": "3室1厅",
    "direction": "南",
    "floor": "",
    "price": "3500",
    "tags": "",
    "source": "",
    "url": "https://hz.lianjia.com/zufang/HZ2115354576591781888.html",
    "rent_type": "整租",
    "location": "拱墅区-和睦-庆隆苑一区",
    "scraped_at": "2026-05-03 22:24:33",
    "region": "hemu",
    "unit_price": 56.8,
    "lat": 30.297394,
    "lng": 120.118568
  },
  {
    "title": "整租·华润绿城杭樾润府 4室2厅 南",
    "community": "华润绿城杭樾润府",
    "area": "177.00",
    "rooms": "4室2厅",
    "direction": "南",
    "floor": "",
    "price": "14600",
    "tags": "",
    "source": "",
    "url": "https://hz.lianjia.com/zufang/HZ2154943982562443264.html",
    "rent_type": "整租",
    "location": "拱墅区-和睦-华润绿城杭樾润府",
    "scraped_at": "2026-05-03 22:24:33",
    "region": "hemu",
    "unit_price": 82.5,
    "lat": 30.313384,
    "lng": 120.121302
  },
  {
    "title": "整租·杭曜置地中心一区 4室2厅 南",
    "community": "杭曜置地中心一区",
    "area": "139.00",
    "rooms": "4室2厅",
    "direction": "南",
    "floor": "",
    "price": "11500",
    "tags": "",
    "source": "",
    "url": "https://hz.lianjia.com/zufang/HZ2150165993417080832.html",
    "rent_type": "整租",
    "location": "拱墅区-和睦-杭曜置地中心一区",
    "scraped_at": "2026-05-03 22:24:33",
    "region": "hemu",
    "unit_price": 82.7,
    "lat": 30.316522,
    "lng": 120.119036
  },
  {
    "title": "合租·都景公寓 2居室 南卧",
    "community": "都景公寓 2居室 南卧",
    "area": "35.00",
    "rooms": "",
    "direction": "",
    "floor": "",
    "price": "2100",
    "tags": "",
    "source": "",
    "url": "https://hz.lianjia.com/zufang/HZ2161706072224563200.html",
    "rent_type": "合租",
    "location": "拱墅区-和睦-都景公寓",
    "scraped_at": "2026-05-03 22:24:40",
    "region": "hemu",
    "unit_price": 60.0,
    "lat": 30.31119,
    "lng": 120.12725
  },
  {
    "title": "整租·登云路154号 2室1厅 南",
    "community": "登云路154号",
    "area": "55.00",
    "rooms": "2室1厅",
    "direction": "南",
    "floor": "",
    "price": "2500",
    "tags": "",
    "source": "",
    "url": "https://hz.lianjia.com/zufang/HZ2093305575344439296.html",
    "rent_type": "整租",
    "location": "拱墅区-和睦-登云路",
    "scraped_at": "2026-05-03 22:24:33",
    "region": "hemu",
    "unit_price": 45.5,
    "lat": 30.313061,
    "lng": 120.123542
  },
  {
    "title": "整租·庆隆苑一区 2室1厅 南",
    "community": "庆隆苑一区",
    "area": "116.00",
    "rooms": "2室1厅",
    "direction": "南",
    "floor": "",
    "price": "4950",
    "tags": "",
    "source": "",
    "url": "https://hz.lianjia.com/zufang/HZ2156600279749885952.html",
    "rent_type": "整租",
    "location": "拱墅区-和睦-庆隆苑一区",
    "scraped_at": "2026-05-03 22:24:43",
    "region": "hemu",
    "unit_price": 42.7,
    "lat": 30.297394,
    "lng": 120.118568
  },
  {
    "title": "整租·星瓒颂锦府 4室2厅 南",
    "community": "星瓒颂锦府",
    "area": "177.00",
    "rooms": "4室2厅",
    "direction": "南",
    "floor": "",
    "price": "13000",
    "tags": "",
    "source": "",
    "url": "https://hz.lianjia.com/zufang/HZ2142225037241876480.html",
    "rent_type": "整租",
    "location": "拱墅区-和睦-星瓒颂锦府",
    "scraped_at": "2026-05-03 22:24:36",
    "region": "hemu",
    "unit_price": 73.4,
    "lat": 30.313384,
    "lng": 120.121302
  },
  {
    "title": "整租·庆隆苑二区 2室1厅 南",
    "community": "庆隆苑二区",
    "area": "85.00",
    "rooms": "2室1厅",
    "direction": "南",
    "floor": "",
    "price": "3600",
    "tags": "",
    "source": "",
    "url": "https://hz.lianjia.com/zufang/HZ2158836852306477056.html",
    "rent_type": "整租",
    "location": "拱墅区-和睦-庆隆苑二区",
    "scraped_at": "2026-05-03 22:24:40",
    "region": "hemu",
    "unit_price": 42.4,
    "lat": 30.29808,
    "lng": 120.1183
  },
  {
    "title": "合租·三宝郡庭 2居室 南卧",
    "community": "三宝郡庭 2居室 南卧",
    "area": "50.00",
    "rooms": "",
    "direction": "",
    "floor": "",
    "price": "2500",
    "tags": "",
    "source": "",
    "url": "https://hz.lianjia.com/zufang/HZ2157691941192466432.html",
    "rent_type": "合租",
    "location": "拱墅区-和睦-三宝郡庭",
    "scraped_at": "2026-05-03 22:24:40",
    "region": "hemu",
    "unit_price": 50.0,
    "lat": 30.300274,
    "lng": 120.135758
  },
  {
    "title": "整租·和睦新村 2室1厅 南",
    "community": "和睦新村",
    "area": "36.00",
    "rooms": "2室1厅",
    "direction": "南",
    "floor": "",
    "price": "2800",
    "tags": "",
    "source": "",
    "url": "https://hz.lianjia.com/zufang/HZ2154437801150513152.html",
    "rent_type": "整租",
    "location": "拱墅区-和睦-和睦新村",
    "scraped_at": "2026-05-03 22:24:33",
    "region": "hemu",
    "unit_price": 77.8,
    "lat": 30.31376,
    "lng": 120.11856
  },
  {
    "title": "整租·和睦新村 3室2厅 南",
    "community": "和睦新村",
    "area": "80.00",
    "rooms": "3室2厅",
    "direction": "南",
    "floor": "",
    "price": "3800",
    "tags": "",
    "source": "",
    "url": "https://hz.lianjia.com/zufang/HZ2150555520631570432.html",
    "rent_type": "整租",
    "location": "拱墅区-和睦-和睦新村",
    "scraped_at": "2026-05-03 22:24:36",
    "region": "hemu",
    "unit_price": 47.5,
    "lat": 30.31376,
    "lng": 120.11856
  },
  {
    "title": "整租·和睦新村 1室1厅 南",
    "community": "和睦新村",
    "area": "52.00",
    "rooms": "1室1厅",
    "direction": "南",
    "floor": "",
    "price": "2700",
    "tags": "",
    "source": "",
    "url": "https://hz.lianjia.com/zufang/HZ2143972002531115008.html",
    "rent_type": "整租",
    "location": "拱墅区-和睦-和睦新村",
    "scraped_at": "2026-05-03 22:24:36",
    "region": "hemu",
    "unit_price": 51.9,
    "lat": 30.31376,
    "lng": 120.11856
  },
  {
    "title": "合租·小河佳苑 4居室 西北卧",
    "community": "小河佳苑 4居室 西北卧",
    "area": "20.00",
    "rooms": "",
    "direction": "",
    "floor": "",
    "price": "850",
    "tags": "",
    "source": "",
    "url": "https://hz.lianjia.com/zufang/HZ2143213658354745344.html",
    "rent_type": "合租",
    "location": "拱墅区-和睦-小河佳苑",
    "scraped_at": "2026-05-03 22:24:36",
    "region": "hemu",
    "unit_price": 42.5,
    "lat": 30.311481,
    "lng": 120.128812
  },
  {
    "title": "整租·广兴新村 2室1厅 南",
    "community": "广兴新村",
    "area": "55.00",
    "rooms": "2室1厅",
    "direction": "南",
    "floor": "",
    "price": "2100",
    "tags": "",
    "source": "",
    "url": "https://hz.lianjia.com/zufang/HZ2082323721741139968.html",
    "rent_type": "整租",
    "location": "拱墅区-和睦-广兴新村",
    "scraped_at": "2026-05-03 22:24:33",
    "region": "hemu",
    "unit_price": 38.2,
    "lat": 30.311872,
    "lng": 120.115741
  },
  {
    "title": "整租·和睦新村 2室1厅 南",
    "community": "和睦新村",
    "area": "46.36",
    "rooms": "2室1厅",
    "direction": "南",
    "floor": "",
    "price": "2500",
    "tags": "",
    "source": "",
    "url": "https://hz.lianjia.com/zufang/HZ2140036519904149504.html",
    "rent_type": "整租",
    "location": "拱墅区-和睦-和睦新村",
    "scraped_at": "2026-05-03 22:24:33",
    "region": "hemu",
    "unit_price": 53.9,
    "lat": 30.31376,
    "lng": 120.11856
  },
  {
    "title": "整租·凯德湖墅 1室1厅 南",
    "community": "凯德湖墅",
    "area": "52.29",
    "rooms": "1室1厅",
    "direction": "南",
    "floor": "",
    "price": "3200",
    "tags": "",
    "source": "",
    "url": "https://hz.lianjia.com/zufang/HZ2141499894605545472.html",
    "rent_type": "整租",
    "location": "拱墅区-和睦-凯德湖墅",
    "scraped_at": "2026-05-03 22:24:36",
    "region": "hemu",
    "unit_price": 61.2,
    "lat": 30.313384,
    "lng": 120.121302
  },
  {
    "title": "整租·中粮大悦城 2室1厅 LOFT 南",
    "community": "中粮大悦城",
    "area": "97.00",
    "rooms": "2室1厅",
    "direction": "",
    "floor": "",
    "price": "8000",
    "tags": "",
    "source": "",
    "url": "https://hz.lianjia.com/zufang/HZ2153060480602603520.html",
    "rent_type": "整租",
    "location": "拱墅区-和睦-中粮大悦城",
    "scraped_at": "2026-05-03 22:24:40",
    "region": "hemu",
    "unit_price": 82.5,
    "lat": 30.313384,
    "lng": 120.121302
  },
  {
    "title": "合租·庆隆苑一区 2居室 北卧",
    "community": "庆隆苑一区 2居室 北卧",
    "area": "23.00",
    "rooms": "",
    "direction": "",
    "floor": "",
    "price": "1000",
    "tags": "",
    "source": "",
    "url": "https://hz.lianjia.com/zufang/HZ2146177764519051264.html",
    "rent_type": "合租",
    "location": "拱墅区-和睦-庆隆苑一区",
    "scraped_at": "2026-05-03 22:24:33",
    "region": "hemu",
    "unit_price": 43.5,
    "lat": 30.297394,
    "lng": 120.118568
  },
  {
    "title": "合租·三宝郡庭 2居室 南卧",
    "community": "三宝郡庭 2居室 南卧",
    "area": "30.00",
    "rooms": "",
    "direction": "",
    "floor": "",
    "price": "1600",
    "tags": "",
    "source": "",
    "url": "https://hz.lianjia.com/zufang/HZ2160355469749649408.html",
    "rent_type": "合租",
    "location": "拱墅区-和睦-三宝郡庭",
    "scraped_at": "2026-05-03 22:24:40",
    "region": "hemu",
    "unit_price": 53.3,
    "lat": 30.300274,
    "lng": 120.135758
  },
  {
    "title": "合租·和睦新村 2居室 南卧",
    "community": "和睦新村 2居室 南卧",
    "area": "18.00",
    "rooms": "",
    "direction": "",
    "floor": "",
    "price": "1200",
    "tags": "",
    "source": "",
    "url": "https://hz.lianjia.com/zufang/HZ2159493613946404864.html",
    "rent_type": "合租",
    "location": "拱墅区-和睦-和睦新村",
    "scraped_at": "2026-05-03 22:24:33",
    "region": "hemu",
    "unit_price": 66.7,
    "lat": 30.311024,
    "lng": 120.121413
  },
  {
    "title": "整租·小河佳苑 2室1厅 南",
    "community": "小河佳苑",
    "area": "68.00",
    "rooms": "2室1厅",
    "direction": "南",
    "floor": "",
    "price": "3300",
    "tags": "",
    "source": "",
    "url": "https://hz.lianjia.com/zufang/HZ2160958445547683840.html",
    "rent_type": "整租",
    "location": "拱墅区-和睦-小河佳苑",
    "scraped_at": "2026-05-03 22:24:33",
    "region": "hemu",
    "unit_price": 48.5,
    "lat": 30.311481,
    "lng": 120.128812
  },
  {
    "title": "整租·小河佳苑 3室2厅 南",
    "community": "小河佳苑",
    "area": "93.00",
    "rooms": "3室2厅",
    "direction": "南",
    "floor": "",
    "price": "4500",
    "tags": "",
    "source": "",
    "url": "https://hz.lianjia.com/zufang/HZ2161811324508569600.html",
    "rent_type": "整租",
    "location": "拱墅区-和睦-小河佳苑",
    "scraped_at": "2026-05-03 22:24:43",
    "region": "hemu",
    "unit_price": 48.4,
    "lat": 30.311481,
    "lng": 120.128812
  },
  {
    "title": "整租·庆隆苑三区 2室1厅 南",
    "community": "庆隆苑三区",
    "area": "65.00",
    "rooms": "2室1厅",
    "direction": "南",
    "floor": "",
    "price": "3500",
    "tags": "",
    "source": "",
    "url": "https://hz.lianjia.com/zufang/HZ2162053249450901504.html",
    "rent_type": "整租",
    "location": "拱墅区-和睦-庆隆苑三区",
    "scraped_at": "2026-05-03 22:24:33",
    "region": "hemu",
    "unit_price": 53.8,
    "lat": 30.29806,
    "lng": 120.11986
  },
  {
    "title": "整租·凯德湖墅 2室1厅 南",
    "community": "凯德湖墅",
    "area": "89.00",
    "rooms": "2室1厅",
    "direction": "南",
    "floor": "",
    "price": "5800",
    "tags": "",
    "source": "",
    "url": "https://hz.lianjia.com/zufang/HZ2162161247942868992.html",
    "rent_type": "整租",
    "location": "拱墅区-和睦-凯德湖墅",
    "scraped_at": "2026-05-03 22:24:43",
    "region": "hemu",
    "unit_price": 65.2,
    "lat": 30.313384,
    "lng": 120.121302
  },
  {
    "title": "整租·联合世纪新筑 3室2厅 西南",
    "community": "联合世纪新筑",
    "area": "118.00",
    "rooms": "3室2厅",
    "direction": "西南",
    "floor": "",
    "price": "5800",
    "tags": "",
    "source": "",
    "url": "https://hz.lianjia.com/zufang/HZ2147617799986479104.html",
    "rent_type": "整租",
    "location": "拱墅区-和睦-联合世纪新筑",
    "scraped_at": "2026-05-03 22:24:33",
    "region": "hemu",
    "unit_price": 49.2,
    "lat": 30.313384,
    "lng": 120.121302
  },
  {
    "title": "整租·中粮大悦城 1室1厅 西",
    "community": "中粮大悦城",
    "area": "52.37",
    "rooms": "1室1厅",
    "direction": "西",
    "floor": "",
    "price": "4200",
    "tags": "",
    "source": "",
    "url": "https://hz.lianjia.com/zufang/HZ2157811178867261440.html",
    "rent_type": "整租",
    "location": "拱墅区-和睦-中粮大悦城",
    "scraped_at": "2026-05-03 22:24:33",
    "region": "hemu",
    "unit_price": 80.2,
    "lat": 30.313384,
    "lng": 120.121302
  },
  {
    "title": "整租·馥香园 4室3厅 南",
    "community": "馥香园",
    "area": "245.00",
    "rooms": "4室3厅",
    "direction": "南",
    "floor": "",
    "price": "26000",
    "tags": "",
    "source": "",
    "url": "https://hz.lianjia.com/zufang/HZ2131388801023475712.html",
    "rent_type": "整租",
    "location": "拱墅区-和睦-馥香园",
    "scraped_at": "2026-05-03 22:24:33",
    "region": "hemu",
    "unit_price": 106.1,
    "lat": 30.313384,
    "lng": 120.121302
  },
  {
    "title": "整租·馥香园 4室2厅 南",
    "community": "馥香园",
    "area": "175.00",
    "rooms": "4室2厅",
    "direction": "南",
    "floor": "",
    "price": "17000",
    "tags": "",
    "source": "",
    "url": "https://hz.lianjia.com/zufang/HZ2153747170962964480.html",
    "rent_type": "整租",
    "location": "拱墅区-和睦-馥香园",
    "scraped_at": "2026-05-03 22:24:33",
    "region": "hemu",
    "unit_price": 97.1,
    "lat": 30.313384,
    "lng": 120.121302
  },
  {
    "title": "整租·都景公寓 2室1厅 南",
    "community": "都景公寓",
    "area": "66.00",
    "rooms": "2室1厅",
    "direction": "南",
    "floor": "",
    "price": "3700",
    "tags": "",
    "source": "",
    "url": "https://hz.lianjia.com/zufang/HZ2156653175283646464.html",
    "rent_type": "整租",
    "location": "拱墅区-和睦-都景公寓",
    "scraped_at": "2026-05-03 22:24:36",
    "region": "hemu",
    "unit_price": 56.1,
    "lat": 30.313384,
    "lng": 120.121302
  },
  {
    "title": "整租·小河佳苑 2室1厅 南",
    "community": "小河佳苑",
    "area": "61.00",
    "rooms": "2室1厅",
    "direction": "南",
    "floor": "",
    "price": "3300",
    "tags": "",
    "source": "",
    "url": "https://hz.lianjia.com/zufang/HZ2151580908837142528.html",
    "rent_type": "整租",
    "location": "拱墅区-和睦-小河佳苑",
    "scraped_at": "2026-05-03 22:24:36",
    "region": "hemu",
    "unit_price": 54.1,
    "lat": 30.311481,
    "lng": 120.128812
  },
  {
    "title": "整租·星瓒颂锦府 4室2厅 南",
    "community": "星瓒颂锦府",
    "area": "139.00",
    "rooms": "4室2厅",
    "direction": "南",
    "floor": "",
    "price": "12000",
    "tags": "",
    "source": "",
    "url": "https://hz.lianjia.com/zufang/HZ2157381817060032512.html",
    "rent_type": "整租",
    "location": "拱墅区-和睦-星瓒颂锦府",
    "scraped_at": "2026-05-03 22:24:36",
    "region": "hemu",
    "unit_price": 86.3,
    "lat": 30.313384,
    "lng": 120.121302
  },
  {
    "title": "整租·和睦新村 2室1厅 南",
    "community": "和睦新村",
    "area": "65.00",
    "rooms": "2室1厅",
    "direction": "南",
    "floor": "",
    "price": "3500",
    "tags": "",
    "source": "",
    "url": "https://hz.lianjia.com/zufang/HZ2141456199780925440.html",
    "rent_type": "整租",
    "location": "拱墅区-和睦-和睦新村",
    "scraped_at": "2026-05-03 22:24:36",
    "region": "hemu",
    "unit_price": 53.8,
    "lat": 30.31376,
    "lng": 120.11856
  },
  {
    "title": "整租·和睦新村 2室1厅 南",
    "community": "和睦新村",
    "area": "54.00",
    "rooms": "2室1厅",
    "direction": "南",
    "floor": "",
    "price": "3500",
    "tags": "",
    "source": "",
    "url": "https://hz.lianjia.com/zufang/HZ2161054756242456576.html",
    "rent_type": "整租",
    "location": "拱墅区-和睦-和睦新村",
    "scraped_at": "2026-05-03 22:24:36",
    "region": "hemu",
    "unit_price": 64.8,
    "lat": 30.31376,
    "lng": 120.11856
  },
  {
    "title": "整租·和新南苑 2室1厅 南",
    "community": "和新南苑",
    "area": "65.00",
    "rooms": "2室1厅",
    "direction": "南",
    "floor": "",
    "price": "3350",
    "tags": "",
    "source": "",
    "url": "https://hz.lianjia.com/zufang/HZ2141536875670667264.html",
    "rent_type": "整租",
    "location": "拱墅区-和睦-和新南苑",
    "scraped_at": "2026-05-03 22:24:36",
    "region": "hemu",
    "unit_price": 51.5,
    "lat": 30.313384,
    "lng": 120.121302
  },
  {
    "title": "整租·和睦新村 2室1厅 南",
    "community": "和睦新村",
    "area": "50.00",
    "rooms": "2室1厅",
    "direction": "南",
    "floor": "",
    "price": "3000",
    "tags": "",
    "source": "",
    "url": "https://hz.lianjia.com/zufang/HZ2142943997809655808.html",
    "rent_type": "整租",
    "location": "拱墅区-和睦-和睦新村",
    "scraped_at": "2026-05-03 22:24:36",
    "region": "hemu",
    "unit_price": 60.0,
    "lat": 30.31376,
    "lng": 120.11856
  },
  {
    "title": "整租·万科古翠隐秀 3室2厅 东南",
    "community": "万科古翠隐秀",
    "area": "125.00",
    "rooms": "3室2厅",
    "direction": "东南",
    "floor": "",
    "price": "12500",
    "tags": "",
    "source": "",
    "url": "https://hz.lianjia.com/zufang/HZ2143286476958334976.html",
    "rent_type": "整租",
    "location": "拱墅区-和睦-万科古翠隐秀",
    "scraped_at": "2026-05-03 22:24:36",
    "region": "hemu",
    "unit_price": 100.0,
    "lat": 30.313384,
    "lng": 120.121302
  },
  {
    "title": "整租·都景公寓 2室1厅 南",
    "community": "都景公寓",
    "area": "65.00",
    "rooms": "2室1厅",
    "direction": "南",
    "floor": "",
    "price": "3800",
    "tags": "",
    "source": "",
    "url": "https://hz.lianjia.com/zufang/HZ2143695811618275328.html",
    "rent_type": "整租",
    "location": "拱墅区-和睦-都景公寓",
    "scraped_at": "2026-05-03 22:24:36",
    "region": "hemu",
    "unit_price": 58.5,
    "lat": 30.313384,
    "lng": 120.121302
  },
  {
    "title": "整租·滨融府 4室2厅 南",
    "community": "滨融府",
    "area": "139.00",
    "rooms": "4室2厅",
    "direction": "南",
    "floor": "",
    "price": "14800",
    "tags": "",
    "source": "",
    "url": "https://hz.lianjia.com/zufang/HZ2143941817836503040.html",
    "rent_type": "整租",
    "location": "拱墅区-和睦-滨融府",
    "scraped_at": "2026-05-03 22:24:36",
    "region": "hemu",
    "unit_price": 106.5,
    "lat": 30.313384,
    "lng": 120.121302
  },
  {
    "title": "合租·庆隆苑一区 2居室 南卧",
    "community": "庆隆苑一区 2居室 南卧",
    "area": "18.00",
    "rooms": "",
    "direction": "",
    "floor": "",
    "price": "1000",
    "tags": "",
    "source": "",
    "url": "https://hz.lianjia.com/zufang/HZ2144717934751121408.html",
    "rent_type": "合租",
    "location": "拱墅区-和睦-庆隆苑一区",
    "scraped_at": "2026-05-03 22:24:36",
    "region": "hemu",
    "unit_price": 55.6,
    "lat": 30.297394,
    "lng": 120.118568
  },
  {
    "title": "整租·庆隆苑三区 2室1厅 南",
    "community": "庆隆苑三区",
    "area": "65.20",
    "rooms": "2室1厅",
    "direction": "南",
    "floor": "",
    "price": "3600",
    "tags": "",
    "source": "",
    "url": "https://hz.lianjia.com/zufang/HZ2145803843823206400.html",
    "rent_type": "整租",
    "location": "拱墅区-和睦-庆隆苑三区",
    "scraped_at": "2026-05-03 22:24:36",
    "region": "hemu",
    "unit_price": 55.2,
    "lat": 30.29806,
    "lng": 120.11986
  },
  {
    "title": "整租·杭曜置地中心二区 4室2厅 南",
    "community": "杭曜置地中心二区",
    "area": "178.00",
    "rooms": "4室2厅",
    "direction": "南",
    "floor": "",
    "price": "16500",
    "tags": "",
    "source": "",
    "url": "https://hz.lianjia.com/zufang/HZ2160675885982679040.html",
    "rent_type": "整租",
    "location": "拱墅区-和睦-杭曜置地中心二区",
    "scraped_at": "2026-05-03 22:24:40",
    "region": "hemu",
    "unit_price": 92.7,
    "lat": 30.314952,
    "lng": 120.117105
  },
  {
    "title": "整租·和新北苑 2室1厅 南",
    "community": "和新北苑",
    "area": "73.00",
    "rooms": "2室1厅",
    "direction": "南",
    "floor": "",
    "price": "3400",
    "tags": "",
    "source": "",
    "url": "https://hz.lianjia.com/zufang/HZ2161482332450586624.html",
    "rent_type": "整租",
    "location": "拱墅区-和睦-和新北苑",
    "scraped_at": "2026-05-03 22:24:40",
    "region": "hemu",
    "unit_price": 46.6,
    "lat": 30.313384,
    "lng": 120.121302
  },
  {
    "title": "整租·华润绿城杭樾润府 4室2厅 南",
    "community": "华润绿城杭樾润府",
    "area": "173.00",
    "rooms": "4室2厅",
    "direction": "南",
    "floor": "",
    "price": "14500",
    "tags": "",
    "source": "",
    "url": "https://hz.lianjia.com/zufang/HZ2158958437726158848.html",
    "rent_type": "整租",
    "location": "拱墅区-和睦-华润绿城杭樾润府",
    "scraped_at": "2026-05-03 22:24:40",
    "region": "hemu",
    "unit_price": 83.8,
    "lat": 30.313384,
    "lng": 120.121302
  },
  {
    "title": "合租·三宝郡庭 1居室 南卧",
    "community": "三宝郡庭 1居室 南卧",
    "area": "35.00",
    "rooms": "",
    "direction": "",
    "floor": "",
    "price": "2500",
    "tags": "",
    "source": "",
    "url": "https://hz.lianjia.com/zufang/HZ2159184944721559552.html",
    "rent_type": "合租",
    "location": "拱墅区-和睦-三宝郡庭",
    "scraped_at": "2026-05-03 22:24:40",
    "region": "hemu",
    "unit_price": 71.4,
    "lat": 30.300274,
    "lng": 120.135758
  },
  {
    "title": "整租·万科古翠隐秀 3室2厅 南",
    "community": "万科古翠隐秀",
    "area": "125.00",
    "rooms": "3室2厅",
    "direction": "南",
    "floor": "",
    "price": "14000",
    "tags": "",
    "source": "",
    "url": "https://hz.lianjia.com/zufang/HZ2154891168599506944.html",
    "rent_type": "整租",
    "location": "拱墅区-和睦-万科古翠隐秀",
    "scraped_at": "2026-05-03 22:24:43",
    "region": "hemu",
    "unit_price": 112.0,
    "lat": 30.313384,
    "lng": 120.121302
  },
  {
    "title": "整租·华丰新村 2室1厅 南",
    "community": "华丰新村",
    "area": "53.00",
    "rooms": "2室1厅",
    "direction": "南",
    "floor": "",
    "price": "2300",
    "tags": "",
    "source": "",
    "url": "https://hz.lianjia.com/zufang/HZ2155190352032563200.html",
    "rent_type": "整租",
    "location": "拱墅区-和睦-华丰新村",
    "scraped_at": "2026-05-03 22:24:43",
    "region": "hemu",
    "unit_price": 43.4,
    "lat": 30.31426,
    "lng": 120.12232
  },
  {
    "title": "整租·和睦新村 2室1厅 南",
    "community": "和睦新村",
    "area": "55.00",
    "rooms": "2室1厅",
    "direction": "南",
    "floor": "",
    "price": "2900",
    "tags": "",
    "source": "",
    "url": "https://hz.lianjia.com/zufang/HZ2153068013350289408.html",
    "rent_type": "整租",
    "location": "拱墅区-和睦-和睦新村",
    "scraped_at": "2026-05-03 22:24:40",
    "region": "hemu",
    "unit_price": 52.7,
    "lat": 30.31376,
    "lng": 120.11856
  },
  {
    "title": "整租·凯德湖墅 1室1厅 南",
    "community": "凯德湖墅",
    "area": "53.07",
    "rooms": "1室1厅",
    "direction": "南",
    "floor": "",
    "price": "3500",
    "tags": "",
    "source": "",
    "url": "https://hz.lianjia.com/zufang/HZ2153006721449066496.html",
    "rent_type": "整租",
    "location": "拱墅区-和睦-凯德湖墅",
    "scraped_at": "2026-05-03 22:24:40",
    "region": "hemu",
    "unit_price": 66.0,
    "lat": 30.313384,
    "lng": 120.121302
  },
  {
    "title": "整租·万科古翠隐秀 4室2厅 南",
    "community": "万科古翠隐秀",
    "area": "144.00",
    "rooms": "4室2厅",
    "direction": "南",
    "floor": "",
    "price": "14000",
    "tags": "",
    "source": "",
    "url": "https://hz.lianjia.com/zufang/HZ2152993199482732544.html",
    "rent_type": "整租",
    "location": "拱墅区-和睦-万科古翠隐秀",
    "scraped_at": "2026-05-03 22:24:40",
    "region": "hemu",
    "unit_price": 97.2,
    "lat": 30.313384,
    "lng": 120.121302
  },
  {
    "title": "整租·明真宫 2室1厅 南",
    "community": "明真宫",
    "area": "55.66",
    "rooms": "2室1厅",
    "direction": "南",
    "floor": "",
    "price": "2700",
    "tags": "",
    "source": "",
    "url": "https://hz.lianjia.com/zufang/HZ2153043193573146624.html",
    "rent_type": "整租",
    "location": "拱墅区-和睦-明真宫",
    "scraped_at": "2026-05-03 22:24:40",
    "region": "hemu",
    "unit_price": 48.5,
    "lat": 30.313384,
    "lng": 120.121302
  },
  {
    "title": "整租·小河佳苑 3室1厅 南",
    "community": "小河佳苑",
    "area": "127.00",
    "rooms": "3室1厅",
    "direction": "南",
    "floor": "",
    "price": "6000",
    "tags": "",
    "source": "",
    "url": "https://hz.lianjia.com/zufang/HZ2153152603372912640.html",
    "rent_type": "整租",
    "location": "拱墅区-和睦-小河佳苑",
    "scraped_at": "2026-05-03 22:24:40",
    "region": "hemu",
    "unit_price": 47.2,
    "lat": 30.311481,
    "lng": 120.128812
  },
  {
    "title": "整租·杭曜置地中心二区 3室2厅 南",
    "community": "杭曜置地中心二区",
    "area": "118.00",
    "rooms": "3室2厅",
    "direction": "南",
    "floor": "",
    "price": "8800",
    "tags": "",
    "source": "",
    "url": "https://hz.lianjia.com/zufang/HZ2161766723164831744.html",
    "rent_type": "整租",
    "location": "拱墅区-和睦-杭曜置地中心二区",
    "scraped_at": "2026-05-03 22:24:40",
    "region": "hemu",
    "unit_price": 74.6,
    "lat": 30.314952,
    "lng": 120.117105
  },
  {
    "title": "整租·广兴新村 1室1厅 南",
    "community": "广兴新村",
    "area": "31.48",
    "rooms": "1室1厅",
    "direction": "南",
    "floor": "",
    "price": "1980",
    "tags": "",
    "source": "",
    "url": "https://hz.lianjia.com/zufang/HZ2154791542361948160.html",
    "rent_type": "整租",
    "location": "拱墅区-和睦-广兴新村",
    "scraped_at": "2026-05-03 22:24:43",
    "region": "hemu",
    "unit_price": 62.9,
    "lat": 30.311872,
    "lng": 120.115741
  },
  {
    "title": "合租·庆隆苑一区 4居室 南卧",
    "community": "庆隆苑一区 4居室 南卧",
    "area": "25.00",
    "rooms": "",
    "direction": "",
    "floor": "",
    "price": "1200",
    "tags": "",
    "source": "",
    "url": "https://hz.lianjia.com/zufang/HZ2155531131976417280.html",
    "rent_type": "合租",
    "location": "拱墅区-和睦-庆隆苑一区",
    "scraped_at": "2026-05-03 22:24:43",
    "region": "hemu",
    "unit_price": 48.0,
    "lat": 30.297394,
    "lng": 120.118568
  },
  {
    "title": "整租·杭曜置地中心一区 4室2厅 南",
    "community": "杭曜置地中心一区",
    "area": "137.97",
    "rooms": "4室2厅",
    "direction": "南",
    "floor": "",
    "price": "9800",
    "tags": "",
    "source": "",
    "url": "https://hz.lianjia.com/zufang/HZ2153346936382423040.html",
    "rent_type": "整租",
    "location": "拱墅区-和睦-杭曜置地中心一区",
    "scraped_at": "2026-05-03 22:24:43",
    "region": "hemu",
    "unit_price": 71.0,
    "lat": 30.316522,
    "lng": 120.119036
  },
  {
    "title": "整租·万科古翠隐秀 3室2厅 南",
    "community": "万科古翠隐秀",
    "area": "123.00",
    "rooms": "3室2厅",
    "direction": "南",
    "floor": "",
    "price": "13000",
    "tags": "",
    "source": "",
    "url": "https://hz.lianjia.com/zufang/HZ2156267289844908032.html",
    "rent_type": "整租",
    "location": "拱墅区-和睦-万科古翠隐秀",
    "scraped_at": "2026-05-03 22:24:43",
    "region": "hemu",
    "unit_price": 105.7,
    "lat": 30.313384,
    "lng": 120.121302
  },
  {
    "title": "整租·三宝郡庭 2室1厅 南",
    "community": "三宝郡庭",
    "area": "87.00",
    "rooms": "2室1厅",
    "direction": "南",
    "floor": "",
    "price": "3900",
    "tags": "",
    "source": "",
    "url": "https://hz.lianjia.com/zufang/HZ2140821862257524736.html",
    "rent_type": "整租",
    "location": "拱墅区-和睦-三宝郡庭",
    "scraped_at": "2026-05-03 22:24:43",
    "region": "hemu",
    "unit_price": 44.8,
    "lat": 30.300274,
    "lng": 120.135758
  },
  {
    "title": "整租·和睦新村 2室1厅 南",
    "community": "和睦新村",
    "area": "47.00",
    "rooms": "2室1厅",
    "direction": "南",
    "floor": "",
    "price": "3200",
    "tags": "",
    "source": "",
    "url": "https://hz.lianjia.com/zufang/HZ2142194083098001408.html",
    "rent_type": "整租",
    "location": "拱墅区-和睦-和睦新村",
    "scraped_at": "2026-05-03 22:24:43",
    "region": "hemu",
    "unit_price": 68.1,
    "lat": 30.31376,
    "lng": 120.11856
  },
  {
    "title": "整租·和睦新村 2室2厅 南/北",
    "community": "和睦新村",
    "area": "65.00",
    "rooms": "2室2厅",
    "direction": "南/北",
    "floor": "",
    "price": "3780",
    "tags": "",
    "source": "",
    "url": "https://hz.lianjia.com/zufang/HZ2141897854824742912.html",
    "rent_type": "整租",
    "location": "拱墅区-和睦-和睦新村",
    "scraped_at": "2026-05-03 22:24:43",
    "region": "hemu",
    "unit_price": 58.2,
    "lat": 30.31376,
    "lng": 120.11856
  },
  {
    "title": "整租·三宝郡庭 2室1厅 南",
    "community": "三宝郡庭",
    "area": "64.00",
    "rooms": "2室1厅",
    "direction": "南",
    "floor": "",
    "price": "3600",
    "tags": "",
    "source": "",
    "url": "https://hz.lianjia.com/zufang/HZ2151979857351802880.html",
    "rent_type": "整租",
    "location": "拱墅区-和睦-三宝郡庭",
    "scraped_at": "2026-05-03 22:24:43",
    "region": "hemu",
    "unit_price": 56.2,
    "lat": 30.300274,
    "lng": 120.135758
  },
  {
    "title": "整租·万科古翠隐秀 3室2厅 南",
    "community": "万科古翠隐秀",
    "area": "104.00",
    "rooms": "3室2厅",
    "direction": "南",
    "floor": "",
    "price": "10500",
    "tags": "",
    "source": "",
    "url": "https://hz.lianjia.com/zufang/HZ2139344122299809792.html",
    "rent_type": "整租",
    "location": "拱墅区-和睦-万科古翠隐秀",
    "scraped_at": "2026-05-03 22:24:43",
    "region": "hemu",
    "unit_price": 101.0,
    "lat": 30.313384,
    "lng": 120.121302
  },
  {
    "title": "整租·中粮大悦城 2室1厅 西南",
    "community": "中粮大悦城",
    "area": "64.00",
    "rooms": "2室1厅",
    "direction": "西南",
    "floor": "",
    "price": "5600",
    "tags": "",
    "source": "",
    "url": "https://hz.lianjia.com/zufang/HZ2146275126302212096.html",
    "rent_type": "整租",
    "location": "拱墅区-和睦-中粮大悦城",
    "scraped_at": "2026-05-03 22:24:43",
    "region": "hemu",
    "unit_price": 87.5,
    "lat": 30.313384,
    "lng": 120.121302
  },
  {
    "title": "整租·杭曜置地中心一区 3室2厅 南",
    "community": "杭曜置地中心一区",
    "area": "118.00",
    "rooms": "3室2厅",
    "direction": "南",
    "floor": "",
    "price": "8800",
    "tags": "",
    "source": "",
    "url": "https://hz.lianjia.com/zufang/HZ2161020507741224960.html",
    "rent_type": "整租",
    "location": "拱墅区-和睦-杭曜置地中心一区",
    "scraped_at": "2026-05-03 22:24:43",
    "region": "hemu",
    "unit_price": 74.6,
    "lat": 30.316522,
    "lng": 120.119036
  },
  {
    "title": "整租·中粮大悦城 1室1厅 北",
    "community": "中粮大悦城",
    "area": "58.00",
    "rooms": "1室1厅",
    "direction": "北",
    "floor": "",
    "price": "4200",
    "tags": "",
    "source": "",
    "url": "https://hz.lianjia.com/zufang/HZ2161340970174513152.html",
    "rent_type": "整租",
    "location": "拱墅区-和睦-中粮大悦城",
    "scraped_at": "2026-05-03 22:24:43",
    "region": "hemu",
    "unit_price": 72.4,
    "lat": 30.313384,
    "lng": 120.121302
  },
  {
    "title": "整租·吉兴公寓 3室1厅 南/北",
    "community": "吉兴公寓",
    "area": "85.00",
    "rooms": "3室1厅",
    "direction": "南/北",
    "floor": "",
    "price": "4600",
    "tags": "",
    "source": "",
    "url": "https://hz.lianjia.com/zufang/HZ2150858222666252288.html",
    "rent_type": "整租",
    "location": "拱墅区-和睦-吉兴公寓",
    "scraped_at": "2026-05-03 22:24:43",
    "region": "hemu",
    "unit_price": 54.1,
    "lat": 30.313384,
    "lng": 120.121302
  },
  {
    "title": "整租·华润绿城杭樾润府 3室2厅 南",
    "community": "华润绿城杭樾润府",
    "area": "115.00",
    "rooms": "3室2厅",
    "direction": "南",
    "floor": "",
    "price": "7200",
    "tags": "",
    "source": "",
    "url": "https://hz.lianjia.com/zufang/HZ2161706191149858816.html",
    "rent_type": "整租",
    "location": "拱墅区-和睦-华润绿城杭樾润府",
    "scraped_at": "2026-05-03 22:24:43",
    "region": "hemu",
    "unit_price": 62.6,
    "lat": 30.313384,
    "lng": 120.121302
  },
  {
    "title": "整租·联合世纪新筑 3室2厅 南",
    "community": "联合世纪新筑",
    "area": "146.00",
    "rooms": "3室2厅",
    "direction": "南",
    "floor": "",
    "price": "6500",
    "tags": "",
    "source": "",
    "url": "https://hz.lianjia.com/zufang/HZ2142597215653199872.html",
    "rent_type": "整租",
    "location": "拱墅区-和睦-联合世纪新筑",
    "scraped_at": "2026-05-03 22:24:43",
    "region": "hemu",
    "unit_price": 44.5,
    "lat": 30.313384,
    "lng": 120.121302
  },
  {
    "title": "整租·和睦院 2室1厅 南",
    "community": "和睦院",
    "area": "45.00",
    "rooms": "2室1厅",
    "direction": "南",
    "floor": "",
    "price": "3500",
    "tags": "",
    "source": "",
    "url": "https://hz.lianjia.com/zufang/HZ2155534618579697664.html",
    "rent_type": "整租",
    "location": "拱墅区-和睦-和睦院",
    "scraped_at": "2026-05-03 22:24:43",
    "region": "hemu",
    "unit_price": 77.8,
    "lat": 30.313384,
    "lng": 120.121302
  },
  {
    "title": "整租·吉兴公寓 2室0厅 南",
    "community": "吉兴公寓",
    "area": "56.00",
    "rooms": "2室0厅",
    "direction": "南",
    "floor": "",
    "price": "3300",
    "tags": "",
    "source": "",
    "url": "https://hz.lianjia.com/zufang/HZ2085638720765034496.html",
    "rent_type": "整租",
    "location": "拱墅区-和睦-吉兴公寓",
    "scraped_at": "2026-05-03 22:24:43",
    "region": "hemu",
    "unit_price": 58.9,
    "lat": 30.313384,
    "lng": 120.121302
  },
  {
    "title": "整租·长征桥路48弄 1室1厅 南",
    "community": "长征桥路48弄",
    "area": "30.00",
    "rooms": "1室1厅",
    "direction": "南",
    "floor": "",
    "price": "2000",
    "tags": "",
    "source": "",
    "url": "https://hz.lianjia.com/zufang/HZ2161066800576462848.html",
    "rent_type": "整租",
    "location": "拱墅区-和睦-长征桥路",
    "scraped_at": "2026-05-03 22:25:06",
    "region": "hemu",
    "unit_price": 66.7,
    "lat": 30.311281,
    "lng": 120.123912
  }
]