[
  {
    "title": "整租·香洲里 4室1厅 南",
    "community": "香洲里",
    "area": "83.56",
    "rooms": "4室1厅",
    "direction": "南",
    "floor": "",
    "price": "3500",
    "tags": "",
    "source": "",
    "url": "https://hz.lianjia.com/zufang/HZ2113567671256612864.html",
    "rent_type": "整租",
    "location": "余杭区-西溪-香洲里",
    "scraped_at": "2026-05-04 00:01:23",
    "region": "xixi",
    "unit_price": 41.9,
    "lat": 30.208812,
    "lng": 119.989229
  },
  {
    "title": "整租·西溪君庐 5室2厅 南",
    "community": "西溪君庐",
    "area": "178.00",
    "rooms": "5室2厅",
    "direction": "南",
    "floor": "",
    "price": "5500",
    "tags": "",
    "source": "",
    "url": "https://hz.lianjia.com/zufang/HZ2159638581545533440.html",
    "rent_type": "整租",
    "location": "余杭区-西溪-西溪君庐",
    "scraped_at": "2026-05-03 23:57:13",
    "region": "xixi",
    "unit_price": 30.9,
    "lat": 30.242597,
    "lng": 119.973481
  },
  {
    "title": "整租·坤和和家园 4室2厅 南/北",
    "community": "坤和和家园",
    "area": "138.30",
    "rooms": "4室2厅",
    "direction": "南/北",
    "floor": "",
    "price": "6800",
    "tags": "",
    "source": "",
    "url": "https://hz.lianjia.com/zufang/HZ2149473388857393152.html",
    "rent_type": "整租",
    "location": "西湖区-西溪-坤和和家园",
    "scraped_at": "2026-05-04 00:01:23",
    "region": "xixi",
    "unit_price": 49.2,
    "lat": 30.288491,
    "lng": 120.140846
  },
  {
    "title": "独栋·冠寓 西溪店 五一特价两室两卫整租！情侣闺蜜租好房 西湖区3号线地铁口300米 2室1厅",
    "community": "冠寓 西溪店 五一特价两室两卫整租！情侣闺蜜租好房 西湖区3号线地铁口300米",
    "area": "64.00",
    "rooms": "2室1厅",
    "direction": "",
    "floor": "",
    "price": "2999",
    "tags": "",
    "source": "",
    "url": "https://hz.lianjia.com/apartment/24620.html",
    "rent_type": "独栋",
    "location": "",
    "scraped_at": "2026-05-03 23:57:17",
    "region": "xixi",
    "unit_price": 46.9,
    "lat": 30.267885,
    "lng": 120.099315
  },
  {
    "title": "整租·世茂西溪宸悦 1室1厅 北",
    "community": "世茂西溪宸悦",
    "area": "38.00",
    "rooms": "1室1厅",
    "direction": "北",
    "floor": "",
    "price": "2000",
    "tags": "",
    "source": "",
    "url": "https://hz.lianjia.com/zufang/HZ2042555488423378944.html",
    "rent_type": "整租",
    "location": "西湖区-西溪-世茂西溪宸悦",
    "scraped_at": "2026-05-04 00:01:23",
    "region": "xixi",
    "unit_price": 52.6,
    "lat": 30.295638,
    "lng": 120.06694
  },
  {
    "title": "独栋·能建·龙湖冠寓 中杭府店 免费地铁接驳车-西溪板块首选跃层 可短租 民水民电 品牌公寓直租 1室1厅",
    "community": "能建·龙湖冠寓 中杭府店 免费地铁接驳车-西溪板块首选跃层 可短租 民水民电 品牌公寓直租",
    "area": "109.00",
    "rooms": "1室1厅",
    "direction": "",
    "floor": "",
    "price": "3255",
    "tags": "",
    "source": "",
    "url": "https://hz.lianjia.com/apartment/73585.html",
    "rent_type": "独栋",
    "location": "",
    "scraped_at": "2026-05-03 23:57:17",
    "region": "xixi",
    "unit_price": 29.9,
    "lat": 30.132301,
    "lng": 120.08101
  },
  {
    "title": "整租·龙湖西溪天街 1室1厅 东",
    "community": "龙湖西溪天街",
    "area": "39.00",
    "rooms": "1室1厅",
    "direction": "东",
    "floor": "",
    "price": "1850",
    "tags": "",
    "source": "",
    "url": "https://hz.lianjia.com/zufang/HZ2047571222144745472.html",
    "rent_type": "整租",
    "location": "西湖区-西溪-龙湖西溪天街",
    "scraped_at": "2026-05-03 23:57:13",
    "region": "xixi",
    "unit_price": 47.4,
    "lat": 30.295649,
    "lng": 120.063681
  },
  {
    "title": "整租·西溪晴雪 4室2厅 南",
    "community": "西溪晴雪",
    "area": "188.00",
    "rooms": "4室2厅",
    "direction": "南",
    "floor": "",
    "price": "7500",
    "tags": "",
    "source": "",
    "url": "https://hz.lianjia.com/zufang/HZ2142523689655074816.html",
    "rent_type": "整租",
    "location": "西湖区-西溪-西溪晴雪",
    "scraped_at": "2026-05-03 23:57:13",
    "region": "xixi",
    "unit_price": 39.9,
    "lat": 30.245327,
    "lng": 120.049473
  },
  {
    "title": "整租·融创河滨之城雨澜轩 3室2厅 南",
    "community": "融创河滨之城雨澜轩",
    "area": "89.00",
    "rooms": "3室2厅",
    "direction": "南",
    "floor": "",
    "price": "4700",
    "tags": "",
    "source": "",
    "url": "https://hz.lianjia.com/zufang/HZ2151527728803741696.html",
    "rent_type": "整租",
    "location": "西湖区-西溪-融创河滨之城雨澜轩",
    "scraped_at": "2026-05-04 00:01:23",
    "region": "xixi",
    "unit_price": 52.8,
    "lat": 30.288491,
    "lng": 120.140846
  },
  {
    "title": "独栋·冠寓 西溪蓝保店 焕新好房95特价房持续推出！ 3号地铁直达武林 整租朝阳 1室1厅",
    "community": "冠寓 西溪蓝保店 焕新好房95特价房持续推出！ 3号地铁直达武林 整租朝阳",
    "area": "19.00",
    "rooms": "1室1厅",
    "direction": "",
    "floor": "",
    "price": "1326",
    "tags": "",
    "source": "",
    "url": "https://hz.lianjia.com/apartment/1459.html",
    "rent_type": "独栋",
    "location": "",
    "scraped_at": "2026-05-03 23:57:17",
    "region": "xixi",
    "unit_price": 69.8,
    "lat": 30.060616,
    "lng": 119.452812
  },
  {
    "title": "整租·西溪华府 3室2厅 南",
    "community": "西溪华府",
    "area": "86.69",
    "rooms": "3室2厅",
    "direction": "南",
    "floor": "",
    "price": "4000",
    "tags": "",
    "source": "",
    "url": "https://hz.lianjia.com/zufang/HZ2006215467085070336.html",
    "rent_type": "整租",
    "location": "西湖区-西溪-西溪华府",
    "scraped_at": "2026-05-03 23:57:13",
    "region": "xixi",
    "unit_price": 46.1,
    "lat": 30.245327,
    "lng": 120.049473
  },
  {
    "title": "整租·留庄 5室2厅 南",
    "community": "留庄",
    "area": "360.00",
    "rooms": "5室2厅",
    "direction": "南",
    "floor": "",
    "price": "14000",
    "tags": "",
    "source": "",
    "url": "https://hz.lianjia.com/zufang/HZ2157787138127560704.html",
    "rent_type": "整租",
    "location": "西湖区-西溪-留庄",
    "scraped_at": "2026-05-03 23:58:24",
    "region": "xixi",
    "unit_price": 38.9,
    "lat": 30.228344,
    "lng": 120.041179
  },
  {
    "title": "独栋·苇草公寓 苇草青年社店 朝南阳光一居室、1.5米大床、独立卫浴、价格超划算 1室1厅",
    "community": "苇草公寓 苇草青年社店 朝南阳光一居室、1.5米大床、独立卫浴、价格超划算",
    "area": "20.00",
    "rooms": "1室1厅",
    "direction": "",
    "floor": "",
    "price": "1550",
    "tags": "",
    "source": "",
    "url": "https://hz.lianjia.com/apartment/105011.html",
    "rent_type": "独栋",
    "location": "",
    "scraped_at": "2026-05-03 23:57:13",
    "region": "xixi",
    "unit_price": 77.5,
    "lat": 30.25586,
    "lng": 120.16125
  },
  {
    "title": "整租·龙湖西溪天街 2室0厅 西北",
    "community": "龙湖西溪天街",
    "area": "35.70",
    "rooms": "2室0厅",
    "direction": "西北",
    "floor": "",
    "price": "2100",
    "tags": "",
    "source": "",
    "url": "https://hz.lianjia.com/zufang/HZ2137481450188963840.html",
    "rent_type": "整租",
    "location": "西湖区-西溪-龙湖西溪天街",
    "scraped_at": "2026-05-03 23:57:32",
    "region": "xixi",
    "unit_price": 58.8,
    "lat": 30.295649,
    "lng": 120.063681
  },
  {
    "title": "整租·龙湖西溪天街 1室1厅 南",
    "community": "龙湖西溪天街",
    "area": "49.00",
    "rooms": "1室1厅",
    "direction": "南",
    "floor": "",
    "price": "2500",
    "tags": "",
    "source": "",
    "url": "https://hz.lianjia.com/zufang/HZ2154966678335651840.html",
    "rent_type": "整租",
    "location": "西湖区-西溪-龙湖西溪天街",
    "scraped_at": "2026-05-04 00:01:11",
    "region": "xixi",
    "unit_price": 51.0,
    "lat": 30.295649,
    "lng": 120.063681
  },
  {
    "title": "整租·坤和和家园 6室2厅 南",
    "community": "坤和和家园",
    "area": "400.00",
    "rooms": "6室2厅",
    "direction": "南",
    "floor": "",
    "price": "27000",
    "tags": "",
    "source": "",
    "url": "https://hz.lianjia.com/zufang/HZ2147530620375400448.html",
    "rent_type": "整租",
    "location": "西湖区-西溪-坤和和家园",
    "scraped_at": "2026-05-03 23:58:42",
    "region": "xixi",
    "unit_price": 67.5,
    "lat": 30.288491,
    "lng": 120.140846
  },
  {
    "title": "整租·滨江西溪之星 4室2厅 南/北",
    "community": "滨江西溪之星",
    "area": "128.00",
    "rooms": "4室2厅",
    "direction": "南/北",
    "floor": "",
    "price": "5600",
    "tags": "",
    "source": "",
    "url": "https://hz.lianjia.com/zufang/HZ2159989549650935808.html",
    "rent_type": "整租",
    "location": "余杭区-西溪-滨江西溪之星",
    "scraped_at": "2026-05-04 00:00:28",
    "region": "xixi",
    "unit_price": 43.8,
    "lat": 30.208812,
    "lng": 119.989229
  },
  {
    "title": "整租·坤和求是里 3室2厅 南",
    "community": "坤和求是里",
    "area": "134.00",
    "rooms": "3室2厅",
    "direction": "南",
    "floor": "",
    "price": "7000",
    "tags": "",
    "source": "",
    "url": "https://hz.lianjia.com/zufang/HZ2148784242908200960.html",
    "rent_type": "整租",
    "location": "西湖区-西溪-坤和求是里",
    "scraped_at": "2026-05-03 23:57:13",
    "region": "xixi",
    "unit_price": 52.2,
    "lat": 30.288491,
    "lng": 120.140846
  },
  {
    "title": "整租·大华西溪风情 4室2厅 南",
    "community": "大华西溪风情",
    "area": "217.74",
    "rooms": "4室2厅",
    "direction": "南",
    "floor": "",
    "price": "8500",
    "tags": "",
    "source": "",
    "url": "https://hz.lianjia.com/zufang/HZ2138887949721272320.html",
    "rent_type": "整租",
    "location": "余杭区-西溪-大华西溪风情",
    "scraped_at": "2026-05-03 23:58:12",
    "region": "xixi",
    "unit_price": 39.0,
    "lat": 30.252089,
    "lng": 120.049028
  },
  {
    "title": "整租·大华西溪风情 5室2厅 东南",
    "community": "大华西溪风情",
    "area": "233.23",
    "rooms": "5室2厅",
    "direction": "东南",
    "floor": "",
    "price": "13500",
    "tags": "",
    "source": "",
    "url": "https://hz.lianjia.com/zufang/HZ2151680610370846720.html",
    "rent_type": "整租",
    "location": "余杭区-西溪-大华西溪风情",
    "scraped_at": "2026-05-04 00:00:22",
    "region": "xixi",
    "unit_price": 57.9,
    "lat": 30.252089,
    "lng": 120.049028
  },
  {
    "title": "整租·大华西溪风情 5室2厅 东南",
    "community": "大华西溪风情",
    "area": "282.99",
    "rooms": "5室2厅",
    "direction": "东南",
    "floor": "",
    "price": "18000",
    "tags": "",
    "source": "",
    "url": "https://hz.lianjia.com/zufang/HZ2128109040356556800.html",
    "rent_type": "整租",
    "location": "余杭区-西溪-大华西溪风情",
    "scraped_at": "2026-05-03 23:57:34",
    "region": "xixi",
    "unit_price": 63.6,
    "lat": 30.252089,
    "lng": 120.049028
  },
  {
    "title": "独栋·绿城长租公寓 西溪尊蓝店 【短租特价】民水民电 高性价比一居室 配备健身房 带阳台 景观房 1室1厅",
    "community": "绿城长租公寓 西溪尊蓝店 【短租特价】民水民电 高性价比一居室 配备健身房 带阳台 景观房",
    "area": "61.00",
    "rooms": "1室1厅",
    "direction": "",
    "floor": "",
    "price": "2600",
    "tags": "",
    "source": "",
    "url": "https://hz.lianjia.com/apartment/89608.html",
    "rent_type": "独栋",
    "location": "",
    "scraped_at": "2026-05-03 23:57:13",
    "region": "xixi",
    "unit_price": 42.6,
    "lat": 30.236852,
    "lng": 119.992559
  },
  {
    "title": "独栋·杭驻公寓 留下店 阳光大单间 开间",
    "community": "杭驻公寓 留下店 阳光大单间 开间",
    "area": "35.00",
    "rooms": "",
    "direction": "",
    "floor": "",
    "price": "2150",
    "tags": "",
    "source": "",
    "url": "https://hz.lianjia.com/apartment/79279.html",
    "rent_type": "独栋",
    "location": "",
    "scraped_at": "2026-05-03 23:57:13",
    "region": "xixi",
    "unit_price": 61.4,
    "lat": 30.212481,
    "lng": 120.125549
  },
  {
    "title": "整租·龙湖西溪天街 2室0厅 西",
    "community": "龙湖西溪天街",
    "area": "48.00",
    "rooms": "2室0厅",
    "direction": "西",
    "floor": "",
    "price": "2200",
    "tags": "",
    "source": "",
    "url": "https://hz.lianjia.com/zufang/HZ2157088956540256256.html",
    "rent_type": "整租",
    "location": "西湖区-西溪-龙湖西溪天街",
    "scraped_at": "2026-05-04 00:01:33",
    "region": "xixi",
    "unit_price": 45.8,
    "lat": 30.295649,
    "lng": 120.063681
  },
  {
    "title": "整租·溪汀家园 4室2厅 南",
    "community": "溪汀家园",
    "area": "150.00",
    "rooms": "4室2厅",
    "direction": "南",
    "floor": "",
    "price": "6300",
    "tags": "",
    "source": "",
    "url": "https://hz.lianjia.com/zufang/HZ2102717863113523200.html",
    "rent_type": "整租",
    "location": "余杭区-西溪-溪汀家园",
    "scraped_at": "2026-05-03 23:57:17",
    "region": "xixi",
    "unit_price": 42.0,
    "lat": 30.242597,
    "lng": 119.973481
  },
  {
    "title": "整租·世茂西溪宸悦 1室1厅 北",
    "community": "世茂西溪宸悦",
    "area": "36.00",
    "rooms": "1室1厅",
    "direction": "北",
    "floor": "",
    "price": "2100",
    "tags": "",
    "source": "",
    "url": "https://hz.lianjia.com/zufang/HZ2019689102210760704.html",
    "rent_type": "整租",
    "location": "西湖区-西溪-世茂西溪宸悦",
    "scraped_at": "2026-05-04 00:01:23",
    "region": "xixi",
    "unit_price": 58.3,
    "lat": 30.295638,
    "lng": 120.06694
  },
  {
    "title": "整租·坤和和家园 3室2厅 南",
    "community": "坤和和家园",
    "area": "88.88",
    "rooms": "3室2厅",
    "direction": "南",
    "floor": "",
    "price": "4200",
    "tags": "",
    "source": "",
    "url": "https://hz.lianjia.com/zufang/HZ2158184506694041600.html",
    "rent_type": "整租",
    "location": "西湖区-西溪-坤和和家园",
    "scraped_at": "2026-05-04 00:01:23",
    "region": "xixi",
    "unit_price": 47.3,
    "lat": 30.288491,
    "lng": 120.140846
  },
  {
    "title": "整租·绿城西溪融庄 3室2厅 南/北",
    "community": "绿城西溪融庄",
    "area": "132.56",
    "rooms": "3室2厅",
    "direction": "南/北",
    "floor": "",
    "price": "5200",
    "tags": "",
    "source": "",
    "url": "https://hz.lianjia.com/zufang/HZ2122643556307828736.html",
    "rent_type": "整租",
    "location": "余杭区-西溪-绿城西溪融庄",
    "scraped_at": "2026-05-04 00:01:33",
    "region": "xixi",
    "unit_price": 39.2,
    "lat": 30.273791,
    "lng": 120.035929
  },
  {
    "title": "整租·坤和和家园 5室2厅 复式 南",
    "community": "坤和和家园",
    "area": "205.57",
    "rooms": "5室2厅",
    "direction": "",
    "floor": "",
    "price": "11500",
    "tags": "",
    "source": "",
    "url": "https://hz.lianjia.com/zufang/HZ2112094124579487744.html",
    "rent_type": "整租",
    "location": "西湖区-西溪-坤和和家园",
    "scraped_at": "2026-05-03 23:57:32",
    "region": "xixi",
    "unit_price": 55.9,
    "lat": 30.288491,
    "lng": 120.140846
  },
  {
    "title": "整租·龙湖西溪天街 1室1厅 东",
    "community": "龙湖西溪天街",
    "area": "48.63",
    "rooms": "1室1厅",
    "direction": "东",
    "floor": "",
    "price": "2150",
    "tags": "",
    "source": "",
    "url": "https://hz.lianjia.com/zufang/HZ2003489113570803712.html",
    "rent_type": "整租",
    "location": "西湖区-西溪-龙湖西溪天街",
    "scraped_at": "2026-05-03 23:57:17",
    "region": "xixi",
    "unit_price": 44.2,
    "lat": 30.295649,
    "lng": 120.063681
  },
  {
    "title": "整租·西溪九号 2室1厅 东",
    "community": "西溪九号",
    "area": "66.60",
    "rooms": "2室1厅",
    "direction": "东",
    "floor": "",
    "price": "3150",
    "tags": "",
    "source": "",
    "url": "https://hz.lianjia.com/zufang/HZ2016360375783522304.html",
    "rent_type": "整租",
    "location": "西湖区-西溪-西溪九号",
    "scraped_at": "2026-05-03 23:57:17",
    "region": "xixi",
    "unit_price": 47.3,
    "lat": 30.253479,
    "lng": 120.055209
  },
  {
    "title": "整租·龙湖西溪天街 1室1厅 东",
    "community": "龙湖西溪天街",
    "area": "50.00",
    "rooms": "1室1厅",
    "direction": "东",
    "floor": "",
    "price": "2500",
    "tags": "",
    "source": "",
    "url": "https://hz.lianjia.com/zufang/HZ2154906556049653760.html",
    "rent_type": "整租",
    "location": "西湖区-西溪-龙湖西溪天街",
    "scraped_at": "2026-05-04 00:00:22",
    "region": "xixi",
    "unit_price": 50.0,
    "lat": 30.295649,
    "lng": 120.063681
  },
  {
    "title": "整租·昆仑府 3室1厅 南",
    "community": "昆仑府",
    "area": "89.00",
    "rooms": "3室1厅",
    "direction": "南",
    "floor": "",
    "price": "5200",
    "tags": "",
    "source": "",
    "url": "https://hz.lianjia.com/zufang/HZ2160228369260609536.html",
    "rent_type": "整租",
    "location": "余杭区-西溪-昆仑府",
    "scraped_at": "2026-05-03 23:59:07",
    "region": "xixi",
    "unit_price": 58.4,
    "lat": 30.208812,
    "lng": 119.989229
  },
  {
    "title": "整租·和家园雍园 4室2厅 南/北",
    "community": "和家园雍园",
    "area": "168.00",
    "rooms": "4室2厅",
    "direction": "南/北",
    "floor": "",
    "price": "9500",
    "tags": "",
    "source": "",
    "url": "https://hz.lianjia.com/zufang/HZ2150072011420860416.html",
    "rent_type": "整租",
    "location": "西湖区-西溪-和家园雍园",
    "scraped_at": "2026-05-03 23:57:17",
    "region": "xixi",
    "unit_price": 56.5,
    "lat": 30.267146,
    "lng": 120.101505
  },
  {
    "title": "整租·西溪君逸汇 1室1厅 南",
    "community": "西溪君逸汇",
    "area": "45.00",
    "rooms": "1室1厅",
    "direction": "南",
    "floor": "",
    "price": "1900",
    "tags": "",
    "source": "",
    "url": "https://hz.lianjia.com/zufang/HZ2145476065911373824.html",
    "rent_type": "整租",
    "location": "西湖区-西溪-西溪君逸汇",
    "scraped_at": "2026-05-03 23:57:17",
    "region": "xixi",
    "unit_price": 42.2,
    "lat": 30.245327,
    "lng": 120.049473
  },
  {
    "title": "整租·留庄 1室1厅 北",
    "community": "留庄",
    "area": "45.00",
    "rooms": "1室1厅",
    "direction": "北",
    "floor": "",
    "price": "2500",
    "tags": "",
    "source": "",
    "url": "https://hz.lianjia.com/zufang/HZ2144286811340406784.html",
    "rent_type": "整租",
    "location": "西湖区-西溪-留庄",
    "scraped_at": "2026-05-03 23:57:17",
    "region": "xixi",
    "unit_price": 55.6,
    "lat": 30.228344,
    "lng": 120.041179
  },
  {
    "title": "整租·大华西溪风情 5室2厅 东南",
    "community": "大华西溪风情",
    "area": "259.13",
    "rooms": "5室2厅",
    "direction": "东南",
    "floor": "",
    "price": "16000",
    "tags": "",
    "source": "",
    "url": "https://hz.lianjia.com/zufang/HZ2153807215901802496.html",
    "rent_type": "整租",
    "location": "余杭区-西溪-大华西溪风情",
    "scraped_at": "2026-05-03 23:58:37",
    "region": "xixi",
    "unit_price": 61.7,
    "lat": 30.252089,
    "lng": 120.049028
  },
  {
    "title": "整租·坤和和家园 3室1厅 南",
    "community": "坤和和家园",
    "area": "89.00",
    "rooms": "3室1厅",
    "direction": "南",
    "floor": "",
    "price": "5300",
    "tags": "",
    "source": "",
    "url": "https://hz.lianjia.com/zufang/HZ2159323213878788096.html",
    "rent_type": "整租",
    "location": "西湖区-西溪-坤和和家园",
    "scraped_at": "2026-05-03 23:57:20",
    "region": "xixi",
    "unit_price": 59.6,
    "lat": 30.288491,
    "lng": 120.140846
  },
  {
    "title": "整租·泰禾杭州院子 1室0厅 南",
    "community": "泰禾杭州院子",
    "area": "40.00",
    "rooms": "1室0厅",
    "direction": "南",
    "floor": "",
    "price": "1500",
    "tags": "",
    "source": "",
    "url": "https://hz.lianjia.com/zufang/HZ2156296882370904064.html",
    "rent_type": "整租",
    "location": "余杭区-西溪-泰禾杭州院子",
    "scraped_at": "2026-05-03 23:58:17",
    "region": "xixi",
    "unit_price": 37.5,
    "lat": 30.208812,
    "lng": 119.989229
  },
  {
    "title": "整租·云起中心 1室1厅 东",
    "community": "云起中心",
    "area": "33.00",
    "rooms": "1室1厅",
    "direction": "东",
    "floor": "",
    "price": "2550",
    "tags": "",
    "source": "",
    "url": "https://hz.lianjia.com/zufang/HZ2159919773993926656.html",
    "rent_type": "整租",
    "location": "西湖区-西溪-云起中心",
    "scraped_at": "2026-05-03 23:57:20",
    "region": "xixi",
    "unit_price": 77.3,
    "lat": 30.29003,
    "lng": 120.066925
  },
  {
    "title": "整租·龙湖西溪天街 1室1厅 东",
    "community": "龙湖西溪天街",
    "area": "50.00",
    "rooms": "1室1厅",
    "direction": "东",
    "floor": "",
    "price": "2300",
    "tags": "",
    "source": "",
    "url": "https://hz.lianjia.com/zufang/HZ2031976299244814336.html",
    "rent_type": "整租",
    "location": "西湖区-西溪-龙湖西溪天街",
    "scraped_at": "2026-05-03 23:57:20",
    "region": "xixi",
    "unit_price": 46.0,
    "lat": 30.295649,
    "lng": 120.063681
  },
  {
    "title": "整租·绿城西溪融庄 3室2厅 南",
    "community": "绿城西溪融庄",
    "area": "161.99",
    "rooms": "3室2厅",
    "direction": "南",
    "floor": "",
    "price": "8800",
    "tags": "",
    "source": "",
    "url": "https://hz.lianjia.com/zufang/HZ2156389100653903872.html",
    "rent_type": "整租",
    "location": "余杭区-西溪-绿城西溪融庄",
    "scraped_at": "2026-05-04 00:01:33",
    "region": "xixi",
    "unit_price": 54.3,
    "lat": 30.273791,
    "lng": 120.035929
  },
  {
    "title": "独栋·凡尘公寓 蒋村店 西溪世纪中心一居室 1室1厅",
    "community": "凡尘公寓 蒋村店 西溪世纪中心一居室",
    "area": "56.74",
    "rooms": "1室1厅",
    "direction": "",
    "floor": "",
    "price": "3300",
    "tags": "",
    "source": "",
    "url": "https://hz.lianjia.com/apartment/83622.html",
    "rent_type": "独栋",
    "location": "",
    "scraped_at": "2026-05-03 23:57:20",
    "region": "xixi",
    "unit_price": 58.2,
    "lat": 30.42439,
    "lng": 120.30384
  },
  {
    "title": "整租·爱丽芬工业园 1室1厅 北",
    "community": "爱丽芬工业园",
    "area": "48.00",
    "rooms": "1室1厅",
    "direction": "北",
    "floor": "",
    "price": "1250",
    "tags": "",
    "source": "",
    "url": "https://hz.lianjia.com/zufang/HZ2095116895555420160.html",
    "rent_type": "整租",
    "location": "西湖区-西溪-爱丽芬工业园",
    "scraped_at": "2026-05-04 00:01:33",
    "region": "xixi",
    "unit_price": 26.0,
    "lat": 30.27579,
    "lng": 120.14288
  },
  {
    "title": "整租·西溪九号 1室1厅 南",
    "community": "西溪九号",
    "area": "41.23",
    "rooms": "1室1厅",
    "direction": "南",
    "floor": "",
    "price": "2300",
    "tags": "",
    "source": "",
    "url": "https://hz.lianjia.com/zufang/HZ2151637447186841600.html",
    "rent_type": "整租",
    "location": "西湖区-西溪-西溪九号",
    "scraped_at": "2026-05-04 00:01:23",
    "region": "xixi",
    "unit_price": 55.8,
    "lat": 30.253479,
    "lng": 120.055209
  },
  {
    "title": "整租·复地黄龙和山 1室1厅 南",
    "community": "复地黄龙和山",
    "area": "48.15",
    "rooms": "1室1厅",
    "direction": "南",
    "floor": "",
    "price": "2900",
    "tags": "",
    "source": "",
    "url": "https://hz.lianjia.com/zufang/HZ1808369962297851904.html",
    "rent_type": "整租",
    "location": "西湖区-西溪-复地黄龙和山",
    "scraped_at": "2026-05-04 00:01:23",
    "region": "xixi",
    "unit_price": 60.2,
    "lat": 30.288491,
    "lng": 120.140846
  },
  {
    "title": "合租·紫金西苑 4居室 西卧",
    "community": "紫金西苑 4居室 西卧",
    "area": "5.01",
    "rooms": "",
    "direction": "",
    "floor": "",
    "price": "860",
    "tags": "",
    "source": "",
    "url": "https://hz.lianjia.com/zufang/HZ2159147318677340160.html",
    "rent_type": "合租",
    "location": "西湖区-西溪-紫金西苑",
    "scraped_at": "2026-05-03 23:57:20",
    "region": "xixi",
    "unit_price": 171.7,
    "lat": 30.33,
    "lng": 120.0659
  },
  {
    "title": "整租·世茂西溪宸悦 1室1厅 北",
    "community": "世茂西溪宸悦",
    "area": "30.00",
    "rooms": "1室1厅",
    "direction": "北",
    "floor": "",
    "price": "2100",
    "tags": "",
    "source": "",
    "url": "https://hz.lianjia.com/zufang/HZ2030861660616392704.html",
    "rent_type": "整租",
    "location": "西湖区-西溪-世茂西溪宸悦",
    "scraped_at": "2026-05-03 23:57:20",
    "region": "xixi",
    "unit_price": 70.0,
    "lat": 30.295638,
    "lng": 120.06694
  },
  {
    "title": "整租·华策中心 2室2厅 北",
    "community": "华策中心",
    "area": "50.16",
    "rooms": "2室2厅",
    "direction": "北",
    "floor": "",
    "price": "3500",
    "tags": "",
    "source": "",
    "url": "https://hz.lianjia.com/zufang/HZ1950751687207550976.html",
    "rent_type": "整租",
    "location": "西湖区-西溪-华策中心",
    "scraped_at": "2026-05-04 00:01:11",
    "region": "xixi",
    "unit_price": 69.8,
    "lat": 30.2938,
    "lng": 120.04912
  },
  {
    "title": "整租·世茂西溪宸悦 1室1厅 南",
    "community": "世茂西溪宸悦",
    "area": "38.13",
    "rooms": "1室1厅",
    "direction": "南",
    "floor": "",
    "price": "3000",
    "tags": "",
    "source": "",
    "url": "https://hz.lianjia.com/zufang/HZ2025080305957732352.html",
    "rent_type": "整租",
    "location": "西湖区-西溪-世茂西溪宸悦",
    "scraped_at": "2026-05-04 00:01:23",
    "region": "xixi",
    "unit_price": 78.7,
    "lat": 30.295638,
    "lng": 120.06694
  },
  {
    "title": "整租·万科西庐一期 3室2厅 东南",
    "community": "万科西庐一期",
    "area": "89.00",
    "rooms": "3室2厅",
    "direction": "东南",
    "floor": "",
    "price": "5800",
    "tags": "",
    "source": "",
    "url": "https://hz.lianjia.com/zufang/HZ2138938376500281344.html",
    "rent_type": "整租",
    "location": "西湖区-西溪-万科西庐一期",
    "scraped_at": "2026-05-03 23:58:12",
    "region": "xixi",
    "unit_price": 65.2,
    "lat": 30.29502,
    "lng": 120.050572
  },
  {
    "title": "整租·西溪新城市 2室2厅 东南",
    "community": "西溪新城市",
    "area": "93.97",
    "rooms": "2室2厅",
    "direction": "东南",
    "floor": "",
    "price": "5500",
    "tags": "",
    "source": "",
    "url": "https://hz.lianjia.com/zufang/HZ2152066607768141824.html",
    "rent_type": "整租",
    "location": "西湖区-西溪-西溪新城市",
    "scraped_at": "2026-05-04 00:01:23",
    "region": "xixi",
    "unit_price": 58.5,
    "lat": 30.245327,
    "lng": 120.049473
  },
  {
    "title": "整租·爱丽芬工业园 1室1厅 北",
    "community": "爱丽芬工业园",
    "area": "35.00",
    "rooms": "1室1厅",
    "direction": "北",
    "floor": "",
    "price": "1150",
    "tags": "",
    "source": "",
    "url": "https://hz.lianjia.com/zufang/HZ2095406478356643840.html",
    "rent_type": "整租",
    "location": "西湖区-西溪-爱丽芬工业园",
    "scraped_at": "2026-05-04 00:01:33",
    "region": "xixi",
    "unit_price": 32.9,
    "lat": 30.27579,
    "lng": 120.14288
  },
  {
    "title": "整租·西溪佳苑 1室2厅 南",
    "community": "西溪佳苑",
    "area": "120.00",
    "rooms": "1室2厅",
    "direction": "南",
    "floor": "",
    "price": "3800",
    "tags": "",
    "source": "",
    "url": "https://hz.lianjia.com/zufang/HZ2145821410965061632.html",
    "rent_type": "整租",
    "location": "西湖区-西溪-西溪佳苑",
    "scraped_at": "2026-05-03 23:57:20",
    "region": "xixi",
    "unit_price": 31.7,
    "lat": 30.245327,
    "lng": 120.049473
  },
  {
    "title": "整租·大华西溪风情澄品 2室2厅 南",
    "community": "大华西溪风情澄品",
    "area": "87.79",
    "rooms": "2室2厅",
    "direction": "南",
    "floor": "",
    "price": "4600",
    "tags": "",
    "source": "",
    "url": "https://hz.lianjia.com/zufang/HZ1875078248098955264.html",
    "rent_type": "整租",
    "location": "余杭区-西溪-大华西溪风情澄品",
    "scraped_at": "2026-05-04 00:01:23",
    "region": "xixi",
    "unit_price": 52.4,
    "lat": 30.252089,
    "lng": 120.049028
  },
  {
    "title": "整租·龙湖西溪天街 1室1厅 西",
    "community": "龙湖西溪天街",
    "area": "38.00",
    "rooms": "1室1厅",
    "direction": "西",
    "floor": "",
    "price": "1900",
    "tags": "",
    "source": "",
    "url": "https://hz.lianjia.com/zufang/HZ2156778936074240000.html",
    "rent_type": "整租",
    "location": "西湖区-西溪-龙湖西溪天街",
    "scraped_at": "2026-05-03 23:57:20",
    "region": "xixi",
    "unit_price": 50.0,
    "lat": 30.295649,
    "lng": 120.063681
  },
  {
    "title": "整租·香洲里 5室2厅 东南",
    "community": "香洲里",
    "area": "89.00",
    "rooms": "5室2厅",
    "direction": "东南",
    "floor": "",
    "price": "4000",
    "tags": "",
    "source": "",
    "url": "https://hz.lianjia.com/zufang/HZ2140036073785393152.html",
    "rent_type": "整租",
    "location": "余杭区-西溪-香洲里",
    "scraped_at": "2026-05-03 23:58:12",
    "region": "xixi",
    "unit_price": 44.9,
    "lat": 30.208812,
    "lng": 119.989229
  },
  {
    "title": "整租·绿城西溪世纪广场 2室1厅 北",
    "community": "绿城西溪世纪广场",
    "area": "56.74",
    "rooms": "2室1厅",
    "direction": "北",
    "floor": "",
    "price": "3600",
    "tags": "",
    "source": "",
    "url": "https://hz.lianjia.com/zufang/HZ2003456486226788352.html",
    "rent_type": "整租",
    "location": "西湖区-西溪-绿城西溪世纪广场",
    "scraped_at": "2026-05-03 23:57:20",
    "region": "xixi",
    "unit_price": 63.4,
    "lat": 30.253398,
    "lng": 120.067473
  },
  {
    "title": "整租·蒋村花园如意苑 1室0厅 南",
    "community": "蒋村花园如意苑",
    "area": "28.00",
    "rooms": "1室0厅",
    "direction": "南",
    "floor": "",
    "price": "1700",
    "tags": "",
    "source": "",
    "url": "https://hz.lianjia.com/zufang/HZ2159993231037693952.html",
    "rent_type": "整租",
    "location": "西湖区-西溪-蒋村花园如意苑",
    "scraped_at": "2026-05-03 23:59:07",
    "region": "xixi",
    "unit_price": 60.7,
    "lat": 30.288491,
    "lng": 120.140846
  },
  {
    "title": "整租·华策中心 1室1厅 南",
    "community": "华策中心",
    "area": "49.90",
    "rooms": "1室1厅",
    "direction": "南",
    "floor": "",
    "price": "3600",
    "tags": "",
    "source": "",
    "url": "https://hz.lianjia.com/zufang/HZ2156721134941241344.html",
    "rent_type": "整租",
    "location": "西湖区-西溪-华策中心",
    "scraped_at": "2026-05-03 23:57:20",
    "region": "xixi",
    "unit_price": 72.1,
    "lat": 30.2938,
    "lng": 120.04912
  },
  {
    "title": "整租·融创河滨之城水澜轩 3室2厅 南",
    "community": "融创河滨之城水澜轩",
    "area": "89.82",
    "rooms": "3室2厅",
    "direction": "南",
    "floor": "",
    "price": "6800",
    "tags": "",
    "source": "",
    "url": "https://hz.lianjia.com/zufang/HZ2156239494251020288.html",
    "rent_type": "整租",
    "location": "西湖区-西溪-融创河滨之城水澜轩",
    "scraped_at": "2026-05-03 23:58:17",
    "region": "xixi",
    "unit_price": 75.7,
    "lat": 30.288491,
    "lng": 120.140846
  },
  {
    "title": "整租·华策中心 2室1厅 北",
    "community": "华策中心",
    "area": "52.00",
    "rooms": "2室1厅",
    "direction": "北",
    "floor": "",
    "price": "3800",
    "tags": "",
    "source": "",
    "url": "https://hz.lianjia.com/zufang/HZ2131641175231168512.html",
    "rent_type": "整租",
    "location": "西湖区-西溪-华策中心",
    "scraped_at": "2026-05-03 23:57:20",
    "region": "xixi",
    "unit_price": 73.1,
    "lat": 30.2938,
    "lng": 120.04912
  },
  {
    "title": "整租·华元美林公馆 2室2厅 南",
    "community": "华元美林公馆",
    "area": "89.17",
    "rooms": "2室2厅",
    "direction": "南",
    "floor": "",
    "price": "3800",
    "tags": "",
    "source": "",
    "url": "https://hz.lianjia.com/zufang/HZ2020746050330951680.html",
    "rent_type": "整租",
    "location": "余杭区-西溪-华元美林公馆",
    "scraped_at": "2026-05-04 00:01:33",
    "region": "xixi",
    "unit_price": 42.6,
    "lat": 30.255473,
    "lng": 120.011624
  },
  {
    "title": "整租·世茂西溪宸悦 1室1厅 北",
    "community": "世茂西溪宸悦",
    "area": "35.84",
    "rooms": "1室1厅",
    "direction": "北",
    "floor": "",
    "price": "2200",
    "tags": "",
    "source": "",
    "url": "https://hz.lianjia.com/zufang/HZ2016763881451421696.html",
    "rent_type": "整租",
    "location": "西湖区-西溪-世茂西溪宸悦",
    "scraped_at": "2026-05-03 23:57:20",
    "region": "xixi",
    "unit_price": 61.4,
    "lat": 30.295638,
    "lng": 120.06694
  },
  {
    "title": "整租·留庄 1室2厅 南",
    "community": "留庄",
    "area": "85.00",
    "rooms": "1室2厅",
    "direction": "南",
    "floor": "",
    "price": "4000",
    "tags": "",
    "source": "",
    "url": "https://hz.lianjia.com/zufang/HZ2153426554061848576.html",
    "rent_type": "整租",
    "location": "西湖区-西溪-留庄",
    "scraped_at": "2026-05-03 23:58:37",
    "region": "xixi",
    "unit_price": 47.1,
    "lat": 30.228344,
    "lng": 120.041179
  },
  {
    "title": "整租·大华西溪风情 4室2厅 复式 南",
    "community": "大华西溪风情",
    "area": "220.00",
    "rooms": "4室2厅",
    "direction": "",
    "floor": "",
    "price": "14500",
    "tags": "",
    "source": "",
    "url": "https://hz.lianjia.com/zufang/HZ2150797202782420992.html",
    "rent_type": "整租",
    "location": "余杭区-西溪-大华西溪风情",
    "scraped_at": "2026-05-03 23:57:20",
    "region": "xixi",
    "unit_price": 65.9,
    "lat": 30.252089,
    "lng": 120.049028
  },
  {
    "title": "整租·绿城西溪世纪广场 1室1厅 北",
    "community": "绿城西溪世纪广场",
    "area": "54.00",
    "rooms": "1室1厅",
    "direction": "北",
    "floor": "",
    "price": "3500",
    "tags": "",
    "source": "",
    "url": "https://hz.lianjia.com/zufang/HZ2155217218323873792.html",
    "rent_type": "整租",
    "location": "西湖区-西溪-绿城西溪世纪广场",
    "scraped_at": "2026-05-03 23:58:37",
    "region": "xixi",
    "unit_price": 64.8,
    "lat": 30.253398,
    "lng": 120.067473
  },
  {
    "title": "整租·坤和和家园 4室2厅 南",
    "community": "坤和和家园",
    "area": "184.98",
    "rooms": "4室2厅",
    "direction": "南",
    "floor": "",
    "price": "8900",
    "tags": "",
    "source": "",
    "url": "https://hz.lianjia.com/zufang/HZ2117531461325160448.html",
    "rent_type": "整租",
    "location": "西湖区-西溪-坤和和家园",
    "scraped_at": "2026-05-03 23:58:02",
    "region": "xixi",
    "unit_price": 48.1,
    "lat": 30.288491,
    "lng": 120.140846
  },
  {
    "title": "整租·坤和和家园 4室2厅 南",
    "community": "坤和和家园",
    "area": "197.20",
    "rooms": "4室2厅",
    "direction": "南",
    "floor": "",
    "price": "9000",
    "tags": "",
    "source": "",
    "url": "https://hz.lianjia.com/zufang/HZ2128789867738431488.html",
    "rent_type": "整租",
    "location": "西湖区-西溪-坤和和家园",
    "scraped_at": "2026-05-03 23:57:23",
    "region": "xixi",
    "unit_price": 45.6,
    "lat": 30.288491,
    "lng": 120.140846
  },
  {
    "title": "整租·西溪君庐 3室2厅 南/北",
    "community": "西溪君庐",
    "area": "131.85",
    "rooms": "3室2厅",
    "direction": "南/北",
    "floor": "",
    "price": "6200",
    "tags": "",
    "source": "",
    "url": "https://hz.lianjia.com/zufang/HZ2139685097387851776.html",
    "rent_type": "整租",
    "location": "余杭区-西溪-西溪君庐",
    "scraped_at": "2026-05-04 00:01:11",
    "region": "xixi",
    "unit_price": 47.0,
    "lat": 30.242597,
    "lng": 119.973481
  },
  {
    "title": "整租·西溪华府 3室2厅 南/北",
    "community": "西溪华府",
    "area": "89.00",
    "rooms": "3室2厅",
    "direction": "南/北",
    "floor": "",
    "price": "5300",
    "tags": "",
    "source": "",
    "url": "https://hz.lianjia.com/zufang/HZ2155549168238592000.html",
    "rent_type": "整租",
    "location": "西湖区-西溪-西溪华府",
    "scraped_at": "2026-05-04 00:00:22",
    "region": "xixi",
    "unit_price": 59.6,
    "lat": 30.245327,
    "lng": 120.049473
  },
  {
    "title": "整租·复地黄龙和山 1室1厅 北",
    "community": "复地黄龙和山",
    "area": "47.00",
    "rooms": "1室1厅",
    "direction": "北",
    "floor": "",
    "price": "2700",
    "tags": "",
    "source": "",
    "url": "https://hz.lianjia.com/zufang/HZ2158419519339495424.html",
    "rent_type": "整租",
    "location": "西湖区-西溪-复地黄龙和山",
    "scraped_at": "2026-05-04 00:00:12",
    "region": "xixi",
    "unit_price": 57.4,
    "lat": 30.288491,
    "lng": 120.140846
  },
  {
    "title": "整租·远洋西溪公馆 1室1厅 南",
    "community": "远洋西溪公馆",
    "area": "50.00",
    "rooms": "1室1厅",
    "direction": "南",
    "floor": "",
    "price": "3700",
    "tags": "",
    "source": "",
    "url": "https://hz.lianjia.com/zufang/HZ2160026440597241856.html",
    "rent_type": "整租",
    "location": "余杭区-西溪-远洋西溪公馆",
    "scraped_at": "2026-05-03 23:59:07",
    "region": "xixi",
    "unit_price": 74.0,
    "lat": 30.208812,
    "lng": 119.989229
  },
  {
    "title": "整租·泰禾杭州院子 4室3厅 南/西南/西",
    "community": "泰禾杭州院子",
    "area": "184.98",
    "rooms": "4室3厅",
    "direction": "南/西南/西",
    "floor": "",
    "price": "20000",
    "tags": "",
    "source": "",
    "url": "https://hz.lianjia.com/zufang/HZ2094676191947522048.html",
    "rent_type": "整租",
    "location": "余杭区-西溪-泰禾杭州院子",
    "scraped_at": "2026-05-03 23:57:23",
    "region": "xixi",
    "unit_price": 108.1,
    "lat": 30.208812,
    "lng": 119.989229
  },
  {
    "title": "整租·万科西庐一期 3室2厅 南",
    "community": "万科西庐一期",
    "area": "89.06",
    "rooms": "3室2厅",
    "direction": "南",
    "floor": "",
    "price": "5919",
    "tags": "",
    "source": "",
    "url": "https://hz.lianjia.com/zufang/HZ2146922524070379520.html",
    "rent_type": "整租",
    "location": "西湖区-西溪-万科西庐一期",
    "scraped_at": "2026-05-03 23:58:42",
    "region": "xixi",
    "unit_price": 66.5,
    "lat": 30.29502,
    "lng": 120.050572
  },
  {
    "title": "整租·坤和和家园 2室2厅 南/北",
    "community": "坤和和家园",
    "area": "104.47",
    "rooms": "2室2厅",
    "direction": "南/北",
    "floor": "",
    "price": "4500",
    "tags": "",
    "source": "",
    "url": "https://hz.lianjia.com/zufang/HZ2118243035044118528.html",
    "rent_type": "整租",
    "location": "西湖区-西溪-坤和和家园",
    "scraped_at": "2026-05-03 23:58:02",
    "region": "xixi",
    "unit_price": 43.1,
    "lat": 30.288491,
    "lng": 120.140846
  },
  {
    "title": "整租·绿城西溪融庄 3室2厅 东南",
    "community": "绿城西溪融庄",
    "area": "131.00",
    "rooms": "3室2厅",
    "direction": "东南",
    "floor": "",
    "price": "5400",
    "tags": "",
    "source": "",
    "url": "https://hz.lianjia.com/zufang/HZ2148657502445633536.html",
    "rent_type": "整租",
    "location": "余杭区-西溪-绿城西溪融庄",
    "scraped_at": "2026-05-03 23:57:23",
    "region": "xixi",
    "unit_price": 41.2,
    "lat": 30.273791,
    "lng": 120.035929
  },
  {
    "title": "整租·西溪九号 1室1厅 南",
    "community": "西溪九号",
    "area": "54.00",
    "rooms": "1室1厅",
    "direction": "南",
    "floor": "",
    "price": "2900",
    "tags": "",
    "source": "",
    "url": "https://hz.lianjia.com/zufang/HZ2135730603897651200.html",
    "rent_type": "整租",
    "location": "西湖区-西溪-西溪九号",
    "scraped_at": "2026-05-03 23:57:32",
    "region": "xixi",
    "unit_price": 53.7,
    "lat": 30.253479,
    "lng": 120.055209
  },
  {
    "title": "整租·大华西溪风情 4室2厅 南",
    "community": "大华西溪风情",
    "area": "287.14",
    "rooms": "4室2厅",
    "direction": "南",
    "floor": "",
    "price": "17800",
    "tags": "",
    "source": "",
    "url": "https://hz.lianjia.com/zufang/HZ2152665447974043648.html",
    "rent_type": "整租",
    "location": "余杭区-西溪-大华西溪风情",
    "scraped_at": "2026-05-03 23:58:37",
    "region": "xixi",
    "unit_price": 62.0,
    "lat": 30.252089,
    "lng": 120.049028
  },
  {
    "title": "整租·大华西溪风情澄品 3室2厅 南",
    "community": "大华西溪风情澄品",
    "area": "86.77",
    "rooms": "3室2厅",
    "direction": "南",
    "floor": "",
    "price": "5700",
    "tags": "",
    "source": "",
    "url": "https://hz.lianjia.com/zufang/HZ2140733703242907648.html",
    "rent_type": "整租",
    "location": "余杭区-西溪-大华西溪风情澄品",
    "scraped_at": "2026-05-03 23:57:23",
    "region": "xixi",
    "unit_price": 65.7,
    "lat": 30.252089,
    "lng": 120.049028
  },
  {
    "title": "整租·西溪蝶园二期 3室2厅 南",
    "community": "西溪蝶园二期",
    "area": "182.28",
    "rooms": "3室2厅",
    "direction": "南",
    "floor": "",
    "price": "8500",
    "tags": "",
    "source": "",
    "url": "https://hz.lianjia.com/zufang/HZ2158099443499401216.html",
    "rent_type": "整租",
    "location": "西湖区-西溪-西溪蝶园二期",
    "scraped_at": "2026-05-03 23:58:24",
    "region": "xixi",
    "unit_price": 46.6,
    "lat": 30.29354,
    "lng": 120.06162
  },
  {
    "title": "整租·留和春天 4室2厅 南/北",
    "community": "留和春天",
    "area": "173.87",
    "rooms": "4室2厅",
    "direction": "南/北",
    "floor": "",
    "price": "4500",
    "tags": "",
    "source": "",
    "url": "https://hz.lianjia.com/zufang/HZ2141148831134253056.html",
    "rent_type": "整租",
    "location": "西湖区-西溪-留和春天",
    "scraped_at": "2026-05-03 23:57:23",
    "region": "xixi",
    "unit_price": 25.9,
    "lat": 30.21147,
    "lng": 120.0182
  },
  {
    "title": "整租·留下西苑 2室1厅 南",
    "community": "留下西苑",
    "area": "83.15",
    "rooms": "2室1厅",
    "direction": "南",
    "floor": "",
    "price": "2800",
    "tags": "",
    "source": "",
    "url": "https://hz.lianjia.com/zufang/HZ2158165529301352448.html",
    "rent_type": "整租",
    "location": "西湖区-西溪-留下西苑",
    "scraped_at": "2026-05-03 23:58:24",
    "region": "xixi",
    "unit_price": 33.7,
    "lat": 30.243776,
    "lng": 120.048059
  },
  {
    "title": "整租·大华西溪风情 4室2厅 南/北",
    "community": "大华西溪风情",
    "area": "375.90",
    "rooms": "4室2厅",
    "direction": "南/北",
    "floor": "",
    "price": "22000",
    "tags": "",
    "source": "",
    "url": "https://hz.lianjia.com/zufang/HZ2090282158278049792.html",
    "rent_type": "整租",
    "location": "余杭区-西溪-大华西溪风情",
    "scraped_at": "2026-05-03 23:57:23",
    "region": "xixi",
    "unit_price": 58.5,
    "lat": 30.252089,
    "lng": 120.049028
  },
  {
    "title": "整租·西溪华府 3室2厅 南",
    "community": "西溪华府",
    "area": "89.00",
    "rooms": "3室2厅",
    "direction": "南",
    "floor": "",
    "price": "5200",
    "tags": "",
    "source": "",
    "url": "https://hz.lianjia.com/zufang/HZ2152766482897960960.html",
    "rent_type": "整租",
    "location": "西湖区-西溪-西溪华府",
    "scraped_at": "2026-05-04 00:00:22",
    "region": "xixi",
    "unit_price": 58.4,
    "lat": 30.245327,
    "lng": 120.049473
  },
  {
    "title": "整租·紫金西苑 4室2厅 南",
    "community": "紫金西苑",
    "area": "136.00",
    "rooms": "4室2厅",
    "direction": "南",
    "floor": "",
    "price": "6900",
    "tags": "",
    "source": "",
    "url": "https://hz.lianjia.com/zufang/HZ2150133401951141888.html",
    "rent_type": "整租",
    "location": "西湖区-西溪-紫金西苑",
    "scraped_at": "2026-05-03 23:57:23",
    "region": "xixi",
    "unit_price": 50.7,
    "lat": 30.33,
    "lng": 120.0659
  },
  {
    "title": "整租·坤和和家园 2室2厅 南",
    "community": "坤和和家园",
    "area": "89.00",
    "rooms": "2室2厅",
    "direction": "南",
    "floor": "",
    "price": "4200",
    "tags": "",
    "source": "",
    "url": "https://hz.lianjia.com/zufang/HZ2147545413073240064.html",
    "rent_type": "整租",
    "location": "西湖区-西溪-坤和和家园",
    "scraped_at": "2026-05-03 23:58:42",
    "region": "xixi",
    "unit_price": 47.2,
    "lat": 30.288491,
    "lng": 120.140846
  },
  {
    "title": "整租·远洋西溪公馆 4室2厅 南",
    "community": "远洋西溪公馆",
    "area": "140.00",
    "rooms": "4室2厅",
    "direction": "南",
    "floor": "",
    "price": "9000",
    "tags": "",
    "source": "",
    "url": "https://hz.lianjia.com/zufang/HZ2141793639859224576.html",
    "rent_type": "整租",
    "location": "余杭区-西溪-远洋西溪公馆",
    "scraped_at": "2026-05-03 23:57:25",
    "region": "xixi",
    "unit_price": 64.3,
    "lat": 30.208812,
    "lng": 119.989229
  },
  {
    "title": "整租·荆泽豪园 2室2厅 南",
    "community": "荆泽豪园",
    "area": "89.00",
    "rooms": "2室2厅",
    "direction": "南",
    "floor": "",
    "price": "4300",
    "tags": "",
    "source": "",
    "url": "https://hz.lianjia.com/zufang/HZ2156754656871579648.html",
    "rent_type": "整租",
    "location": "余杭区-西溪-荆泽豪园",
    "scraped_at": "2026-05-03 23:57:25",
    "region": "xixi",
    "unit_price": 48.3,
    "lat": 30.208812,
    "lng": 119.989229
  },
  {
    "title": "整租·百家乐西园 2室2厅 南/北",
    "community": "百家乐西园",
    "area": "89.00",
    "rooms": "2室2厅",
    "direction": "南/北",
    "floor": "",
    "price": "4600",
    "tags": "",
    "source": "",
    "url": "https://hz.lianjia.com/zufang/HZ2155158378949640192.html",
    "rent_type": "整租",
    "location": "余杭区-西溪-百家乐西园",
    "scraped_at": "2026-05-04 00:00:22",
    "region": "xixi",
    "unit_price": 51.7,
    "lat": 30.208812,
    "lng": 119.989229
  },
  {
    "title": "整租·华元美林公馆 1室1厅 南",
    "community": "华元美林公馆",
    "area": "63.00",
    "rooms": "1室1厅",
    "direction": "南",
    "floor": "",
    "price": "3600",
    "tags": "",
    "source": "",
    "url": "https://hz.lianjia.com/zufang/HZ2152620258798600192.html",
    "rent_type": "整租",
    "location": "余杭区-西溪-华元美林公馆",
    "scraped_at": "2026-05-04 00:00:22",
    "region": "xixi",
    "unit_price": 57.1,
    "lat": 30.255473,
    "lng": 120.011624
  },
  {
    "title": "整租·西溪诚园诚公馆 3室2厅 南",
    "community": "西溪诚园诚公馆",
    "area": "148.00",
    "rooms": "3室2厅",
    "direction": "南",
    "floor": "",
    "price": "7000",
    "tags": "",
    "source": "",
    "url": "https://hz.lianjia.com/zufang/HZ2142799625818472448.html",
    "rent_type": "整租",
    "location": "西湖区-西溪-西溪诚园诚公馆",
    "scraped_at": "2026-05-03 23:57:25",
    "region": "xixi",
    "unit_price": 47.3,
    "lat": 30.245327,
    "lng": 120.049473
  },
  {
    "title": "整租·融创河滨之城雨澜轩 3室2厅 南",
    "community": "融创河滨之城雨澜轩",
    "area": "89.54",
    "rooms": "3室2厅",
    "direction": "南",
    "floor": "",
    "price": "5000",
    "tags": "",
    "source": "",
    "url": "https://hz.lianjia.com/zufang/HZ2146800408125767680.html",
    "rent_type": "整租",
    "location": "西湖区-西溪-融创河滨之城雨澜轩",
    "scraped_at": "2026-05-04 00:01:11",
    "region": "xixi",
    "unit_price": 55.8,
    "lat": 30.288491,
    "lng": 120.140846
  },
  {
    "title": "整租·西溪诚园诚公馆 3室2厅 南",
    "community": "西溪诚园诚公馆",
    "area": "148.00",
    "rooms": "3室2厅",
    "direction": "南",
    "floor": "",
    "price": "7000",
    "tags": "",
    "source": "",
    "url": "https://hz.lianjia.com/zufang/HZ2045099539693568000.html",
    "rent_type": "整租",
    "location": "西湖区-西溪-西溪诚园诚公馆",
    "scraped_at": "2026-05-03 23:59:56",
    "region": "xixi",
    "unit_price": 47.3,
    "lat": 30.245327,
    "lng": 120.049473
  },
  {
    "title": "整租·西溪新城市 1室1厅 西",
    "community": "西溪新城市",
    "area": "40.00",
    "rooms": "1室1厅",
    "direction": "西",
    "floor": "",
    "price": "2900",
    "tags": "",
    "source": "",
    "url": "https://hz.lianjia.com/zufang/HZ2156631918756495360.html",
    "rent_type": "整租",
    "location": "西湖区-西溪-西溪新城市",
    "scraped_at": "2026-05-03 23:57:23",
    "region": "xixi",
    "unit_price": 72.5,
    "lat": 30.245327,
    "lng": 120.049473
  },
  {
    "title": "整租·复地黄龙和山 1室1厅 南",
    "community": "复地黄龙和山",
    "area": "65.00",
    "rooms": "1室1厅",
    "direction": "南",
    "floor": "",
    "price": "4000",
    "tags": "",
    "source": "",
    "url": "https://hz.lianjia.com/zufang/HZ2154878016172326912.html",
    "rent_type": "整租",
    "location": "西湖区-西溪-复地黄龙和山",
    "scraped_at": "2026-05-04 00:00:22",
    "region": "xixi",
    "unit_price": 61.5,
    "lat": 30.288491,
    "lng": 120.140846
  },
  {
    "title": "整租·龙湖西溪天街 3室2厅 南",
    "community": "龙湖西溪天街",
    "area": "69.00",
    "rooms": "3室2厅",
    "direction": "南",
    "floor": "",
    "price": "6000",
    "tags": "",
    "source": "",
    "url": "https://hz.lianjia.com/zufang/HZ2154529808174809088.html",
    "rent_type": "整租",
    "location": "西湖区-西溪-龙湖西溪天街",
    "scraped_at": "2026-05-04 00:00:22",
    "region": "xixi",
    "unit_price": 87.0,
    "lat": 30.295649,
    "lng": 120.063681
  },
  {
    "title": "整租·西溪君庐 5室1厅 南",
    "community": "西溪君庐",
    "area": "180.00",
    "rooms": "5室1厅",
    "direction": "南",
    "floor": "",
    "price": "8200",
    "tags": "",
    "source": "",
    "url": "https://hz.lianjia.com/zufang/HZ2149056451409084416.html",
    "rent_type": "整租",
    "location": "余杭区-西溪-西溪君庐",
    "scraped_at": "2026-05-03 23:57:25",
    "region": "xixi",
    "unit_price": 45.6,
    "lat": 30.242597,
    "lng": 119.973481
  },
  {
    "title": "整租·西溪花园紫菱苑 3室1厅 南",
    "community": "西溪花园紫菱苑",
    "area": "80.00",
    "rooms": "3室1厅",
    "direction": "南",
    "floor": "",
    "price": "4500",
    "tags": "",
    "source": "",
    "url": "https://hz.lianjia.com/zufang/HZ2154141248301039616.html",
    "rent_type": "整租",
    "location": "西湖区-西溪-西溪花园紫菱苑",
    "scraped_at": "2026-05-04 00:00:22",
    "region": "xixi",
    "unit_price": 56.2,
    "lat": 30.245327,
    "lng": 120.049473
  },
  {
    "title": "整租·西溪华府 3室2厅 南/北",
    "community": "西溪华府",
    "area": "88.98",
    "rooms": "3室2厅",
    "direction": "南/北",
    "floor": "",
    "price": "4500",
    "tags": "",
    "source": "",
    "url": "https://hz.lianjia.com/zufang/HZ2116909561922191360.html",
    "rent_type": "整租",
    "location": "西湖区-西溪-西溪华府",
    "scraped_at": "2026-05-03 23:58:02",
    "region": "xixi",
    "unit_price": 50.6,
    "lat": 30.245327,
    "lng": 120.049473
  },
  {
    "title": "整租·蒋村花园广安苑 4室2厅 南",
    "community": "蒋村花园广安苑",
    "area": "154.00",
    "rooms": "4室2厅",
    "direction": "南",
    "floor": "",
    "price": "6500",
    "tags": "",
    "source": "",
    "url": "https://hz.lianjia.com/zufang/HZ2144283108394926080.html",
    "rent_type": "整租",
    "location": "西湖区-西溪-蒋村花园广安苑",
    "scraped_at": "2026-05-03 23:57:25",
    "region": "xixi",
    "unit_price": 42.2,
    "lat": 30.288491,
    "lng": 120.140846
  },
  {
    "title": "整租·坤和和家园 3室2厅 南",
    "community": "坤和和家园",
    "area": "148.92",
    "rooms": "3室2厅",
    "direction": "南",
    "floor": "",
    "price": "6500",
    "tags": "",
    "source": "",
    "url": "https://hz.lianjia.com/zufang/HZ2158863085161414656.html",
    "rent_type": "整租",
    "location": "西湖区-西溪-坤和和家园",
    "scraped_at": "2026-05-04 00:00:12",
    "region": "xixi",
    "unit_price": 43.6,
    "lat": 30.288491,
    "lng": 120.140846
  },
  {
    "title": "整租·留下西苑 4室2厅 南",
    "community": "留下西苑",
    "area": "159.00",
    "rooms": "4室2厅",
    "direction": "南",
    "floor": "",
    "price": "4200",
    "tags": "",
    "source": "",
    "url": "https://hz.lianjia.com/zufang/HZ2155673048106139648.html",
    "rent_type": "整租",
    "location": "西湖区-西溪-留下西苑",
    "scraped_at": "2026-05-03 23:58:32",
    "region": "xixi",
    "unit_price": 26.4,
    "lat": 30.243776,
    "lng": 120.048059
  },
  {
    "title": "整租·龙湖西溪天街 3室1厅 南",
    "community": "龙湖西溪天街",
    "area": "70.00",
    "rooms": "3室1厅",
    "direction": "南",
    "floor": "",
    "price": "5200",
    "tags": "",
    "source": "",
    "url": "https://hz.lianjia.com/zufang/HZ2157765480574615552.html",
    "rent_type": "整租",
    "location": "西湖区-西溪-龙湖西溪天街",
    "scraped_at": "2026-05-04 00:00:28",
    "region": "xixi",
    "unit_price": 74.3,
    "lat": 30.295649,
    "lng": 120.063681
  },
  {
    "title": "整租·远洋西溪公馆 3室2厅 南",
    "community": "远洋西溪公馆",
    "area": "89.00",
    "rooms": "3室2厅",
    "direction": "南",
    "floor": "",
    "price": "4700",
    "tags": "",
    "source": "",
    "url": "https://hz.lianjia.com/zufang/HZ2157429548428296192.html",
    "rent_type": "整租",
    "location": "余杭区-西溪-远洋西溪公馆",
    "scraped_at": "2026-05-03 23:58:24",
    "region": "xixi",
    "unit_price": 52.8,
    "lat": 30.208812,
    "lng": 119.989229
  },
  {
    "title": "整租·绿城西溪世纪广场 1室1厅 南/北",
    "community": "绿城西溪世纪广场",
    "area": "57.00",
    "rooms": "1室1厅",
    "direction": "南/北",
    "floor": "",
    "price": "4000",
    "tags": "",
    "source": "",
    "url": "https://hz.lianjia.com/zufang/HZ2144467262348722176.html",
    "rent_type": "整租",
    "location": "西湖区-西溪-绿城西溪世纪广场",
    "scraped_at": "2026-05-04 00:00:28",
    "region": "xixi",
    "unit_price": 70.2,
    "lat": 30.253398,
    "lng": 120.067473
  },
  {
    "title": "整租·玉屏居 2室1厅 南",
    "community": "玉屏居",
    "area": "55.00",
    "rooms": "2室1厅",
    "direction": "南",
    "floor": "",
    "price": "2900",
    "tags": "",
    "source": "",
    "url": "https://hz.lianjia.com/zufang/HZ2132062190671233024.html",
    "rent_type": "整租",
    "location": "西湖区-西溪-玉屏居",
    "scraped_at": "2026-05-03 23:57:32",
    "region": "xixi",
    "unit_price": 52.7,
    "lat": 30.271088,
    "lng": 120.120752
  },
  {
    "title": "整租·龙湖西溪天街 1室0厅 南",
    "community": "龙湖西溪天街",
    "area": "35.00",
    "rooms": "1室0厅",
    "direction": "南",
    "floor": "",
    "price": "2000",
    "tags": "",
    "source": "",
    "url": "https://hz.lianjia.com/zufang/HZ2092542893691502592.html",
    "rent_type": "整租",
    "location": "西湖区-西溪-龙湖西溪天街",
    "scraped_at": "2026-05-03 23:57:25",
    "region": "xixi",
    "unit_price": 57.1,
    "lat": 30.295649,
    "lng": 120.063681
  },
  {
    "title": "整租·远洋西溪公馆 1室1厅 南",
    "community": "远洋西溪公馆",
    "area": "60.00",
    "rooms": "1室1厅",
    "direction": "南",
    "floor": "",
    "price": "3700",
    "tags": "",
    "source": "",
    "url": "https://hz.lianjia.com/zufang/HZ2155554851549872128.html",
    "rent_type": "整租",
    "location": "余杭区-西溪-远洋西溪公馆",
    "scraped_at": "2026-05-04 00:00:22",
    "region": "xixi",
    "unit_price": 61.7,
    "lat": 30.208812,
    "lng": 119.989229
  },
  {
    "title": "整租·万科坤和玉泉 3室2厅 南",
    "community": "万科坤和玉泉",
    "area": "114.18",
    "rooms": "3室2厅",
    "direction": "南",
    "floor": "",
    "price": "5900",
    "tags": "",
    "source": "",
    "url": "https://hz.lianjia.com/zufang/HZ2066372257361428480.html",
    "rent_type": "整租",
    "location": "西湖区-西溪-万科坤和玉泉",
    "scraped_at": "2026-05-03 23:59:43",
    "region": "xixi",
    "unit_price": 51.7,
    "lat": 30.288491,
    "lng": 120.140846
  },
  {
    "title": "整租·西溪诚园知敬苑 3室2厅 南",
    "community": "西溪诚园知敬苑",
    "area": "169.00",
    "rooms": "3室2厅",
    "direction": "南",
    "floor": "",
    "price": "13500",
    "tags": "",
    "source": "",
    "url": "https://hz.lianjia.com/zufang/HZ2128487788180406272.html",
    "rent_type": "整租",
    "location": "西湖区-西溪-西溪诚园知敬苑",
    "scraped_at": "2026-05-03 23:57:25",
    "region": "xixi",
    "unit_price": 79.9,
    "lat": 30.245327,
    "lng": 120.049473
  },
  {
    "title": "整租·紫金西苑 4室2厅 南",
    "community": "紫金西苑",
    "area": "147.00",
    "rooms": "4室2厅",
    "direction": "南",
    "floor": "",
    "price": "6300",
    "tags": "",
    "source": "",
    "url": "https://hz.lianjia.com/zufang/HZ2150990723699179520.html",
    "rent_type": "整租",
    "location": "西湖区-西溪-紫金西苑",
    "scraped_at": "2026-05-03 23:58:02",
    "region": "xixi",
    "unit_price": 42.9,
    "lat": 30.33,
    "lng": 120.0659
  },
  {
    "title": "整租·华元美林公馆 1室2厅 东南",
    "community": "华元美林公馆",
    "area": "70.11",
    "rooms": "1室2厅",
    "direction": "东南",
    "floor": "",
    "price": "4500",
    "tags": "",
    "source": "",
    "url": "https://hz.lianjia.com/zufang/HZ2146579429734744064.html",
    "rent_type": "整租",
    "location": "余杭区-西溪-华元美林公馆",
    "scraped_at": "2026-05-03 23:58:42",
    "region": "xixi",
    "unit_price": 64.2,
    "lat": 30.255473,
    "lng": 120.011624
  },
  {
    "title": "整租·万科坤和玉泉 3室2厅 南/北",
    "community": "万科坤和玉泉",
    "area": "89.55",
    "rooms": "3室2厅",
    "direction": "南/北",
    "floor": "",
    "price": "5500",
    "tags": "",
    "source": "",
    "url": "https://hz.lianjia.com/zufang/HZ2120474203458109440.html",
    "rent_type": "整租",
    "location": "西湖区-西溪-万科坤和玉泉",
    "scraped_at": "2026-05-03 23:57:39",
    "region": "xixi",
    "unit_price": 61.4,
    "lat": 30.288491,
    "lng": 120.140846
  },
  {
    "title": "整租·坤和和家园 4室2厅 南",
    "community": "坤和和家园",
    "area": "138.30",
    "rooms": "4室2厅",
    "direction": "南",
    "floor": "",
    "price": "3500",
    "tags": "",
    "source": "",
    "url": "https://hz.lianjia.com/zufang/HZ2884626182983122944.html",
    "rent_type": "整租",
    "location": "西湖区-西溪-坤和和家园",
    "scraped_at": "2026-05-03 23:58:28",
    "region": "xixi",
    "unit_price": 25.3,
    "lat": 30.288491,
    "lng": 120.140846
  },
  {
    "title": "整租·留庄 1室1厅 南",
    "community": "留庄",
    "area": "51.12",
    "rooms": "1室1厅",
    "direction": "南",
    "floor": "",
    "price": "3300",
    "tags": "",
    "source": "",
    "url": "https://hz.lianjia.com/zufang/HZ2148680112520822784.html",
    "rent_type": "整租",
    "location": "西湖区-西溪-留庄",
    "scraped_at": "2026-05-03 23:57:25",
    "region": "xixi",
    "unit_price": 64.6,
    "lat": 30.228344,
    "lng": 120.041179
  },
  {
    "title": "整租·滨江西溪之星 4室2厅 南",
    "community": "滨江西溪之星",
    "area": "128.00",
    "rooms": "4室2厅",
    "direction": "南",
    "floor": "",
    "price": "5500",
    "tags": "",
    "source": "",
    "url": "https://hz.lianjia.com/zufang/HZ2159863154979373056.html",
    "rent_type": "整租",
    "location": "余杭区-西溪-滨江西溪之星",
    "scraped_at": "2026-05-03 23:57:25",
    "region": "xixi",
    "unit_price": 43.0,
    "lat": 30.208812,
    "lng": 119.989229
  },
  {
    "title": "整租·坤和和家园 8室2厅 南",
    "community": "坤和和家园",
    "area": "259.57",
    "rooms": "8室2厅",
    "direction": "南",
    "floor": "",
    "price": "16500",
    "tags": "",
    "source": "",
    "url": "https://hz.lianjia.com/zufang/HZ2108017738952736768.html",
    "rent_type": "整租",
    "location": "西湖区-西溪-坤和和家园",
    "scraped_at": "2026-05-03 23:57:25",
    "region": "xixi",
    "unit_price": 63.6,
    "lat": 30.288491,
    "lng": 120.140846
  },
  {
    "title": "整租·香港兴业耦园 2室1厅 南",
    "community": "香港兴业耦园",
    "area": "40.00",
    "rooms": "2室1厅",
    "direction": "南",
    "floor": "",
    "price": "1600",
    "tags": "",
    "source": "",
    "url": "https://hz.lianjia.com/zufang/HZ2159243662297399296.html",
    "rent_type": "整租",
    "location": "余杭区-西溪-香港兴业耦园",
    "scraped_at": "2026-05-03 23:58:24",
    "region": "xixi",
    "unit_price": 40.0,
    "lat": 30.208812,
    "lng": 119.989229
  },
  {
    "title": "整租·融创河滨之城雨澜轩 3室2厅 南",
    "community": "融创河滨之城雨澜轩",
    "area": "89.61",
    "rooms": "3室2厅",
    "direction": "南",
    "floor": "",
    "price": "4800",
    "tags": "",
    "source": "",
    "url": "https://hz.lianjia.com/zufang/HZ2145863249248124928.html",
    "rent_type": "整租",
    "location": "西湖区-西溪-融创河滨之城雨澜轩",
    "scraped_at": "2026-05-03 23:57:28",
    "region": "xixi",
    "unit_price": 53.6,
    "lat": 30.288491,
    "lng": 120.140846
  },
  {
    "title": "整租·华策中心 2室2厅 南",
    "community": "华策中心",
    "area": "51.00",
    "rooms": "2室2厅",
    "direction": "南",
    "floor": "",
    "price": "4300",
    "tags": "",
    "source": "",
    "url": "https://hz.lianjia.com/zufang/HZ2153779850928717824.html",
    "rent_type": "整租",
    "location": "西湖区-西溪-华策中心",
    "scraped_at": "2026-05-04 00:00:28",
    "region": "xixi",
    "unit_price": 84.3,
    "lat": 30.2938,
    "lng": 120.04912
  },
  {
    "title": "整租·坤和和家园 3室2厅 南",
    "community": "坤和和家园",
    "area": "88.80",
    "rooms": "3室2厅",
    "direction": "南",
    "floor": "",
    "price": "4600",
    "tags": "",
    "source": "",
    "url": "https://hz.lianjia.com/zufang/HZ2149709861003198464.html",
    "rent_type": "整租",
    "location": "西湖区-西溪-坤和和家园",
    "scraped_at": "2026-05-04 00:00:28",
    "region": "xixi",
    "unit_price": 51.8,
    "lat": 30.288491,
    "lng": 120.140846
  },
  {
    "title": "整租·西溪诚园致诚苑 3室1厅 南",
    "community": "西溪诚园致诚苑",
    "area": "89.00",
    "rooms": "3室1厅",
    "direction": "南",
    "floor": "",
    "price": "7500",
    "tags": "",
    "source": "",
    "url": "https://hz.lianjia.com/zufang/HZ2161676314669481984.html",
    "rent_type": "整租",
    "location": "西湖区-西溪-西溪诚园致诚苑",
    "scraped_at": "2026-05-04 00:00:28",
    "region": "xixi",
    "unit_price": 84.3,
    "lat": 30.245327,
    "lng": 120.049473
  },
  {
    "title": "整租·荆泽豪园 2室1厅 南/北",
    "community": "荆泽豪园",
    "area": "80.00",
    "rooms": "2室1厅",
    "direction": "南/北",
    "floor": "",
    "price": "4500",
    "tags": "",
    "source": "",
    "url": "https://hz.lianjia.com/zufang/HZ2161679650659500032.html",
    "rent_type": "整租",
    "location": "余杭区-西溪-荆泽豪园",
    "scraped_at": "2026-05-04 00:00:28",
    "region": "xixi",
    "unit_price": 56.2,
    "lat": 30.208812,
    "lng": 119.989229
  },
  {
    "title": "整租·钱潮花园 3室2厅 南",
    "community": "钱潮花园",
    "area": "135.07",
    "rooms": "3室2厅",
    "direction": "南",
    "floor": "",
    "price": "3900",
    "tags": "",
    "source": "",
    "url": "https://hz.lianjia.com/zufang/HZ2162100218823180288.html",
    "rent_type": "整租",
    "location": "西湖区-西溪-钱潮花园",
    "scraped_at": "2026-05-04 00:01:11",
    "region": "xixi",
    "unit_price": 28.9,
    "lat": 30.270554,
    "lng": 120.106154
  },
  {
    "title": "整租·绿城西溪世纪广场 1室1厅 北",
    "community": "绿城西溪世纪广场",
    "area": "53.00",
    "rooms": "1室1厅",
    "direction": "北",
    "floor": "",
    "price": "3600",
    "tags": "",
    "source": "",
    "url": "https://hz.lianjia.com/zufang/HZ2162141147760164864.html",
    "rent_type": "整租",
    "location": "西湖区-西溪-绿城西溪世纪广场",
    "scraped_at": "2026-05-04 00:01:11",
    "region": "xixi",
    "unit_price": 67.9,
    "lat": 30.253398,
    "lng": 120.067473
  },
  {
    "title": "合租·滨江西溪之星 4居室 南卧",
    "community": "滨江西溪之星 4居室 南卧",
    "area": "20.00",
    "rooms": "",
    "direction": "",
    "floor": "",
    "price": "1200",
    "tags": "",
    "source": "",
    "url": "https://hz.lianjia.com/zufang/HZ2026592532263075840.html",
    "rent_type": "合租",
    "location": "余杭区-西溪-滨江西溪之星",
    "scraped_at": "2026-05-04 00:01:11",
    "region": "xixi",
    "unit_price": 60.0,
    "lat": 30.28176,
    "lng": 120.04379
  },
  {
    "title": "整租·坤和和家园 1室1厅 南",
    "community": "坤和和家园",
    "area": "30.00",
    "rooms": "1室1厅",
    "direction": "南",
    "floor": "",
    "price": "2400",
    "tags": "",
    "source": "",
    "url": "https://hz.lianjia.com/zufang/HZ2146467905036877824.html",
    "rent_type": "整租",
    "location": "西湖区-西溪-坤和和家园",
    "scraped_at": "2026-05-03 23:58:42",
    "region": "xixi",
    "unit_price": 80.0,
    "lat": 30.288491,
    "lng": 120.140846
  },
  {
    "title": "整租·坤和求是里 3室1厅 南",
    "community": "坤和求是里",
    "area": "85.77",
    "rooms": "3室1厅",
    "direction": "南",
    "floor": "",
    "price": "4800",
    "tags": "",
    "source": "",
    "url": "https://hz.lianjia.com/zufang/HZ2123711662706917376.html",
    "rent_type": "整租",
    "location": "西湖区-西溪-坤和求是里",
    "scraped_at": "2026-05-03 23:57:39",
    "region": "xixi",
    "unit_price": 56.0,
    "lat": 30.288491,
    "lng": 120.140846
  },
  {
    "title": "合租·西溪名园 4居室 北卧",
    "community": "西溪名园 4居室 北卧",
    "area": "30.00",
    "rooms": "",
    "direction": "",
    "floor": "",
    "price": "1800",
    "tags": "",
    "source": "",
    "url": "https://hz.lianjia.com/zufang/HZ1903657359595536384.html",
    "rent_type": "合租",
    "location": "余杭区-西溪-西溪名园",
    "scraped_at": "2026-05-03 23:57:28",
    "region": "xixi",
    "unit_price": 60.0,
    "lat": 30.242597,
    "lng": 119.973481
  },
  {
    "title": "合租·梦屏璟庭 4居室 东卧",
    "community": "梦屏璟庭 4居室 东卧",
    "area": "30.00",
    "rooms": "",
    "direction": "",
    "floor": "",
    "price": "1700",
    "tags": "",
    "source": "",
    "url": "https://hz.lianjia.com/zufang/HZ2157836632730894336.html",
    "rent_type": "合租",
    "location": "西湖区-西溪-梦屏璟庭",
    "scraped_at": "2026-05-04 00:00:12",
    "region": "xixi",
    "unit_price": 56.7,
    "lat": 30.28802,
    "lng": 120.1353
  },
  {
    "title": "合租·西溪花园流芳苑 6居室 南/北卧",
    "community": "西溪花园流芳苑 6居室 南/北卧",
    "area": "30.00",
    "rooms": "",
    "direction": "",
    "floor": "",
    "price": "1100",
    "tags": "",
    "source": "",
    "url": "https://hz.lianjia.com/zufang/HZ2084479701069332480.html",
    "rent_type": "合租",
    "location": "西湖区-西溪-西溪花园流芳苑",
    "scraped_at": "2026-05-03 23:57:28",
    "region": "xixi",
    "unit_price": 36.7,
    "lat": 30.2704,
    "lng": 120.12089
  },
  {
    "title": "整租·绿城西溪融庄 5室2厅 南",
    "community": "绿城西溪融庄",
    "area": "271.51",
    "rooms": "5室2厅",
    "direction": "南",
    "floor": "",
    "price": "26000",
    "tags": "",
    "source": "",
    "url": "https://hz.lianjia.com/zufang/HZ2148413027219668992.html",
    "rent_type": "整租",
    "location": "余杭区-西溪-绿城西溪融庄",
    "scraped_at": "2026-05-03 23:57:28",
    "region": "xixi",
    "unit_price": 95.8,
    "lat": 30.273791,
    "lng": 120.035929
  },
  {
    "title": "整租·留下西苑 2室2厅 南",
    "community": "留下西苑",
    "area": "67.00",
    "rooms": "2室2厅",
    "direction": "南",
    "floor": "",
    "price": "2700",
    "tags": "",
    "source": "",
    "url": "https://hz.lianjia.com/zufang/HZ2145867170997862400.html",
    "rent_type": "整租",
    "location": "西湖区-西溪-留下西苑",
    "scraped_at": "2026-05-03 23:57:28",
    "region": "xixi",
    "unit_price": 40.3,
    "lat": 30.243776,
    "lng": 120.048059
  },
  {
    "title": "整租·龙湖西溪天街 3室2厅 南/北",
    "community": "龙湖西溪天街",
    "area": "68.00",
    "rooms": "3室2厅",
    "direction": "南/北",
    "floor": "",
    "price": "6000",
    "tags": "",
    "source": "",
    "url": "https://hz.lianjia.com/zufang/HZ2138112482793750528.html",
    "rent_type": "整租",
    "location": "西湖区-西溪-龙湖西溪天街",
    "scraped_at": "2026-05-03 23:58:12",
    "region": "xixi",
    "unit_price": 88.2,
    "lat": 30.295649,
    "lng": 120.063681
  },
  {
    "title": "整租·大华西溪风情 5室2厅 跃层 南/西南",
    "community": "大华西溪风情",
    "area": "247.00",
    "rooms": "5室2厅",
    "direction": "",
    "floor": "",
    "price": "20000",
    "tags": "",
    "source": "",
    "url": "https://hz.lianjia.com/zufang/HZ2013839303569833984.html",
    "rent_type": "整租",
    "location": "余杭区-西溪-大华西溪风情",
    "scraped_at": "2026-05-03 23:59:56",
    "region": "xixi",
    "unit_price": 81.0,
    "lat": 30.252089,
    "lng": 120.049028
  },
  {
    "title": "整租·大华西溪风情 5室2厅 南",
    "community": "大华西溪风情",
    "area": "318.89",
    "rooms": "5室2厅",
    "direction": "南",
    "floor": "",
    "price": "33000",
    "tags": "",
    "source": "",
    "url": "https://hz.lianjia.com/zufang/HZ2144697071016345600.html",
    "rent_type": "整租",
    "location": "余杭区-西溪-大华西溪风情",
    "scraped_at": "2026-05-03 23:57:28",
    "region": "xixi",
    "unit_price": 103.5,
    "lat": 30.252089,
    "lng": 120.049028
  },
  {
    "title": "整租·坤和西溪里 3室2厅 南",
    "community": "坤和西溪里",
    "area": "127.00",
    "rooms": "3室2厅",
    "direction": "南",
    "floor": "",
    "price": "7000",
    "tags": "",
    "source": "",
    "url": "https://hz.lianjia.com/zufang/HZ2154235192514969600.html",
    "rent_type": "整租",
    "location": "西湖区-西溪-坤和西溪里",
    "scraped_at": "2026-05-04 00:00:22",
    "region": "xixi",
    "unit_price": 55.1,
    "lat": 30.288491,
    "lng": 120.140846
  },
  {
    "title": "合租·西溪雅苑 5居室 南卧",
    "community": "西溪雅苑 5居室 南卧",
    "area": "25.00",
    "rooms": "",
    "direction": "",
    "floor": "",
    "price": "1100",
    "tags": "",
    "source": "",
    "url": "https://hz.lianjia.com/zufang/HZ2161005593534398464.html",
    "rent_type": "合租",
    "location": "余杭区-西溪-西溪雅苑",
    "scraped_at": "2026-05-04 00:00:12",
    "region": "xixi",
    "unit_price": 44.0,
    "lat": 30.248331,
    "lng": 120.045511
  },
  {
    "title": "合租·龙湖西溪天街 2居室 南卧",
    "community": "龙湖西溪天街 2居室 南卧",
    "area": "30.00",
    "rooms": "",
    "direction": "",
    "floor": "",
    "price": "2000",
    "tags": "",
    "source": "",
    "url": "https://hz.lianjia.com/zufang/HZ2162022876264267776.html",
    "rent_type": "合租",
    "location": "西湖区-西溪-龙湖西溪天街",
    "scraped_at": "2026-05-03 23:58:42",
    "region": "xixi",
    "unit_price": 66.7,
    "lat": 30.295649,
    "lng": 120.063681
  },
  {
    "title": "整租·坤和和家园 3室2厅 南",
    "community": "坤和和家园",
    "area": "89.00",
    "rooms": "3室2厅",
    "direction": "南",
    "floor": "",
    "price": "5000",
    "tags": "",
    "source": "",
    "url": "https://hz.lianjia.com/zufang/HZ2161796707082305536.html",
    "rent_type": "整租",
    "location": "西湖区-西溪-坤和和家园",
    "scraped_at": "2026-05-04 00:00:28",
    "region": "xixi",
    "unit_price": 56.2,
    "lat": 30.288491,
    "lng": 120.140846
  },
  {
    "title": "整租·西溪花园流芳苑 2室2厅 南",
    "community": "西溪花园流芳苑",
    "area": "100.00",
    "rooms": "2室2厅",
    "direction": "南",
    "floor": "",
    "price": "4800",
    "tags": "",
    "source": "",
    "url": "https://hz.lianjia.com/zufang/HZ2162027237539315712.html",
    "rent_type": "整租",
    "location": "西湖区-西溪-西溪花园流芳苑",
    "scraped_at": "2026-05-03 23:59:56",
    "region": "xixi",
    "unit_price": 48.0,
    "lat": 30.245327,
    "lng": 120.049473
  },
  {
    "title": "整租·西溪望庄 1室1厅 南/北",
    "community": "西溪望庄",
    "area": "40.00",
    "rooms": "1室1厅",
    "direction": "南/北",
    "floor": "",
    "price": "1500",
    "tags": "",
    "source": "",
    "url": "https://hz.lianjia.com/zufang/HZ2162064316797288448.html",
    "rent_type": "整租",
    "location": "余杭区-西溪-西溪望庄",
    "scraped_at": "2026-05-04 00:01:11",
    "region": "xixi",
    "unit_price": 37.5,
    "lat": 30.276991,
    "lng": 120.037962
  },
  {
    "title": "整租·坤和和家园 2室2厅 南",
    "community": "坤和和家园",
    "area": "89.00",
    "rooms": "2室2厅",
    "direction": "南",
    "floor": "",
    "price": "4500",
    "tags": "",
    "source": "",
    "url": "https://hz.lianjia.com/zufang/HZ2162080701459988480.html",
    "rent_type": "整租",
    "location": "西湖区-西溪-坤和和家园",
    "scraped_at": "2026-05-03 23:59:56",
    "region": "xixi",
    "unit_price": 50.6,
    "lat": 30.288491,
    "lng": 120.140846
  },
  {
    "title": "整租·融创河滨之城雨澜轩 3室2厅 南",
    "community": "融创河滨之城雨澜轩",
    "area": "89.00",
    "rooms": "3室2厅",
    "direction": "南",
    "floor": "",
    "price": "5500",
    "tags": "",
    "source": "",
    "url": "https://hz.lianjia.com/zufang/HZ2162071811607494656.html",
    "rent_type": "整租",
    "location": "西湖区-西溪-融创河滨之城雨澜轩",
    "scraped_at": "2026-05-04 00:01:11",
    "region": "xixi",
    "unit_price": 61.8,
    "lat": 30.288491,
    "lng": 120.140846
  },
  {
    "title": "整租·留和春天 3室2厅 南",
    "community": "留和春天",
    "area": "140.46",
    "rooms": "3室2厅",
    "direction": "南",
    "floor": "",
    "price": "4500",
    "tags": "",
    "source": "",
    "url": "https://hz.lianjia.com/zufang/HZ2162063362341470208.html",
    "rent_type": "整租",
    "location": "西湖区-西溪-留和春天",
    "scraped_at": "2026-05-04 00:01:11",
    "region": "xixi",
    "unit_price": 32.0,
    "lat": 30.21147,
    "lng": 120.0182
  },
  {
    "title": "整租·大华西溪风情 5室2厅 东南",
    "community": "大华西溪风情",
    "area": "247.27",
    "rooms": "5室2厅",
    "direction": "东南",
    "floor": "",
    "price": "16000",
    "tags": "",
    "source": "",
    "url": "https://hz.lianjia.com/zufang/HZ2049710367893880832.html",
    "rent_type": "整租",
    "location": "余杭区-西溪-大华西溪风情",
    "scraped_at": "2026-05-03 23:57:28",
    "region": "xixi",
    "unit_price": 64.7,
    "lat": 30.252089,
    "lng": 120.049028
  },
  {
    "title": "整租·滨江西溪之星 4室2厅 南",
    "community": "滨江西溪之星",
    "area": "128.00",
    "rooms": "4室2厅",
    "direction": "南",
    "floor": "",
    "price": "3000",
    "tags": "",
    "source": "",
    "url": "https://hz.lianjia.com/zufang/HZ2047227966781390848.html",
    "rent_type": "整租",
    "location": "余杭区-西溪-滨江西溪之星",
    "scraped_at": "2026-05-03 23:57:28",
    "region": "xixi",
    "unit_price": 23.4,
    "lat": 30.208812,
    "lng": 119.989229
  },
  {
    "title": "整租·西湖家园 6室1厅 南",
    "community": "西湖家园",
    "area": "285.00",
    "rooms": "6室1厅",
    "direction": "南",
    "floor": "",
    "price": "12000",
    "tags": "",
    "source": "",
    "url": "https://hz.lianjia.com/zufang/HZ2098025083841806336.html",
    "rent_type": "整租",
    "location": "西湖区-西溪-西湖家园",
    "scraped_at": "2026-05-03 23:57:28",
    "region": "xixi",
    "unit_price": 42.1,
    "lat": 30.245327,
    "lng": 120.049473
  },
  {
    "title": "整租·大华西溪风情 5室2厅 南",
    "community": "大华西溪风情",
    "area": "258.41",
    "rooms": "5室2厅",
    "direction": "南",
    "floor": "",
    "price": "9500",
    "tags": "",
    "source": "",
    "url": "https://hz.lianjia.com/zufang/HZ2110572592279584768.html",
    "rent_type": "整租",
    "location": "余杭区-西溪-大华西溪风情",
    "scraped_at": "2026-05-03 23:57:32",
    "region": "xixi",
    "unit_price": 36.8,
    "lat": 30.252089,
    "lng": 120.049028
  },
  {
    "title": "整租·西溪华府 3室2厅 南/北",
    "community": "西溪华府",
    "area": "139.00",
    "rooms": "3室2厅",
    "direction": "南/北",
    "floor": "",
    "price": "6800",
    "tags": "",
    "source": "",
    "url": "https://hz.lianjia.com/zufang/HZ2110687526921437184.html",
    "rent_type": "整租",
    "location": "西湖区-西溪-西溪华府",
    "scraped_at": "2026-05-03 23:57:32",
    "region": "xixi",
    "unit_price": 48.9,
    "lat": 30.245327,
    "lng": 120.049473
  },
  {
    "title": "整租·大华西溪风情澄品 3室2厅 南",
    "community": "大华西溪风情澄品",
    "area": "89.00",
    "rooms": "3室2厅",
    "direction": "南",
    "floor": "",
    "price": "4800",
    "tags": "",
    "source": "",
    "url": "https://hz.lianjia.com/zufang/HZ2109906085509857280.html",
    "rent_type": "整租",
    "location": "余杭区-西溪-大华西溪风情澄品",
    "scraped_at": "2026-05-03 23:57:32",
    "region": "xixi",
    "unit_price": 53.9,
    "lat": 30.252089,
    "lng": 120.049028
  },
  {
    "title": "合租·远洋西溪公馆 4居室 南卧",
    "community": "远洋西溪公馆 4居室 南卧",
    "area": "35.00",
    "rooms": "",
    "direction": "",
    "floor": "",
    "price": "1560",
    "tags": "",
    "source": "",
    "url": "https://hz.lianjia.com/zufang/HZ2111407218120196096.html",
    "rent_type": "合租",
    "location": "余杭区-西溪-远洋西溪公馆",
    "scraped_at": "2026-05-03 23:57:32",
    "region": "xixi",
    "unit_price": 44.6,
    "lat": 30.28176,
    "lng": 120.04379
  },
  {
    "title": "合租·佳源西溪印象 5居室 南卧",
    "community": "佳源西溪印象 5居室 南卧",
    "area": "20.00",
    "rooms": "",
    "direction": "",
    "floor": "",
    "price": "1900",
    "tags": "",
    "source": "",
    "url": "https://hz.lianjia.com/zufang/HZ2112404423647952896.html",
    "rent_type": "合租",
    "location": "余杭区-西溪-佳源西溪印象",
    "scraped_at": "2026-05-03 23:57:32",
    "region": "xixi",
    "unit_price": 95.0,
    "lat": 30.28176,
    "lng": 120.04379
  },
  {
    "title": "整租·西溪诚园明礼苑 4室2厅 南",
    "community": "西溪诚园明礼苑",
    "area": "227.04",
    "rooms": "4室2厅",
    "direction": "南",
    "floor": "",
    "price": "21000",
    "tags": "",
    "source": "",
    "url": "https://hz.lianjia.com/zufang/HZ2112089014910582784.html",
    "rent_type": "整租",
    "location": "西湖区-西溪-西溪诚园明礼苑",
    "scraped_at": "2026-05-03 23:57:32",
    "region": "xixi",
    "unit_price": 92.5,
    "lat": 30.245327,
    "lng": 120.049473
  },
  {
    "title": "合租·西溪望庄 5居室 南卧",
    "community": "西溪望庄 5居室 南卧",
    "area": "45.00",
    "rooms": "",
    "direction": "",
    "floor": "",
    "price": "2200",
    "tags": "",
    "source": "",
    "url": "https://hz.lianjia.com/zufang/HZ2111325842821873664.html",
    "rent_type": "合租",
    "location": "余杭区-西溪-西溪望庄",
    "scraped_at": "2026-05-03 23:57:32",
    "region": "xixi",
    "unit_price": 48.9,
    "lat": 30.276991,
    "lng": 120.037962
  },
  {
    "title": "整租·坤和和家园 5室2厅 错层 南",
    "community": "坤和和家园",
    "area": "187.90",
    "rooms": "5室2厅",
    "direction": "",
    "floor": "",
    "price": "6800",
    "tags": "",
    "source": "",
    "url": "https://hz.lianjia.com/zufang/HZ2113534846369267712.html",
    "rent_type": "整租",
    "location": "西湖区-西溪-坤和和家园",
    "scraped_at": "2026-05-03 23:57:32",
    "region": "xixi",
    "unit_price": 36.2,
    "lat": 30.288491,
    "lng": 120.140846
  },
  {
    "title": "整租·坤和西溪里 2室2厅 南",
    "community": "坤和西溪里",
    "area": "87.00",
    "rooms": "2室2厅",
    "direction": "南",
    "floor": "",
    "price": "4600",
    "tags": "",
    "source": "",
    "url": "https://hz.lianjia.com/zufang/HZ2113576746065330176.html",
    "rent_type": "整租",
    "location": "西湖区-西溪-坤和西溪里",
    "scraped_at": "2026-05-03 23:57:32",
    "region": "xixi",
    "unit_price": 52.9,
    "lat": 30.288491,
    "lng": 120.140846
  },
  {
    "title": "整租·西溪新城市 5室1厅 南",
    "community": "西溪新城市",
    "area": "60.00",
    "rooms": "5室1厅",
    "direction": "南",
    "floor": "",
    "price": "5200",
    "tags": "",
    "source": "",
    "url": "https://hz.lianjia.com/zufang/HZ2112866939662499840.html",
    "rent_type": "整租",
    "location": "西湖区-西溪-西溪新城市",
    "scraped_at": "2026-05-03 23:57:32",
    "region": "xixi",
    "unit_price": 86.7,
    "lat": 30.245327,
    "lng": 120.049473
  },
  {
    "title": "整租·龙湖西溪天街 3室2厅 南",
    "community": "龙湖西溪天街",
    "area": "69.00",
    "rooms": "3室2厅",
    "direction": "南",
    "floor": "",
    "price": "6500",
    "tags": "",
    "source": "",
    "url": "https://hz.lianjia.com/zufang/HZ2113148667685765120.html",
    "rent_type": "整租",
    "location": "西湖区-西溪-龙湖西溪天街",
    "scraped_at": "2026-05-03 23:57:32",
    "region": "xixi",
    "unit_price": 94.2,
    "lat": 30.295649,
    "lng": 120.063681
  },
  {
    "title": "整租·大华西溪风情 5室2厅 东南",
    "community": "大华西溪风情",
    "area": "376.00",
    "rooms": "5室2厅",
    "direction": "东南",
    "floor": "",
    "price": "41000",
    "tags": "",
    "source": "",
    "url": "https://hz.lianjia.com/zufang/HZ2114321879287201792.html",
    "rent_type": "整租",
    "location": "余杭区-西溪-大华西溪风情",
    "scraped_at": "2026-05-03 23:57:32",
    "region": "xixi",
    "unit_price": 109.0,
    "lat": 30.252089,
    "lng": 120.049028
  },
  {
    "title": "整租·西溪名园 5室1厅 复式 南",
    "community": "西溪名园",
    "area": "327.80",
    "rooms": "5室1厅",
    "direction": "",
    "floor": "",
    "price": "6000",
    "tags": "",
    "source": "",
    "url": "https://hz.lianjia.com/zufang/HZ2115058057451929600.html",
    "rent_type": "整租",
    "location": "余杭区-西溪-西溪名园",
    "scraped_at": "2026-05-03 23:57:32",
    "region": "xixi",
    "unit_price": 18.3,
    "lat": 30.242597,
    "lng": 119.973481
  },
  {
    "title": "整租·大华西溪风情 5室2厅 南",
    "community": "大华西溪风情",
    "area": "306.00",
    "rooms": "5室2厅",
    "direction": "南",
    "floor": "",
    "price": "25000",
    "tags": "",
    "source": "",
    "url": "https://hz.lianjia.com/zufang/HZ2115330129382080512.html",
    "rent_type": "整租",
    "location": "余杭区-西溪-大华西溪风情",
    "scraped_at": "2026-05-03 23:57:39",
    "region": "xixi",
    "unit_price": 81.7,
    "lat": 30.252089,
    "lng": 120.049028
  },
  {
    "title": "整租·水乡西溪小筑 2室1厅 南/北",
    "community": "水乡西溪小筑",
    "area": "60.00",
    "rooms": "2室1厅",
    "direction": "南/北",
    "floor": "",
    "price": "2300",
    "tags": "",
    "source": "",
    "url": "https://hz.lianjia.com/zufang/HZ2115711226087473152.html",
    "rent_type": "整租",
    "location": "余杭区-西溪-水乡西溪小筑",
    "scraped_at": "2026-05-03 23:57:39",
    "region": "xixi",
    "unit_price": 38.3,
    "lat": 30.255374,
    "lng": 120.01948
  },
  {
    "title": "整租·坤和和家园 4室2厅 跃层 南",
    "community": "坤和和家园",
    "area": "256.75",
    "rooms": "4室2厅",
    "direction": "",
    "floor": "",
    "price": "30000",
    "tags": "",
    "source": "",
    "url": "https://hz.lianjia.com/zufang/HZ2115790015328944128.html",
    "rent_type": "整租",
    "location": "西湖区-西溪-坤和和家园",
    "scraped_at": "2026-05-03 23:57:39",
    "region": "xixi",
    "unit_price": 116.8,
    "lat": 30.288491,
    "lng": 120.140846
  },
  {
    "title": "整租·百家乐西园 4室2厅 南/北",
    "community": "百家乐西园",
    "area": "178.00",
    "rooms": "4室2厅",
    "direction": "南/北",
    "floor": "",
    "price": "3500",
    "tags": "",
    "source": "",
    "url": "https://hz.lianjia.com/zufang/HZ2116128974282162176.html",
    "rent_type": "整租",
    "location": "余杭区-西溪-百家乐西园",
    "scraped_at": "2026-05-03 23:57:39",
    "region": "xixi",
    "unit_price": 19.7,
    "lat": 30.208812,
    "lng": 119.989229
  },
  {
    "title": "整租·西溪诚园知敬苑 4室2厅 南",
    "community": "西溪诚园知敬苑",
    "area": "198.00",
    "rooms": "4室2厅",
    "direction": "南",
    "floor": "",
    "price": "20000",
    "tags": "",
    "source": "",
    "url": "https://hz.lianjia.com/zufang/HZ2117186399256969216.html",
    "rent_type": "整租",
    "location": "西湖区-西溪-西溪诚园知敬苑",
    "scraped_at": "2026-05-03 23:57:39",
    "region": "xixi",
    "unit_price": 101.0,
    "lat": 30.245327,
    "lng": 120.049473
  },
  {
    "title": "整租·坤和和家园 4室2厅 西",
    "community": "坤和和家园",
    "area": "138.00",
    "rooms": "4室2厅",
    "direction": "西",
    "floor": "",
    "price": "5500",
    "tags": "",
    "source": "",
    "url": "https://hz.lianjia.com/zufang/HZ2131955296673726464.html",
    "rent_type": "整租",
    "location": "西湖区-西溪-坤和和家园",
    "scraped_at": "2026-05-03 23:57:32",
    "region": "xixi",
    "unit_price": 39.9,
    "lat": 30.288491,
    "lng": 120.140846
  },
  {
    "title": "整租·西溪诚园致诚苑 3室2厅 南",
    "community": "西溪诚园致诚苑",
    "area": "89.00",
    "rooms": "3室2厅",
    "direction": "南",
    "floor": "",
    "price": "7800",
    "tags": "",
    "source": "",
    "url": "https://hz.lianjia.com/zufang/HZ2132051038843174912.html",
    "rent_type": "整租",
    "location": "西湖区-西溪-西溪诚园致诚苑",
    "scraped_at": "2026-05-03 23:57:32",
    "region": "xixi",
    "unit_price": 87.6,
    "lat": 30.245327,
    "lng": 120.049473
  },
  {
    "title": "整租·融创河滨之城雨澜轩 3室2厅 南",
    "community": "融创河滨之城雨澜轩",
    "area": "89.00",
    "rooms": "3室2厅",
    "direction": "南",
    "floor": "",
    "price": "5283",
    "tags": "",
    "source": "",
    "url": "https://hz.lianjia.com/zufang/HZ2133078385037934592.html",
    "rent_type": "整租",
    "location": "西湖区-西溪-融创河滨之城雨澜轩",
    "scraped_at": "2026-05-03 23:57:32",
    "region": "xixi",
    "unit_price": 59.4,
    "lat": 30.288491,
    "lng": 120.140846
  },
  {
    "title": "整租·大华西溪风情澄品 3室1厅 南",
    "community": "大华西溪风情澄品",
    "area": "89.00",
    "rooms": "3室1厅",
    "direction": "南",
    "floor": "",
    "price": "5000",
    "tags": "",
    "source": "",
    "url": "https://hz.lianjia.com/zufang/HZ2132331364307959808.html",
    "rent_type": "整租",
    "location": "余杭区-西溪-大华西溪风情澄品",
    "scraped_at": "2026-05-03 23:57:32",
    "region": "xixi",
    "unit_price": 56.2,
    "lat": 30.252089,
    "lng": 120.049028
  },
  {
    "title": "整租·西溪蝶园二期 3室2厅 南",
    "community": "西溪蝶园二期",
    "area": "136.98",
    "rooms": "3室2厅",
    "direction": "南",
    "floor": "",
    "price": "10000",
    "tags": "",
    "source": "",
    "url": "https://hz.lianjia.com/zufang/HZ2136423790316355584.html",
    "rent_type": "整租",
    "location": "西湖区-西溪-西溪蝶园二期",
    "scraped_at": "2026-05-03 23:57:32",
    "region": "xixi",
    "unit_price": 73.0,
    "lat": 30.29354,
    "lng": 120.06162
  },
  {
    "title": "整租·滨江西溪之星 4室2厅 西南",
    "community": "滨江西溪之星",
    "area": "128.00",
    "rooms": "4室2厅",
    "direction": "西南",
    "floor": "",
    "price": "6000",
    "tags": "",
    "source": "",
    "url": "https://hz.lianjia.com/zufang/HZ2137439454929879040.html",
    "rent_type": "整租",
    "location": "余杭区-西溪-滨江西溪之星",
    "scraped_at": "2026-05-03 23:57:32",
    "region": "xixi",
    "unit_price": 46.9,
    "lat": 30.208812,
    "lng": 119.989229
  },
  {
    "title": "整租·坤和西溪里 3室2厅 南",
    "community": "坤和西溪里",
    "area": "89.00",
    "rooms": "3室2厅",
    "direction": "南",
    "floor": "",
    "price": "4550",
    "tags": "",
    "source": "",
    "url": "https://hz.lianjia.com/zufang/HZ2137371843772809216.html",
    "rent_type": "整租",
    "location": "西湖区-西溪-坤和西溪里",
    "scraped_at": "2026-05-03 23:57:32",
    "region": "xixi",
    "unit_price": 51.1,
    "lat": 30.288491,
    "lng": 120.140846
  },
  {
    "title": "整租·西溪玫瑰 4室2厅 复式 南",
    "community": "西溪玫瑰",
    "area": "261.46",
    "rooms": "4室2厅",
    "direction": "",
    "floor": "",
    "price": "13800",
    "tags": "",
    "source": "",
    "url": "https://hz.lianjia.com/zufang/HZ2137443690648436736.html",
    "rent_type": "整租",
    "location": "余杭区-西溪-西溪玫瑰",
    "scraped_at": "2026-05-03 23:57:32",
    "region": "xixi",
    "unit_price": 52.8,
    "lat": 30.242597,
    "lng": 119.973481
  },
  {
    "title": "整租·坤和和家园 5室2厅 南",
    "community": "坤和和家园",
    "area": "301.00",
    "rooms": "5室2厅",
    "direction": "南",
    "floor": "",
    "price": "10000",
    "tags": "",
    "source": "",
    "url": "https://hz.lianjia.com/zufang/HZ1959231759874785280.html",
    "rent_type": "整租",
    "location": "西湖区-西溪-坤和和家园",
    "scraped_at": "2026-05-03 23:57:34",
    "region": "xixi",
    "unit_price": 33.2,
    "lat": 30.288491,
    "lng": 120.140846
  },
  {
    "title": "整租·复地黄龙和山 4室2厅 南/北",
    "community": "复地黄龙和山",
    "area": "139.86",
    "rooms": "4室2厅",
    "direction": "南/北",
    "floor": "",
    "price": "5900",
    "tags": "",
    "source": "",
    "url": "https://hz.lianjia.com/zufang/HZ1967059988438319104.html",
    "rent_type": "整租",
    "location": "西湖区-西溪-复地黄龙和山",
    "scraped_at": "2026-05-03 23:57:34",
    "region": "xixi",
    "unit_price": 42.2,
    "lat": 30.288491,
    "lng": 120.140846
  },
  {
    "title": "合租·西溪花园流芳苑 6居室 南卧",
    "community": "西溪花园流芳苑 6居室 南卧",
    "area": "30.00",
    "rooms": "",
    "direction": "",
    "floor": "",
    "price": "1200",
    "tags": "",
    "source": "",
    "url": "https://hz.lianjia.com/zufang/HZ1968607629726973952.html",
    "rent_type": "合租",
    "location": "西湖区-西溪-西溪花园流芳苑",
    "scraped_at": "2026-05-03 23:57:34",
    "region": "xixi",
    "unit_price": 40.0,
    "lat": 30.272547,
    "lng": 120.120774
  },
  {
    "title": "整租·西溪君庐 4室2厅 南/北",
    "community": "西溪君庐",
    "area": "181.75",
    "rooms": "4室2厅",
    "direction": "南/北",
    "floor": "",
    "price": "9800",
    "tags": "",
    "source": "",
    "url": "https://hz.lianjia.com/zufang/HZ1968888399431467008.html",
    "rent_type": "整租",
    "location": "余杭区-西溪-西溪君庐",
    "scraped_at": "2026-05-03 23:57:34",
    "region": "xixi",
    "unit_price": 53.9,
    "lat": 30.242597,
    "lng": 119.973481
  },
  {
    "title": "整租·大华西溪风情 5室3厅 跃层 南",
    "community": "大华西溪风情",
    "area": "233.32",
    "rooms": "5室3厅",
    "direction": "",
    "floor": "",
    "price": "20000",
    "tags": "",
    "source": "",
    "url": "https://hz.lianjia.com/zufang/HZ1971804174047772672.html",
    "rent_type": "整租",
    "location": "余杭区-西溪-大华西溪风情",
    "scraped_at": "2026-05-03 23:57:34",
    "region": "xixi",
    "unit_price": 85.7,
    "lat": 30.252089,
    "lng": 120.049028
  },
  {
    "title": "整租·西湖家园 5室2厅 南",
    "community": "西湖家园",
    "area": "230.48",
    "rooms": "5室2厅",
    "direction": "南",
    "floor": "",
    "price": "16520",
    "tags": "",
    "source": "",
    "url": "https://hz.lianjia.com/zufang/HZ1969679855096168448.html",
    "rent_type": "整租",
    "location": "西湖区-西溪-西湖家园",
    "scraped_at": "2026-05-03 23:57:34",
    "region": "xixi",
    "unit_price": 71.7,
    "lat": 30.245327,
    "lng": 120.049473
  },
  {
    "title": "整租·西溪银泰城 2室1厅 南",
    "community": "西溪银泰城",
    "area": "128.00",
    "rooms": "2室1厅",
    "direction": "南",
    "floor": "",
    "price": "7600",
    "tags": "",
    "source": "",
    "url": "https://hz.lianjia.com/zufang/HZ1972592915330891776.html",
    "rent_type": "整租",
    "location": "西湖区-西溪-西溪银泰城",
    "scraped_at": "2026-05-03 23:57:34",
    "region": "xixi",
    "unit_price": 59.4,
    "lat": 30.245327,
    "lng": 120.049473
  },
  {
    "title": "整租·西溪诚品商业中心 4室1厅 南",
    "community": "西溪诚品商业中心",
    "area": "505.00",
    "rooms": "4室1厅",
    "direction": "南",
    "floor": "",
    "price": "33330",
    "tags": "",
    "source": "",
    "url": "https://hz.lianjia.com/zufang/HZ1973672975743844352.html",
    "rent_type": "整租",
    "location": "西湖区-西溪-西溪诚品商业中心",
    "scraped_at": "2026-05-03 23:57:34",
    "region": "xixi",
    "unit_price": 66.0,
    "lat": 30.245327,
    "lng": 120.049473
  },
  {
    "title": "整租·大华西溪风情 5室2厅 东南",
    "community": "大华西溪风情",
    "area": "244.13",
    "rooms": "5室2厅",
    "direction": "东南",
    "floor": "",
    "price": "7000",
    "tags": "",
    "source": "",
    "url": "https://hz.lianjia.com/zufang/HZ1978027823666823168.html",
    "rent_type": "整租",
    "location": "余杭区-西溪-大华西溪风情",
    "scraped_at": "2026-05-03 23:57:34",
    "region": "xixi",
    "unit_price": 28.7,
    "lat": 30.252089,
    "lng": 120.049028
  },
  {
    "title": "整租·西溪名园 3室2厅 南",
    "community": "西溪名园",
    "area": "152.65",
    "rooms": "3室2厅",
    "direction": "南",
    "floor": "",
    "price": "6300",
    "tags": "",
    "source": "",
    "url": "https://hz.lianjia.com/zufang/HZ1975929448460976128.html",
    "rent_type": "整租",
    "location": "余杭区-西溪-西溪名园",
    "scraped_at": "2026-05-03 23:57:34",
    "region": "xixi",
    "unit_price": 41.3,
    "lat": 30.242597,
    "lng": 119.973481
  },
  {
    "title": "合租·滨江西溪之星 4居室 东南卧",
    "community": "滨江西溪之星 4居室 东南卧",
    "area": "20.00",
    "rooms": "",
    "direction": "",
    "floor": "",
    "price": "1000",
    "tags": "",
    "source": "",
    "url": "https://hz.lianjia.com/zufang/HZ1980140978178097152.html",
    "rent_type": "合租",
    "location": "余杭区-西溪-滨江西溪之星",
    "scraped_at": "2026-05-03 23:57:34",
    "region": "xixi",
    "unit_price": 50.0,
    "lat": 30.253632,
    "lng": 120.03173
  },
  {
    "title": "整租·百家乐西园 5室2厅 南/北",
    "community": "百家乐西园",
    "area": "268.00",
    "rooms": "5室2厅",
    "direction": "南/北",
    "floor": "",
    "price": "8000",
    "tags": "",
    "source": "",
    "url": "https://hz.lianjia.com/zufang/HZ1997934271242698752.html",
    "rent_type": "整租",
    "location": "余杭区-西溪-百家乐西园",
    "scraped_at": "2026-05-03 23:57:34",
    "region": "xixi",
    "unit_price": 29.9,
    "lat": 30.208812,
    "lng": 119.989229
  },
  {
    "title": "整租·西溪银泰城 3室0厅 南/西北",
    "community": "西溪银泰城",
    "area": "112.27",
    "rooms": "3室0厅",
    "direction": "南/西北",
    "floor": "",
    "price": "10245",
    "tags": "",
    "source": "",
    "url": "https://hz.lianjia.com/zufang/HZ1997614275396370432.html",
    "rent_type": "整租",
    "location": "西湖区-西溪-西溪银泰城",
    "scraped_at": "2026-05-03 23:58:28",
    "region": "xixi",
    "unit_price": 91.3,
    "lat": 30.245327,
    "lng": 120.049473
  },
  {
    "title": "整租·坤和和家园 4室2厅 南",
    "community": "坤和和家园",
    "area": "177.00",
    "rooms": "4室2厅",
    "direction": "南",
    "floor": "",
    "price": "6000",
    "tags": "",
    "source": "",
    "url": "https://hz.lianjia.com/zufang/HZ1986088029281845248.html",
    "rent_type": "整租",
    "location": "西湖区-西溪-坤和和家园",
    "scraped_at": "2026-05-03 23:59:56",
    "region": "xixi",
    "unit_price": 33.9,
    "lat": 30.288491,
    "lng": 120.140846
  },
  {
    "title": "整租·留和春天 3室2厅 南",
    "community": "留和春天",
    "area": "132.56",
    "rooms": "3室2厅",
    "direction": "南",
    "floor": "",
    "price": "3500",
    "tags": "",
    "source": "",
    "url": "https://hz.lianjia.com/zufang/HZ1999071931692744704.html",
    "rent_type": "整租",
    "location": "西湖区-西溪-留和春天",
    "scraped_at": "2026-05-03 23:57:34",
    "region": "xixi",
    "unit_price": 26.4,
    "lat": 30.21147,
    "lng": 120.0182
  },
  {
    "title": "整租·大华西溪风情 4室2厅 东南/南",
    "community": "大华西溪风情",
    "area": "287.00",
    "rooms": "4室2厅",
    "direction": "东南/南",
    "floor": "",
    "price": "50000",
    "tags": "",
    "source": "",
    "url": "https://hz.lianjia.com/zufang/HZ1999098357926068224.html",
    "rent_type": "整租",
    "location": "余杭区-西溪-大华西溪风情",
    "scraped_at": "2026-05-03 23:57:34",
    "region": "xixi",
    "unit_price": 174.2,
    "lat": 30.252089,
    "lng": 120.049028
  },
  {
    "title": "整租·留庄 1室1厅 北",
    "community": "留庄",
    "area": "51.81",
    "rooms": "1室1厅",
    "direction": "北",
    "floor": "",
    "price": "2700",
    "tags": "",
    "source": "",
    "url": "https://hz.lianjia.com/zufang/HZ2001215644179103744.html",
    "rent_type": "整租",
    "location": "西湖区-西溪-留庄",
    "scraped_at": "2026-05-03 23:59:56",
    "region": "xixi",
    "unit_price": 52.1,
    "lat": 30.228344,
    "lng": 120.041179
  },
  {
    "title": "整租·香洲里 5室2厅 南",
    "community": "香洲里",
    "area": "244.00",
    "rooms": "5室2厅",
    "direction": "南",
    "floor": "",
    "price": "6500",
    "tags": "",
    "source": "",
    "url": "https://hz.lianjia.com/zufang/HZ2001157186897575936.html",
    "rent_type": "整租",
    "location": "余杭区-西溪-香洲里",
    "scraped_at": "2026-05-03 23:59:56",
    "region": "xixi",
    "unit_price": 26.6,
    "lat": 30.208812,
    "lng": 119.989229
  },
  {
    "title": "合租·大华西溪风情澄品 4居室 西卧",
    "community": "大华西溪风情澄品 4居室 西卧",
    "area": "16.00",
    "rooms": "",
    "direction": "",
    "floor": "",
    "price": "1500",
    "tags": "",
    "source": "",
    "url": "https://hz.lianjia.com/zufang/HZ2003340667702476800.html",
    "rent_type": "合租",
    "location": "余杭区-西溪-大华西溪风情澄品",
    "scraped_at": "2026-05-03 23:59:56",
    "region": "xixi",
    "unit_price": 93.8,
    "lat": 30.252089,
    "lng": 120.049028
  },
  {
    "title": "合租·西溪花园凌波苑 4居室 北卧",
    "community": "西溪花园凌波苑 4居室 北卧",
    "area": "20.00",
    "rooms": "",
    "direction": "",
    "floor": "",
    "price": "1000",
    "tags": "",
    "source": "",
    "url": "https://hz.lianjia.com/zufang/HZ2005120761093685248.html",
    "rent_type": "合租",
    "location": "西湖区-西溪-西溪花园凌波苑",
    "scraped_at": "2026-05-03 23:59:56",
    "region": "xixi",
    "unit_price": 50.0,
    "lat": 30.2704,
    "lng": 120.12089
  },
  {
    "title": "整租·坤和求是里 3室2厅 南/北",
    "community": "坤和求是里",
    "area": "88.88",
    "rooms": "3室2厅",
    "direction": "南/北",
    "floor": "",
    "price": "6000",
    "tags": "",
    "source": "",
    "url": "https://hz.lianjia.com/zufang/HZ2008110621563813888.html",
    "rent_type": "整租",
    "location": "西湖区-西溪-坤和求是里",
    "scraped_at": "2026-05-03 23:59:56",
    "region": "xixi",
    "unit_price": 67.5,
    "lat": 30.288491,
    "lng": 120.140846
  },
  {
    "title": "整租·留庄 1室1厅 南",
    "community": "留庄",
    "area": "56.00",
    "rooms": "1室1厅",
    "direction": "南",
    "floor": "",
    "price": "3300",
    "tags": "",
    "source": "",
    "url": "https://hz.lianjia.com/zufang/HZ2011363779173941248.html",
    "rent_type": "整租",
    "location": "西湖区-西溪-留庄",
    "scraped_at": "2026-05-03 23:59:56",
    "region": "xixi",
    "unit_price": 58.9,
    "lat": 30.228344,
    "lng": 120.041179
  },
  {
    "title": "整租·华策中心 1室1厅 南",
    "community": "华策中心",
    "area": "117.50",
    "rooms": "1室1厅",
    "direction": "南",
    "floor": "",
    "price": "7000",
    "tags": "",
    "source": "",
    "url": "https://hz.lianjia.com/zufang/HZ2012460915651248128.html",
    "rent_type": "整租",
    "location": "西湖区-西溪-华策中心",
    "scraped_at": "2026-05-03 23:59:56",
    "region": "xixi",
    "unit_price": 59.6,
    "lat": 30.2938,
    "lng": 120.04912
  },
  {
    "title": "合租·大华西溪风情澄品 5居室 北卧",
    "community": "大华西溪风情澄品 5居室 北卧",
    "area": "17.00",
    "rooms": "",
    "direction": "",
    "floor": "",
    "price": "1200",
    "tags": "",
    "source": "",
    "url": "https://hz.lianjia.com/zufang/HZ2009648200473903104.html",
    "rent_type": "合租",
    "location": "余杭区-西溪-大华西溪风情澄品",
    "scraped_at": "2026-05-03 23:57:34",
    "region": "xixi",
    "unit_price": 70.6,
    "lat": 30.252089,
    "lng": 120.049028
  },
  {
    "title": "合租·楊家牌楼 3居室 南卧",
    "community": "楊家牌楼 3居室 南卧",
    "area": "20.00",
    "rooms": "",
    "direction": "",
    "floor": "",
    "price": "1400",
    "tags": "",
    "source": "",
    "url": "https://hz.lianjia.com/zufang/HZ2126951980667502592.html",
    "rent_type": "合租",
    "location": "西湖区-西溪-楊家牌楼",
    "scraped_at": "2026-05-03 23:57:34",
    "region": "xixi",
    "unit_price": 70.0,
    "lat": 30.26531,
    "lng": 120.07314
  },
  {
    "title": "合租·佳源西溪印象 4居室 跃层 南/北卧",
    "community": "佳源西溪印象 4居室 跃层 南/北卧",
    "area": "25.00",
    "rooms": "",
    "direction": "",
    "floor": "",
    "price": "3300",
    "tags": "",
    "source": "",
    "url": "https://hz.lianjia.com/zufang/HZ2127667694781071360.html",
    "rent_type": "合租",
    "location": "余杭区-西溪-佳源西溪印象",
    "scraped_at": "2026-05-03 23:57:34",
    "region": "xixi",
    "unit_price": 132.0,
    "lat": 30.28268,
    "lng": 119.99944
  },
  {
    "title": "合租·龙湖西溪天街 2居室 西卧",
    "community": "龙湖西溪天街 2居室 西卧",
    "area": "30.00",
    "rooms": "",
    "direction": "",
    "floor": "",
    "price": "2000",
    "tags": "",
    "source": "",
    "url": "https://hz.lianjia.com/zufang/HZ2127627386743685120.html",
    "rent_type": "合租",
    "location": "西湖区-西溪-龙湖西溪天街",
    "scraped_at": "2026-05-03 23:57:34",
    "region": "xixi",
    "unit_price": 66.7,
    "lat": 30.295649,
    "lng": 120.063681
  },
  {
    "title": "整租·留庄 5室2厅 南",
    "community": "留庄",
    "area": "301.20",
    "rooms": "5室2厅",
    "direction": "南",
    "floor": "",
    "price": "18220",
    "tags": "",
    "source": "",
    "url": "https://hz.lianjia.com/zufang/HZ2128764098345697280.html",
    "rent_type": "整租",
    "location": "西湖区-西溪-留庄",
    "scraped_at": "2026-05-03 23:57:34",
    "region": "xixi",
    "unit_price": 60.5,
    "lat": 30.228344,
    "lng": 120.041179
  },
  {
    "title": "整租·西溪铭庭 4室2厅 东南",
    "community": "西溪铭庭",
    "area": "307.31",
    "rooms": "4室2厅",
    "direction": "东南",
    "floor": "",
    "price": "23000",
    "tags": "",
    "source": "",
    "url": "https://hz.lianjia.com/zufang/HZ2117224802094678016.html",
    "rent_type": "整租",
    "location": "余杭区-西溪-西溪铭庭",
    "scraped_at": "2026-05-03 23:58:02",
    "region": "xixi",
    "unit_price": 74.8,
    "lat": 30.242597,
    "lng": 119.973481
  },
  {
    "title": "整租·龙湖西溪天街 1室1厅 东",
    "community": "龙湖西溪天街",
    "area": "48.00",
    "rooms": "1室1厅",
    "direction": "东",
    "floor": "",
    "price": "4300",
    "tags": "",
    "source": "",
    "url": "https://hz.lianjia.com/zufang/HZ2116845817011634176.html",
    "rent_type": "整租",
    "location": "西湖区-西溪-龙湖西溪天街",
    "scraped_at": "2026-05-03 23:58:02",
    "region": "xixi",
    "unit_price": 89.6,
    "lat": 30.295649,
    "lng": 120.063681
  },
  {
    "title": "整租·西溪诚园明礼苑 3室2厅 南",
    "community": "西溪诚园明礼苑",
    "area": "165.00",
    "rooms": "3室2厅",
    "direction": "南",
    "floor": "",
    "price": "14000",
    "tags": "",
    "source": "",
    "url": "https://hz.lianjia.com/zufang/HZ2117566807039541248.html",
    "rent_type": "整租",
    "location": "西湖区-西溪-西溪诚园明礼苑",
    "scraped_at": "2026-05-03 23:58:02",
    "region": "xixi",
    "unit_price": 84.8,
    "lat": 30.245327,
    "lng": 120.049473
  },
  {
    "title": "整租·坤和和家园 1室1厅 南",
    "community": "坤和和家园",
    "area": "145.00",
    "rooms": "1室1厅",
    "direction": "南",
    "floor": "",
    "price": "18333",
    "tags": "",
    "source": "",
    "url": "https://hz.lianjia.com/zufang/HZ2117844128736739328.html",
    "rent_type": "整租",
    "location": "西湖区-西溪-坤和和家园",
    "scraped_at": "2026-05-03 23:58:02",
    "region": "xixi",
    "unit_price": 126.4,
    "lat": 30.288491,
    "lng": 120.140846
  },
  {
    "title": "整租·西溪九号 1室1厅 南",
    "community": "西溪九号",
    "area": "45.00",
    "rooms": "1室1厅",
    "direction": "南",
    "floor": "",
    "price": "2700",
    "tags": "",
    "source": "",
    "url": "https://hz.lianjia.com/zufang/HZ2118334002547916800.html",
    "rent_type": "整租",
    "location": "西湖区-西溪-西溪九号",
    "scraped_at": "2026-05-03 23:58:02",
    "region": "xixi",
    "unit_price": 60.0,
    "lat": 30.253479,
    "lng": 120.055209
  },
  {
    "title": "整租·西溪诚园致诚苑 5室1厅 复式 南",
    "community": "西溪诚园致诚苑",
    "area": "240.55",
    "rooms": "5室1厅",
    "direction": "",
    "floor": "",
    "price": "25000",
    "tags": "",
    "source": "",
    "url": "https://hz.lianjia.com/zufang/HZ2117916563947388928.html",
    "rent_type": "整租",
    "location": "西湖区-西溪-西溪诚园致诚苑",
    "scraped_at": "2026-05-03 23:58:02",
    "region": "xixi",
    "unit_price": 103.9,
    "lat": 30.245327,
    "lng": 120.049473
  },
  {
    "title": "整租·世茂西溪宸悦 2室2厅 南",
    "community": "世茂西溪宸悦",
    "area": "66.00",
    "rooms": "2室2厅",
    "direction": "南",
    "floor": "",
    "price": "5000",
    "tags": "",
    "source": "",
    "url": "https://hz.lianjia.com/zufang/HZ2118584533744877568.html",
    "rent_type": "整租",
    "location": "西湖区-西溪-世茂西溪宸悦",
    "scraped_at": "2026-05-03 23:57:39",
    "region": "xixi",
    "unit_price": 75.8,
    "lat": 30.295638,
    "lng": 120.06694
  },
  {
    "title": "整租·西溪诚园致诚苑 4室3厅 复式 南",
    "community": "西溪诚园致诚苑",
    "area": "189.00",
    "rooms": "4室3厅",
    "direction": "",
    "floor": "",
    "price": "14000",
    "tags": "",
    "source": "",
    "url": "https://hz.lianjia.com/zufang/HZ2119382536860729344.html",
    "rent_type": "整租",
    "location": "西湖区-西溪-西溪诚园致诚苑",
    "scraped_at": "2026-05-03 23:57:39",
    "region": "xixi",
    "unit_price": 74.1,
    "lat": 30.245327,
    "lng": 120.049473
  },
  {
    "title": "整租·大华西溪风情澄品 3室2厅 南",
    "community": "大华西溪风情澄品",
    "area": "89.33",
    "rooms": "3室2厅",
    "direction": "南",
    "floor": "",
    "price": "5200",
    "tags": "",
    "source": "",
    "url": "https://hz.lianjia.com/zufang/HZ2118926753459077120.html",
    "rent_type": "整租",
    "location": "余杭区-西溪-大华西溪风情澄品",
    "scraped_at": "2026-05-03 23:57:39",
    "region": "xixi",
    "unit_price": 58.2,
    "lat": 30.252089,
    "lng": 120.049028
  },
  {
    "title": "整租·万科坤和玉泉 3室2厅 跃层 南",
    "community": "万科坤和玉泉",
    "area": "139.76",
    "rooms": "3室2厅",
    "direction": "",
    "floor": "",
    "price": "10800",
    "tags": "",
    "source": "",
    "url": "https://hz.lianjia.com/zufang/HZ2118959839227936768.html",
    "rent_type": "整租",
    "location": "西湖区-西溪-万科坤和玉泉",
    "scraped_at": "2026-05-03 23:57:39",
    "region": "xixi",
    "unit_price": 77.3,
    "lat": 30.288491,
    "lng": 120.140846
  },
  {
    "title": "整租·远洋西溪公馆 3室2厅 东南",
    "community": "远洋西溪公馆",
    "area": "139.00",
    "rooms": "3室2厅",
    "direction": "东南",
    "floor": "",
    "price": "4000",
    "tags": "",
    "source": "",
    "url": "https://hz.lianjia.com/zufang/HZ2119346581844000768.html",
    "rent_type": "整租",
    "location": "余杭区-西溪-远洋西溪公馆",
    "scraped_at": "2026-05-03 23:57:39",
    "region": "xixi",
    "unit_price": 28.8,
    "lat": 30.208812,
    "lng": 119.989229
  },
  {
    "title": "整租·大华西溪风情澄品 4室2厅 南",
    "community": "大华西溪风情澄品",
    "area": "137.05",
    "rooms": "4室2厅",
    "direction": "南",
    "floor": "",
    "price": "6000",
    "tags": "",
    "source": "",
    "url": "https://hz.lianjia.com/zufang/HZ2120410880993656832.html",
    "rent_type": "整租",
    "location": "余杭区-西溪-大华西溪风情澄品",
    "scraped_at": "2026-05-03 23:57:39",
    "region": "xixi",
    "unit_price": 43.8,
    "lat": 30.252089,
    "lng": 120.049028
  },