[
  {
    "title": "整租·城市经典四期高迪 1室1厅 南",
    "community": "城市经典四期高迪",
    "area": "60.92",
    "rooms": "1室1厅",
    "direction": "南",
    "floor": "",
    "price": "5980",
    "tags": "",
    "source": "",
    "url": "https://sh.lianjia.com/zufang/SH2137883207020838912.html",
    "rent_type": "整租",
    "scraped_at": "2026-04-22 18:31:15",
    "region": "zhangjiang",
    "unit_price": 98.2,
    "lat": 31.212907,
    "lng": 121.618681
  },
  {
    "title": "整租·华发四季 3室2厅 南/北",
    "community": "华发四季",
    "area": "89.84",
    "rooms": "3室2厅",
    "direction": "南/北",
    "floor": "",
    "price": "8500",
    "tags": "",
    "source": "",
    "url": "https://sh.lianjia.com/zufang/SH2151283645007003648.html",
    "rent_type": "整租",
    "scraped_at": "2026-04-22 18:26:29",
    "region": "zhangjiang",
    "unit_price": 94.6,
    "lat": 31.172771,
    "lng": 121.623048
  },
  {
    "title": "整租·阳光花城 4室3厅 南/北",
    "community": "阳光花城",
    "area": "211.00",
    "rooms": "4室3厅",
    "direction": "南/北",
    "floor": "",
    "price": "13000",
    "tags": "",
    "source": "",
    "url": "https://sh.lianjia.com/zufang/SH2142289235539918848.html",
    "rent_type": "整租",
    "scraped_at": "2026-04-22 18:26:29",
    "region": "zhangjiang",
    "unit_price": 61.6,
    "lat": 31.208903,
    "lng": 121.623037
  },
  {
    "title": "独栋·纳仕 雅集服务公寓 张江国企直租 保租房 精装公寓 燃气可做饭 宠物友好 1室2厅",
    "community": "纳仕 雅集服务公寓 张江国企直租 保租房 精装公寓 燃气可做饭 宠物友好",
    "area": "79.00",
    "rooms": "1室2厅",
    "direction": "",
    "floor": "",
    "price": "6200",
    "tags": "",
    "source": "",
    "url": "https://sh.lianjia.com/apartment/80843.html",
    "rent_type": "独栋",
    "scraped_at": "2026-04-22 18:31:52",
    "region": "zhangjiang",
    "unit_price": 78.5,
    "lat": 31.099715,
    "lng": 121.758656
  },
  {
    "title": "整租·日月光水岸花园(一期) 2室2厅 南",
    "community": "日月光水岸花园(一期)",
    "area": "88.00",
    "rooms": "2室2厅",
    "direction": "南",
    "floor": "",
    "price": "7035",
    "tags": "",
    "source": "",
    "url": "https://sh.lianjia.com/zufang/SH2110957731539058688.html",
    "rent_type": "整租",
    "scraped_at": "2026-04-22 18:31:15",
    "region": "zhangjiang",
    "unit_price": 79.9,
    "lat": 31.214414,
    "lng": 121.623717
  },
  {
    "title": "独栋·城方公寓 孙桥璟佩社区 浦东张江 朝南阳光一居室 13号线直达 拎包入住 1室1厅",
    "community": "城方公寓 孙桥璟佩社区 浦东张江 朝南阳光一居室 13号线直达 拎包入住",
    "area": "32.99",
    "rooms": "1室1厅",
    "direction": "",
    "floor": "",
    "price": "3762",
    "tags": "",
    "source": "",
    "url": "https://sh.lianjia.com/apartment/85555.html",
    "rent_type": "独栋",
    "scraped_at": "2026-04-22 18:26:29",
    "region": "zhangjiang",
    "unit_price": 114.0,
    "lat": 31.213456,
    "lng": 121.435516
  },
  {
    "title": "整租·盛大天地青春里2.0 2室2厅 西南",
    "community": "盛大天地青春里2.0",
    "area": "54.00",
    "rooms": "2室2厅",
    "direction": "西南",
    "floor": "",
    "price": "5040",
    "tags": "",
    "source": "",
    "url": "https://sh.lianjia.com/zufang/SH2067817588066353152.html",
    "rent_type": "整租",
    "scraped_at": "2026-04-22 18:31:15",
    "region": "zhangjiang",
    "unit_price": 93.3,
    "lat": 31.169751,
    "lng": 121.605652
  },
  {
    "title": "整租·华发四季 4室2厅 南",
    "community": "华发四季",
    "area": "161.96",
    "rooms": "4室2厅",
    "direction": "南",
    "floor": "",
    "price": "14000",
    "tags": "",
    "source": "",
    "url": "https://sh.lianjia.com/zufang/SH2130982069818359808.html",
    "rent_type": "整租",
    "scraped_at": "2026-04-22 18:26:29",
    "region": "zhangjiang",
    "unit_price": 86.4,
    "lat": 31.172771,
    "lng": 121.623048
  },
  {
    "title": "整租·香楠小区 3室1厅 南",
    "community": "香楠小区",
    "area": "92.00",
    "rooms": "3室1厅",
    "direction": "南",
    "floor": "",
    "price": "6000",
    "tags": "",
    "source": "",
    "url": "https://sh.lianjia.com/zufang/SH2072968642244378624.html",
    "rent_type": "整租",
    "scraped_at": "2026-04-22 18:31:15",
    "region": "zhangjiang",
    "unit_price": 65.2,
    "lat": 31.21652,
    "lng": 121.614476
  },
  {
    "title": "独栋·泊寓 张江国创店 【好采光一居室】 近地铁 通勤方便 宠物友好 公共厨房可做饭 实体墙 开间",
    "community": "泊寓 张江国创店 【好采光一居室】 近地铁 通勤方便 宠物友好 公共厨房可做饭 实体墙 开间",
    "area": "23.00",
    "rooms": "",
    "direction": "",
    "floor": "",
    "price": "3800",
    "tags": "",
    "source": "",
    "url": "https://sh.lianjia.com/apartment/26211.html",
    "rent_type": "独栋",
    "scraped_at": "2026-04-22 18:32:28",
    "region": "zhangjiang",
    "unit_price": 165.2,
    "lat": 31.220249,
    "lng": 121.628135
  },
  {
    "title": "整租·展想悦廷 1室1厅 东",
    "community": "展想悦廷",
    "area": "53.09",
    "rooms": "1室1厅",
    "direction": "东",
    "floor": "",
    "price": "4200",
    "tags": "",
    "source": "",
    "url": "https://sh.lianjia.com/zufang/SH2086318045046767616.html",
    "rent_type": "整租",
    "scraped_at": "2026-04-22 18:31:15",
    "region": "zhangjiang",
    "unit_price": 79.1,
    "lat": 31.210723,
    "lng": 121.626563
  },
  {
    "title": "整租·孙桥花苑 2室2厅 南",
    "community": "孙桥花苑",
    "area": "72.60",
    "rooms": "2室2厅",
    "direction": "南",
    "floor": "",
    "price": "5600",
    "tags": "",
    "source": "",
    "url": "https://sh.lianjia.com/zufang/SH2095095420492447744.html",
    "rent_type": "整租",
    "scraped_at": "2026-04-22 18:31:15",
    "region": "zhangjiang",
    "unit_price": 77.1,
    "lat": 31.179884,
    "lng": 121.629495
  },
  {
    "title": "独栋·柚米 张江纳仕国际租赁社区 张江圈层 从选择住址开始！ 民用水电燃气 灵活租期！宠物友好 2室1厅",
    "community": "柚米 张江纳仕国际租赁社区 张江圈层 从选择住址开始！ 民用水电燃气 灵活租期！宠物友好",
    "area": "90.00",
    "rooms": "2室1厅",
    "direction": "",
    "floor": "",
    "price": "6362",
    "tags": "",
    "source": "",
    "url": "https://sh.lianjia.com/apartment/43060.html",
    "rent_type": "独栋",
    "scraped_at": "2026-04-22 18:27:23",
    "region": "zhangjiang",
    "unit_price": 70.7,
    "lat": 31.168658,
    "lng": 121.623132
  },
  {
    "title": "整租·黄浦花园 3室2厅 南",
    "community": "黄浦花园",
    "area": "101.58",
    "rooms": "3室2厅",
    "direction": "南",
    "floor": "",
    "price": "5040",
    "tags": "",
    "source": "",
    "url": "https://sh.lianjia.com/zufang/SH2025427331740336128.html",
    "rent_type": "整租",
    "scraped_at": "2026-04-22 18:26:29",
    "region": "zhangjiang",
    "unit_price": 49.6,
    "lat": 31.219451,
    "lng": 121.448417
  },
  {
    "title": "独栋·唐巢公寓 软件园店 一室户+阳台 开间",
    "community": "唐巢公寓 软件园店 一室户+阳台 开间",
    "area": "25.00",
    "rooms": "",
    "direction": "",
    "floor": "",
    "price": "3000-3200",
    "tags": "",
    "source": "",
    "url": "https://sh.lianjia.com/apartment/65421.html",
    "rent_type": "独栋",
    "scraped_at": "2026-04-22 18:31:52",
    "region": "zhangjiang",
    "unit_price": "",
    "lat": 31.22639368252405,
    "lng": 121.60614026356798
  },
  {
    "title": "整租·盛大天地青春里2.0 2室2厅 北",
    "community": "盛大天地青春里2.0",
    "area": "46.00",
    "rooms": "2室2厅",
    "direction": "北",
    "floor": "",
    "price": "4515",
    "tags": "",
    "source": "",
    "url": "https://sh.lianjia.com/zufang/SH2025147038575886336.html",
    "rent_type": "整租",
    "scraped_at": "2026-04-22 18:26:29",
    "region": "zhangjiang",
    "unit_price": 98.2,
    "lat": 31.169751,
    "lng": 121.605652
  },
  {
    "title": "整租·东郊华庭 5室2厅 南",
    "community": "东郊华庭",
    "area": "384.00",
    "rooms": "5室2厅",
    "direction": "南",
    "floor": "",
    "price": "30000",
    "tags": "",
    "source": "",
    "url": "https://sh.lianjia.com/zufang/SH2141516125286957056.html",
    "rent_type": "整租",
    "scraped_at": "2026-04-22 18:26:29",
    "region": "zhangjiang",
    "unit_price": 78.1,
    "lat": 31.218018,
    "lng": 121.623611
  },
  {
    "title": "独栋·纳仕 张江在线右里1 位于浦东张江的【国企保租房】 1室1厅",
    "community": "纳仕 张江在线右里1 位于浦东张江的【国企保租房】",
    "area": "55.00",
    "rooms": "1室1厅",
    "direction": "",
    "floor": "",
    "price": "5055",
    "tags": "",
    "source": "",
    "url": "https://sh.lianjia.com/apartment/101047.html",
    "rent_type": "独栋",
    "scraped_at": "2026-04-22 18:26:29",
    "region": "zhangjiang",
    "unit_price": 91.9,
    "lat": 31.19811306345841,
    "lng": 121.59683114494747
  },
  {
    "title": "整租·展想悦廷 1室1厅 西",
    "community": "展想悦廷",
    "area": "52.83",
    "rooms": "1室1厅",
    "direction": "西",
    "floor": "",
    "price": "4200",
    "tags": "",
    "source": "",
    "url": "https://sh.lianjia.com/zufang/SH2144388274746032128.html",
    "rent_type": "整租",
    "scraped_at": "2026-04-22 18:26:29",
    "region": "zhangjiang",
    "unit_price": 79.5,
    "lat": 31.210723,
    "lng": 121.626563
  },
  {
    "title": "整租·圣宇豪庭 4室2厅 南/北",
    "community": "圣宇豪庭",
    "area": "148.92",
    "rooms": "4室2厅",
    "direction": "南/北",
    "floor": "",
    "price": "14000",
    "tags": "",
    "source": "",
    "url": "https://sh.lianjia.com/zufang/SH2153048466211733504.html",
    "rent_type": "整租",
    "scraped_at": "2026-04-22 18:26:29",
    "region": "zhangjiang",
    "unit_price": 94.0,
    "lat": 31.18413,
    "lng": 121.630896
  },
  {
    "title": "整租·益丰新村 2室2厅 南",
    "community": "益丰新村",
    "area": "88.90",
    "rooms": "2室2厅",
    "direction": "南",
    "floor": "",
    "price": "7300",
    "tags": "",
    "source": "",
    "url": "https://sh.lianjia.com/zufang/SH2147410576089808896.html",
    "rent_type": "整租",
    "scraped_at": "2026-04-22 18:31:15",
    "region": "zhangjiang",
    "unit_price": 82.1,
    "lat": 31.197321,
    "lng": 121.631454
  },
  {
    "title": "独栋·达社国际公寓 张江店 告别黑中介：13号线中科路站，直营公寓，合同规范 1室1厅",
    "community": "达社国际公寓 张江店 告别黑中介：13号线中科路站，直营公寓，合同规范",
    "area": "42.00",
    "rooms": "1室1厅",
    "direction": "",
    "floor": "",
    "price": "6150",
    "tags": "",
    "source": "",
    "url": "https://sh.lianjia.com/apartment/103840.html",
    "rent_type": "独栋",
    "scraped_at": "2026-04-22 18:32:40",
    "region": "zhangjiang",
    "unit_price": 146.4,
    "lat": 31.203856,
    "lng": 121.431926
  },
  {
    "title": "整租·古桐公寓 1室1厅 南",
    "community": "古桐公寓",
    "area": "63.39",
    "rooms": "1室1厅",
    "direction": "南",
    "floor": "",
    "price": "5355",
    "tags": "",
    "source": "",
    "url": "https://sh.lianjia.com/zufang/SH1822646509691207680.html",
    "rent_type": "整租",
    "scraped_at": "2026-04-22 18:27:31",
    "region": "zhangjiang",
    "unit_price": 84.5,
    "lat": 31.200974,
    "lng": 121.616393
  },
  {
    "title": "整租·东郊紫园 5室2厅 复式 南",
    "community": "东郊紫园",
    "area": "377.00",
    "rooms": "5室2厅",
    "direction": "",
    "floor": "",
    "price": "40000",
    "tags": "",
    "source": "",
    "url": "https://sh.lianjia.com/zufang/SH2153059674553843712.html",
    "rent_type": "整租",
    "scraped_at": "2026-04-22 19:16:41",
    "region": "changning",
    "unit_price": 106.1,
    "lat": 31.178775,
    "lng": 121.624074
  },
  {
    "title": "整租·汤臣豪园一期 4室2厅 复式 南",
    "community": "汤臣豪园一期",
    "area": "257.23",
    "rooms": "4室2厅",
    "direction": "",
    "floor": "",
    "price": "26000",
    "tags": "",
    "source": "",
    "url": "https://sh.lianjia.com/zufang/SH2154797458205442048.html",
    "rent_type": "整租",
    "scraped_at": "2026-04-22 19:16:41",
    "region": "changning",
    "unit_price": 101.1,
    "lat": 31.209999,
    "lng": 121.585405
  },
  {
    "title": "整租·交江大楼 3室2厅 南",
    "community": "交江大楼",
    "area": "168.00",
    "rooms": "3室2厅",
    "direction": "南",
    "floor": "",
    "price": "11000",
    "tags": "",
    "source": "",
    "url": "https://sh.lianjia.com/zufang/SH2100122614474211328.html",
    "rent_type": "整租",
    "scraped_at": "2026-04-22 18:26:29",
    "region": "zhangjiang",
    "unit_price": 65.5,
    "lat": 31.205617,
    "lng": 121.613283
  },
  {
    "title": "整租·华发四季 3室1厅 南",
    "community": "华发四季",
    "area": "89.84",
    "rooms": "3室1厅",
    "direction": "南",
    "floor": "",
    "price": "8200",
    "tags": "",
    "source": "",
    "url": "https://sh.lianjia.com/zufang/SH2104418974396579840.html",
    "rent_type": "整租",
    "scraped_at": "2026-04-22 18:26:29",
    "region": "zhangjiang",
    "unit_price": 91.3,
    "lat": 31.172771,
    "lng": 121.623048
  },
  {
    "title": "独栋·南城公寓 张江店 阳光LOFT,免水网，押一付一 1室1厅",
    "community": "南城公寓 张江店 阳光LOFT,免水网，押一付一",
    "area": "20.00",
    "rooms": "1室1厅",
    "direction": "",
    "floor": "",
    "price": "2900",
    "tags": "",
    "source": "",
    "url": "https://sh.lianjia.com/apartment/107113.html",
    "rent_type": "独栋",
    "scraped_at": "2026-04-22 18:31:42",
    "region": "zhangjiang",
    "unit_price": 145.0,
    "lat": 31.213533,
    "lng": 121.440064
  },
  {
    "title": "整租·川杨新苑(六期) 2室1厅 南",
    "community": "川杨新苑(六期)",
    "area": "60.28",
    "rooms": "2室1厅",
    "direction": "南",
    "floor": "",
    "price": "5775",
    "tags": "",
    "source": "",
    "url": "https://sh.lianjia.com/zufang/SH1760228218054377472.html",
    "rent_type": "整租",
    "scraped_at": "2026-04-22 18:26:36",
    "region": "zhangjiang",
    "unit_price": 95.8,
    "lat": 31.190876,
    "lng": 121.636381
  },
  {
    "title": "整租·城市经典四期高迪 1室1厅 南",
    "community": "城市经典四期高迪",
    "area": "63.94",
    "rooms": "1室1厅",
    "direction": "南",
    "floor": "",
    "price": "6300",
    "tags": "",
    "source": "",
    "url": "https://sh.lianjia.com/zufang/SH2147899024600989696.html",
    "rent_type": "整租",
    "scraped_at": "2026-04-22 18:26:36",
    "region": "zhangjiang",
    "unit_price": 98.5,
    "lat": 31.212907,
    "lng": 121.618681
  },
  {
    "title": "整租·杨镇新村 2室1厅 南/北",
    "community": "杨镇新村",
    "area": "65.00",
    "rooms": "2室1厅",
    "direction": "南/北",
    "floor": "",
    "price": "4673",
    "tags": "",
    "source": "",
    "url": "https://sh.lianjia.com/zufang/SH2127794984030568448.html",
    "rent_type": "整租",
    "scraped_at": "2026-04-22 18:31:15",
    "region": "zhangjiang",
    "unit_price": 71.9,
    "lat": 31.029188,
    "lng": 121.369623
  },
  {
    "title": "整租·盛大天地青春里2.0 2室2厅 南",
    "community": "盛大天地青春里2.0",
    "area": "41.87",
    "rooms": "2室2厅",
    "direction": "南",
    "floor": "",
    "price": "5040",
    "tags": "",
    "source": "",
    "url": "https://sh.lianjia.com/zufang/SH2122301820679225344.html",
    "rent_type": "整租",
    "scraped_at": "2026-04-22 18:26:39",
    "region": "zhangjiang",
    "unit_price": 120.4,
    "lat": 31.169751,
    "lng": 121.605652
  },
  {
    "title": "独栋·柚米 张江纳仕社区E店 张江集团 家庭型三室两厅，燃气厨房，配套学校 方便停车 3室2厅",
    "community": "柚米 张江纳仕社区E店 张江集团 家庭型三室两厅，燃气厨房，配套学校 方便停车",
    "area": "145.00",
    "rooms": "3室2厅",
    "direction": "",
    "floor": "",
    "price": "10268",
    "tags": "",
    "source": "",
    "url": "https://sh.lianjia.com/apartment/20387.html",
    "rent_type": "独栋",
    "scraped_at": "2026-04-22 18:31:52",
    "region": "zhangjiang",
    "unit_price": 70.8,
    "lat": 31.186213,
    "lng": 121.587145
  },
  {
    "title": "整租·汇智湖畔家园 1室1厅 南",
    "community": "汇智湖畔家园",
    "area": "74.86",
    "rooms": "1室1厅",
    "direction": "南",
    "floor": "",
    "price": "7350",
    "tags": "",
    "source": "",
    "url": "https://sh.lianjia.com/zufang/SH2042955152205283328.html",
    "rent_type": "整租",
    "scraped_at": "2026-04-22 18:31:15",
    "region": "zhangjiang",
    "unit_price": 98.2,
    "lat": 31.199759,
    "lng": 121.606217
  },
  {
    "title": "整租·盛大天地青春里2.0 2室1厅 南",
    "community": "盛大天地青春里2.0",
    "area": "62.00",
    "rooms": "2室1厅",
    "direction": "南",
    "floor": "",
    "price": "6500",
    "tags": "",
    "source": "",
    "url": "https://sh.lianjia.com/zufang/SH2148335711579799552.html",
    "rent_type": "整租",
    "scraped_at": "2026-04-22 18:26:36",
    "region": "zhangjiang",
    "unit_price": 104.8,
    "lat": 31.169751,
    "lng": 121.605652
  },
  {
    "title": "整租·科雅苑 2室1厅 南",
    "community": "科雅苑",
    "area": "60.00",
    "rooms": "2室1厅",
    "direction": "南",
    "floor": "",
    "price": "4410",
    "tags": "",
    "source": "",
    "url": "https://sh.lianjia.com/zufang/SH2032086983743897600.html",
    "rent_type": "整租",
    "scraped_at": "2026-04-22 18:31:42",
    "region": "zhangjiang",
    "unit_price": 73.5,
    "lat": 31.16647,
    "lng": 121.623478
  },
  {
    "title": "独栋·柚米 张江纳仕社区A店 张江保租房直营！临近张江科技园 设施齐全 水电民用 2室1厅",
    "community": "柚米 张江纳仕社区A店 张江保租房直营！临近张江科技园 设施齐全 水电民用",
    "area": "90.00",
    "rooms": "2室1厅",
    "direction": "",
    "floor": "",
    "price": "6362",
    "tags": "",
    "source": "",
    "url": "https://sh.lianjia.com/apartment/60831.html",
    "rent_type": "独栋",
    "scraped_at": "2026-04-22 18:26:36",
    "region": "zhangjiang",
    "unit_price": 70.7,
    "lat": 31.203781,
    "lng": 121.594166
  },
  {
    "title": "整租·盛大天地青春里(一期) 2室1厅 南",
    "community": "盛大天地青春里(一期)",
    "area": "66.92",
    "rooms": "2室1厅",
    "direction": "南",
    "floor": "",
    "price": "5100",
    "tags": "",
    "source": "",
    "url": "https://sh.lianjia.com/zufang/SH2594326332834332672.html",
    "rent_type": "整租",
    "scraped_at": "2026-04-22 18:26:39",
    "region": "zhangjiang",
    "unit_price": 76.2,
    "lat": 31.170677,
    "lng": 121.605855
  },
  {
    "title": "独栋·城家公寓 城家公寓上海张江蔡伦路店 限时特惠 地铁口出行便利 精装公寓 采光好 宠物友好大一居阳光房 开间",
    "community": "城家公寓 城家公寓上海张江蔡伦路店 限时特惠 地铁口出行便利 精装公寓 采光好 宠物友好大一居阳光房 开间",
    "area": "33.00",
    "rooms": "",
    "direction": "",
    "floor": "",
    "price": "3650",
    "tags": "",
    "source": "",
    "url": "https://sh.lianjia.com/apartment/104344.html",
    "rent_type": "独栋",
    "scraped_at": "2026-04-22 18:26:36",
    "region": "zhangjiang",
    "unit_price": 110.6,
    "lat": 31.262907,
    "lng": 121.335573
  },
  {
    "title": "整租·杨镇新村 2室2厅 南",
    "community": "杨镇新村",
    "area": "71.62",
    "rooms": "2室2厅",
    "direction": "南",
    "floor": "",
    "price": "6006",
    "tags": "",
    "source": "",
    "url": "https://sh.lianjia.com/zufang/SH1823551103602524160.html",
    "rent_type": "整租",
    "scraped_at": "2026-04-22 18:27:31",
    "region": "zhangjiang",
    "unit_price": 83.9,
    "lat": 31.029188,
    "lng": 121.369623
  },
  {
    "title": "整租·盛大天地青春里2.0 2室2厅 南",
    "community": "盛大天地青春里2.0",
    "area": "44.73",
    "rooms": "2室2厅",
    "direction": "南",
    "floor": "",
    "price": "4830",
    "tags": "",
    "source": "",
    "url": "https://sh.lianjia.com/zufang/SH2017126228166705152.html",
    "rent_type": "整租",
    "scraped_at": "2026-04-22 18:26:39",
    "region": "zhangjiang",
    "unit_price": 108.0,
    "lat": 31.169751,
    "lng": 121.605652
  },
  {
    "title": "整租·盛大天地青春里2.0 2室2厅 北",
    "community": "盛大天地青春里2.0",
    "area": "44.91",
    "rooms": "2室2厅",
    "direction": "北",
    "floor": "",
    "price": "5880",
    "tags": "",
    "source": "",
    "url": "https://sh.lianjia.com/zufang/SH1779112386339274752.html",
    "rent_type": "整租",
    "scraped_at": "2026-04-22 18:27:31",
    "region": "zhangjiang",
    "unit_price": 130.9,
    "lat": 31.169751,
    "lng": 121.605652
  },
  {
    "title": "整租·申城佳苑三期B块 2室1厅 南",
    "community": "申城佳苑三期B块",
    "area": "57.00",
    "rooms": "2室1厅",
    "direction": "南",
    "floor": "",
    "price": "5300",
    "tags": "",
    "source": "",
    "url": "https://sh.lianjia.com/zufang/SH2151607091524009984.html",
    "rent_type": "整租",
    "scraped_at": "2026-04-22 18:26:36",
    "region": "zhangjiang",
    "unit_price": 93.0,
    "lat": 31.180953,
    "lng": 121.638523
  },
  {
    "title": "独栋·集贤天地人才公寓 张江店 朝南温馨一居近地铁2号线张江人的首选可提取公积金办理居住证D 1室1厅",
    "community": "集贤天地人才公寓 张江店 朝南温馨一居近地铁2号线张江人的首选可提取公积金办理居住证D",
    "area": "50.00",
    "rooms": "1室1厅",
    "direction": "",
    "floor": "",
    "price": "5800",
    "tags": "",
    "source": "",
    "url": "https://sh.lianjia.com/apartment/85357.html",
    "rent_type": "独栋",
    "scraped_at": "2026-04-22 18:32:28",
    "region": "zhangjiang",
    "unit_price": 116.0,
    "lat": 31.230525,
    "lng": 121.473667
  },
  {
    "title": "整租·张江汤臣豪园(二期) 2室2厅 南",
    "community": "张江汤臣豪园(二期)",
    "area": "76.87",
    "rooms": "2室2厅",
    "direction": "南",
    "floor": "",
    "price": "8190",
    "tags": "",
    "source": "",
    "url": "https://sh.lianjia.com/zufang/SH1815995607530078208.html",
    "rent_type": "整租",
    "scraped_at": "2026-04-22 18:27:31",
    "region": "zhangjiang",
    "unit_price": 106.5,
    "lat": 31.202498,
    "lng": 121.597512
  },
  {
    "title": "整租·张江汤臣豪园(二期) 2室2厅 南",
    "community": "张江汤臣豪园(二期)",
    "area": "131.74",
    "rooms": "2室2厅",
    "direction": "南",
    "floor": "",
    "price": "11500",
    "tags": "",
    "source": "",
    "url": "https://sh.lianjia.com/zufang/SH2153353866022748160.html",
    "rent_type": "整租",
    "scraped_at": "2026-04-22 18:26:46",
    "region": "zhangjiang",
    "unit_price": 87.3,
    "lat": 31.202498,
    "lng": 121.597512
  },
  {
    "title": "整租·张江汤臣豪园(三期) 2室1厅 南",
    "community": "张江汤臣豪园(三期)",
    "area": "88.00",
    "rooms": "2室1厅",
    "direction": "南",
    "floor": "",
    "price": "9500",
    "tags": "",
    "source": "",
    "url": "https://sh.lianjia.com/zufang/SH2145526391318249472.html",
    "rent_type": "整租",
    "scraped_at": "2026-04-22 18:31:42",
    "region": "zhangjiang",
    "unit_price": 108.0,
    "lat": 31.199283,
    "lng": 121.597612
  },
  {
    "title": "独栋·纳仕 雅集服务公寓B 公寓.纳仕.国企直营公寓，可短租，包宽带，宠物友好，民用水电燃气，电器全配 2室2厅",
    "community": "纳仕 雅集服务公寓B 公寓.纳仕.国企直营公寓，可短租，包宽带，宠物友好，民用水电燃气，电器全配",
    "area": "101.00",
    "rooms": "2室2厅",
    "direction": "",
    "floor": "",
    "price": "7597",
    "tags": "",
    "source": "",
    "url": "https://sh.lianjia.com/apartment/84270.html",
    "rent_type": "独栋",
    "scraped_at": "2026-04-22 18:31:52",
    "region": "zhangjiang",
    "unit_price": 75.2,
    "lat": 31.253504,
    "lng": 121.620492
  },
  {
    "title": "整租·展想悦廷 1室1厅 南/西南",
    "community": "展想悦廷",
    "area": "52.37",
    "rooms": "1室1厅",
    "direction": "南/西南",
    "floor": "",
    "price": "4725",
    "tags": "",
    "source": "",
    "url": "https://sh.lianjia.com/zufang/SH1755168667185709056.html",
    "rent_type": "整租",
    "scraped_at": "2026-04-22 18:26:36",
    "region": "zhangjiang",
    "unit_price": 90.2,
    "lat": 31.210723,
    "lng": 121.626563
  },
  {
    "title": "独栋·城家公寓 张江店 温馨榻榻米房间等你来住！可免费办理居住证，学生有优惠，随时看 开间",
    "community": "城家公寓 张江店 温馨榻榻米房间等你来住！可免费办理居住证，学生有优惠，随时看 开间",
    "area": "34.00",
    "rooms": "",
    "direction": "",
    "floor": "",
    "price": "4500",
    "tags": "",
    "source": "",
    "url": "https://sh.lianjia.com/apartment/50830.html",
    "rent_type": "独栋",
    "scraped_at": "2026-04-22 18:32:52",
    "region": "zhangjiang",
    "unit_price": 132.4,
    "lat": 31.257319,
    "lng": 121.567014
  },
  {
    "title": "整租·张江汤臣豪园(三期) 4室2厅 南/北",
    "community": "张江汤臣豪园(三期)",
    "area": "212.58",
    "rooms": "4室2厅",
    "direction": "南/北",
    "floor": "",
    "price": "23000",
    "tags": "",
    "source": "",
    "url": "https://sh.lianjia.com/zufang/SH2107000079234629632.html",
    "rent_type": "整租",
    "scraped_at": "2026-04-22 18:26:36",
    "region": "zhangjiang",
    "unit_price": 108.2,
    "lat": 31.199283,
    "lng": 121.597612
  },
  {
    "title": "整租·中建御华园 3室2厅 南",
    "community": "中建御华园",
    "area": "100.00",
    "rooms": "3室2厅",
    "direction": "南",
    "floor": "",
    "price": "11800",
    "tags": "",
    "source": "",
    "url": "https://sh.lianjia.com/zufang/SH2113906125601505280.html",
    "rent_type": "整租",
    "scraped_at": "2026-04-22 18:26:36",
    "region": "zhangjiang",
    "unit_price": 118.0,
    "lat": 31.207382,
    "lng": 121.617018
  },
  {
    "title": "整租·万科翡翠公园（商用） 2室2厅 南",
    "community": "万科翡翠公园（商用）",
    "area": "68.00",
    "rooms": "2室2厅",
    "direction": "南",
    "floor": "",
    "price": "6800",
    "tags": "",
    "source": "",
    "url": "https://sh.lianjia.com/zufang/SH2117192019578191872.html",
    "rent_type": "整租",
    "scraped_at": "2026-04-22 18:26:36",
    "region": "zhangjiang",
    "unit_price": 100.0,
    "lat": 31.179762,
    "lng": 121.610562
  },
  {
    "title": "整租·虹御公寓 3室2厅 南",
    "community": "虹御公寓",
    "area": "114.85",
    "rooms": "3室2厅",
    "direction": "南",
    "floor": "",
    "price": "7000",
    "tags": "",
    "source": "",
    "url": "https://sh.lianjia.com/zufang/SH2122662613778169856.html",
    "rent_type": "整租",
    "scraped_at": "2026-04-22 18:26:36",
    "region": "zhangjiang",
    "unit_price": 60.9,
    "lat": 31.187024,
    "lng": 121.628373
  },
  {
    "title": "整租·科锦苑 2室1厅 南",
    "community": "科锦苑",
    "area": "85.00",
    "rooms": "2室1厅",
    "direction": "南",
    "floor": "",
    "price": "6500",
    "tags": "",
    "source": "",
    "url": "https://sh.lianjia.com/zufang/SH2155305598126653440.html",
    "rent_type": "整租",
    "scraped_at": "2026-04-22 18:27:16",
    "region": "zhangjiang",
    "unit_price": 76.5,
    "lat": 31.173612,
    "lng": 121.625676
  },
  {
    "title": "独栋·紫晶社区 张江店 社区公寓，春季特惠房 配置器全 带阳台 开间",
    "community": "紫晶社区 张江店 社区公寓，春季特惠房 配置器全 带阳台 开间",
    "area": "25.00",
    "rooms": "",
    "direction": "",
    "floor": "",
    "price": "2500",
    "tags": "",
    "source": "",
    "url": "https://sh.lianjia.com/apartment/89895.html",
    "rent_type": "独栋",
    "scraped_at": "2026-04-22 18:26:39",
    "region": "zhangjiang",
    "unit_price": 100.0,
    "lat": 31.192759,
    "lng": 121.590511
  },
  {
    "title": "整租·汇智湖畔家园 2室1厅 南",
    "community": "汇智湖畔家园",
    "area": "89.36",
    "rooms": "2室1厅",
    "direction": "南",
    "floor": "",
    "price": "9800",
    "tags": "",
    "source": "",
    "url": "https://sh.lianjia.com/zufang/SH2096182307755917312.html",
    "rent_type": "整租",
    "scraped_at": "2026-04-22 18:26:46",
    "region": "zhangjiang",
    "unit_price": 109.7,
    "lat": 31.199759,
    "lng": 121.606217
  },
  {
    "title": "整租·展想悦廷 1室1厅 南",
    "community": "展想悦廷",
    "area": "52.83",
    "rooms": "1室1厅",
    "direction": "南",
    "floor": "",
    "price": "4500",
    "tags": "",
    "source": "",
    "url": "https://sh.lianjia.com/zufang/SH1909472568658624512.html",
    "rent_type": "整租",
    "scraped_at": "2026-04-22 18:26:39",
    "region": "zhangjiang",
    "unit_price": 85.2,
    "lat": 31.210723,
    "lng": 121.626563
  },
  {
    "title": "整租·川杨新苑(四期) 1室1厅 南",
    "community": "川杨新苑(四期)",
    "area": "57.00",
    "rooms": "1室1厅",
    "direction": "南",
    "floor": "",
    "price": "4725",
    "tags": "",
    "source": "",
    "url": "https://sh.lianjia.com/zufang/SH2030190477289979904.html",
    "rent_type": "整租",
    "scraped_at": "2026-04-22 18:26:39",
    "region": "zhangjiang",
    "unit_price": 82.9,
    "lat": 31.189052,
    "lng": 121.63772
  },
  {
    "title": "独栋·微驿共享社区 张江店 2号线广兰路地铁/近张江中心/独立卫生间/1.2床单人床/ 开间",
    "community": "微驿共享社区 张江店 2号线广兰路地铁/近张江中心/独立卫生间/1.2床单人床/ 开间",
    "area": "15.00",
    "rooms": "",
    "direction": "",
    "floor": "",
    "price": "2300",
    "tags": "",
    "source": "",
    "url": "https://sh.lianjia.com/apartment/92967.html",
    "rent_type": "独栋",
    "scraped_at": "2026-04-22 18:31:42",
    "region": "zhangjiang",
    "unit_price": 153.3,
    "lat": 31.22534191706911,
    "lng": 121.62190572381459
  },
  {
    "title": "独栋·盛大天地青春里公寓 二期 原始3房1厅2卫 3室1厅",
    "community": "盛大天地青春里公寓 二期 原始3房1厅2卫",
    "area": "120.00",
    "rooms": "3室1厅",
    "direction": "",
    "floor": "",
    "price": "6650",
    "tags": "",
    "source": "",
    "url": "https://sh.lianjia.com/apartment/4876.html",
    "rent_type": "独栋",
    "scraped_at": "2026-04-22 18:27:16",
    "region": "zhangjiang",
    "unit_price": 55.4,
    "lat": 31.169751,
    "lng": 121.605652
  },
  {
    "title": "整租·张江汤臣豪园(四期) 3室2厅 南",
    "community": "张江汤臣豪园(四期)",
    "area": "128.19",
    "rooms": "3室2厅",
    "direction": "南",
    "floor": "",
    "price": "19000",
    "tags": "",
    "source": "",
    "url": "https://sh.lianjia.com/zufang/SH2151909549697662976.html",
    "rent_type": "整租",
    "scraped_at": "2026-04-22 18:26:39",
    "region": "zhangjiang",
    "unit_price": 148.2,
    "lat": 31.198209,
    "lng": 121.592123
  },
  {
    "title": "整租·万科翡翠公园三期 3室2厅 南",
    "community": "万科翡翠公园三期",
    "area": "125.83",
    "rooms": "3室2厅",
    "direction": "南",
    "floor": "",
    "price": "16000",
    "tags": "",
    "source": "",
    "url": "https://sh.lianjia.com/zufang/SH2142984033338916864.html",
    "rent_type": "整租",
    "scraped_at": "2026-04-22 18:26:39",
    "region": "zhangjiang",
    "unit_price": 127.2,
    "lat": 31.180094,
    "lng": 121.610047
  },
  {
    "title": "整租·城市经典四期高迪 3室2厅 南",
    "community": "城市经典四期高迪",
    "area": "139.00",
    "rooms": "3室2厅",
    "direction": "南",
    "floor": "",
    "price": "14000",
    "tags": "",
    "source": "",
    "url": "https://sh.lianjia.com/zufang/SH2153445039898886144.html",
    "rent_type": "整租",
    "scraped_at": "2026-04-22 18:26:39",
    "region": "zhangjiang",
    "unit_price": 100.7,
    "lat": 31.212907,
    "lng": 121.618681
  },
  {
    "title": "独栋·蓝光公寓 张江店 字节跳动附近/全屋宜家家具/可以养猫 开间",
    "community": "蓝光公寓 张江店 字节跳动附近/全屋宜家家具/可以养猫 开间",
    "area": "32.00",
    "rooms": "",
    "direction": "",
    "floor": "",
    "price": "3400",
    "tags": "",
    "source": "",
    "url": "https://sh.lianjia.com/apartment/45535.html",
    "rent_type": "独栋",
    "scraped_at": "2026-04-22 18:26:39",
    "region": "zhangjiang",
    "unit_price": 106.2,
    "lat": 31.214356,
    "lng": 121.63669
  },
  {
    "title": "独栋·盛大天地青春里公寓 居里路 金科路地铁口 阳光一居室 无中介费 长租立减 1000元 开间",
    "community": "盛大天地青春里公寓 居里路 金科路地铁口 阳光一居室 无中介费 长租立减 1000元 开间",
    "area": "25.00",
    "rooms": "",
    "direction": "",
    "floor": "",
    "price": "3350",
    "tags": "",
    "source": "",
    "url": "https://sh.lianjia.com/apartment/31085.html",
    "rent_type": "独栋",
    "scraped_at": "2026-04-22 18:31:42",
    "region": "zhangjiang",
    "unit_price": 134.0,
    "lat": 31.170677,
    "lng": 121.604961
  },
  {
    "title": "整租·盛大天地青春里(一期) 2室2厅 北",
    "community": "盛大天地青春里(一期)",
    "area": "42.49",
    "rooms": "2室2厅",
    "direction": "北",
    "floor": "",
    "price": "4500",
    "tags": "",
    "source": "",
    "url": "https://sh.lianjia.com/zufang/SH2143396756719665152.html",
    "rent_type": "整租",
    "scraped_at": "2026-04-22 18:27:16",
    "region": "zhangjiang",
    "unit_price": 105.9,
    "lat": 31.170677,
    "lng": 121.605855
  },
  {
    "title": "整租·古桐六村 2室2厅 南",
    "community": "古桐六村",
    "area": "95.00",
    "rooms": "2室2厅",
    "direction": "南",
    "floor": "",
    "price": "8500",
    "tags": "",
    "source": "",
    "url": "https://sh.lianjia.com/zufang/SH2146864679786381312.html",
    "rent_type": "整租",
    "scraped_at": "2026-04-22 18:27:16",
    "region": "zhangjiang",
    "unit_price": 89.5,
    "lat": 31.201266,
    "lng": 121.610465
  },
  {
    "title": "整租·玉兰香苑一期B块 1室2厅 南",
    "community": "玉兰香苑一期B块",
    "area": "60.00",
    "rooms": "1室2厅",
    "direction": "南",
    "floor": "",
    "price": "5600",
    "tags": "",
    "source": "",
    "url": "https://sh.lianjia.com/zufang/SH2151621249611071488.html",
    "rent_type": "整租",
    "scraped_at": "2026-04-22 18:27:16",
    "region": "zhangjiang",
    "unit_price": 93.3,
    "lat": 31.201049,
    "lng": 121.631989
  },
  {
    "title": "整租·汤臣豪园一期 4室2厅 南",
    "community": "汤臣豪园一期",
    "area": "188.63",
    "rooms": "4室2厅",
    "direction": "南",
    "floor": "",
    "price": "25000",
    "tags": "",
    "source": "",
    "url": "https://sh.lianjia.com/zufang/SH2140457501286465536.html",
    "rent_type": "整租",
    "scraped_at": "2026-04-22 19:16:41",
    "region": "changning",
    "unit_price": 132.5,
    "lat": 31.209999,
    "lng": 121.585405
  },
  {
    "title": "整租·张江汤臣豪园(四期) 4室2厅 南",
    "community": "张江汤臣豪园(四期)",
    "area": "136.59",
    "rooms": "4室2厅",
    "direction": "南",
    "floor": "",
    "price": "17000",
    "tags": "",
    "source": "",
    "url": "https://sh.lianjia.com/zufang/SH2153480703239520256.html",
    "rent_type": "整租",
    "scraped_at": "2026-04-22 18:26:46",
    "region": "zhangjiang",
    "unit_price": 124.5,
    "lat": 31.198209,
    "lng": 121.592123
  },
  {
    "title": "整租·日月光水岸花园（二期） 3室2厅 南",
    "community": "日月光水岸花园（二期）",
    "area": "141.74",
    "rooms": "3室2厅",
    "direction": "南",
    "floor": "",
    "price": "11000",
    "tags": "",
    "source": "",
    "url": "https://sh.lianjia.com/zufang/SH2141426069662597120.html",
    "rent_type": "整租",
    "scraped_at": "2026-04-22 18:26:46",
    "region": "zhangjiang",
    "unit_price": 77.6,
    "lat": 31.214476,
    "lng": 121.622049
  },
  {
    "title": "整租·东郊华庭 9室2厅 复式 南",
    "community": "东郊华庭",
    "area": "400.10",
    "rooms": "9室2厅",
    "direction": "",
    "floor": "",
    "price": "37000",
    "tags": "",
    "source": "",
    "url": "https://sh.lianjia.com/zufang/SH2153909632790167552.html",
    "rent_type": "整租",
    "scraped_at": "2026-04-22 18:26:46",
    "region": "zhangjiang",
    "unit_price": 92.5,
    "lat": 31.218018,
    "lng": 121.623611
  },
  {
    "title": "整租·东方别墅 5室2厅 南",
    "community": "东方别墅",
    "area": "244.52",
    "rooms": "5室2厅",
    "direction": "南",
    "floor": "",
    "price": "27000",
    "tags": "",
    "source": "",
    "url": "https://sh.lianjia.com/zufang/SH2113504001898053632.html",
    "rent_type": "整租",
    "scraped_at": "2026-04-22 18:26:46",
    "region": "zhangjiang",
    "unit_price": 110.4,
    "lat": 31.226243,
    "lng": 121.611487
  },
  {
    "title": "整租·春港丽园(公寓) 4室2厅 南",
    "community": "春港丽园(公寓)",
    "area": "116.00",
    "rooms": "4室2厅",
    "direction": "南",
    "floor": "",
    "price": "6800",
    "tags": "",
    "source": "",
    "url": "https://sh.lianjia.com/zufang/SH2151533368825610240.html",
    "rent_type": "整租",
    "scraped_at": "2026-04-22 18:26:46",
    "region": "zhangjiang",
    "unit_price": 58.6,
    "lat": 31.202239,
    "lng": 121.623576
  },
  {
    "title": "整租·万科翡翠公园（商用） 1室1厅 东",
    "community": "万科翡翠公园（商用）",
    "area": "45.00",
    "rooms": "1室1厅",
    "direction": "东",
    "floor": "",
    "price": "6000",
    "tags": "",
    "source": "",
    "url": "https://sh.lianjia.com/zufang/SH2154975493735055360.html",
    "rent_type": "整租",
    "scraped_at": "2026-04-22 18:26:46",
    "region": "zhangjiang",
    "unit_price": 133.3,
    "lat": 31.179762,
    "lng": 121.610562
  },
  {
    "title": "整租·万科翡翠公园六期 3室2厅 南",
    "community": "万科翡翠公园六期",
    "area": "94.75",
    "rooms": "3室2厅",
    "direction": "南",
    "floor": "",
    "price": "13000",
    "tags": "",
    "source": "",
    "url": "https://sh.lianjia.com/zufang/SH2155881402019610624.html",
    "rent_type": "整租",
    "scraped_at": "2026-04-22 18:26:46",
    "region": "zhangjiang",
    "unit_price": 137.2,
    "lat": 31.181301,
    "lng": 121.612192
  },
  {
    "title": "整租·张江汤臣豪园(三期) 2室2厅 南",
    "community": "张江汤臣豪园(三期)",
    "area": "84.08",
    "rooms": "2室2厅",
    "direction": "南",
    "floor": "",
    "price": "10500",
    "tags": "",
    "source": "",
    "url": "https://sh.lianjia.com/zufang/SH2151222648997150720.html",
    "rent_type": "整租",
    "scraped_at": "2026-04-22 18:26:46",
    "region": "zhangjiang",
    "unit_price": 124.9,
    "lat": 31.199283,
    "lng": 121.597612
  },
  {
    "title": "整租·汤臣豪园(二期) 4室2厅 复式 南",
    "community": "汤臣豪园(二期)",
    "area": "226.00",
    "rooms": "4室2厅",
    "direction": "",
    "floor": "",
    "price": "23000",
    "tags": "",
    "source": "",
    "url": "https://sh.lianjia.com/zufang/SH2154834659031121920.html",
    "rent_type": "整租",
    "scraped_at": "2026-04-22 18:26:46",
    "region": "zhangjiang",
    "unit_price": 101.8,
    "lat": 31.208639,
    "lng": 121.582621
  },
  {
    "title": "整租·川杨新苑(二期) 2室1厅 南",
    "community": "川杨新苑(二期)",
    "area": "58.83",
    "rooms": "2室1厅",
    "direction": "南",
    "floor": "",
    "price": "5000",
    "tags": "",
    "source": "",
    "url": "https://sh.lianjia.com/zufang/SH2151237345175666688.html",
    "rent_type": "整租",
    "scraped_at": "2026-04-22 18:26:46",
    "region": "zhangjiang",
    "unit_price": 85.0,
    "lat": 31.185655,
    "lng": 121.627256
  },
  {
    "title": "整租·绿地MTOWN 1室1厅 南",
    "community": "绿地MTOWN",
    "area": "40.22",
    "rooms": "1室1厅",
    "direction": "南",
    "floor": "",
    "price": "5000",
    "tags": "",
    "source": "",
    "url": "https://sh.lianjia.com/zufang/SH2147323950915387392.html",
    "rent_type": "整租",
    "scraped_at": "2026-04-22 18:26:46",
    "region": "zhangjiang",
    "unit_price": 124.3,
    "lat": 31.177201,
    "lng": 121.603781
  },
  {
    "title": "整租·张江三湘海尚 2室2厅 南/北",
    "community": "张江三湘海尚",
    "area": "86.81",
    "rooms": "2室2厅",
    "direction": "南/北",
    "floor": "",
    "price": "8800",
    "tags": "",
    "source": "",
    "url": "https://sh.lianjia.com/zufang/SH2145794044410724352.html",
    "rent_type": "整租",
    "scraped_at": "2026-04-22 18:26:46",
    "region": "zhangjiang",
    "unit_price": 101.4,
    "lat": 31.170797,
    "lng": 121.622538
  },
  {
    "title": "整租·盛大天地青春里(一期) 1室1厅 北",
    "community": "盛大天地青春里(一期)",
    "area": "53.00",
    "rooms": "1室1厅",
    "direction": "北",
    "floor": "",
    "price": "4200",
    "tags": "",
    "source": "",
    "url": "https://sh.lianjia.com/zufang/SH2144378506048438272.html",
    "rent_type": "整租",
    "scraped_at": "2026-04-22 18:26:46",
    "region": "zhangjiang",
    "unit_price": 79.2,
    "lat": 31.170677,
    "lng": 121.605855
  },
  {
    "title": "整租·中建御华园 3室2厅 南",
    "community": "中建御华园",
    "area": "100.00",
    "rooms": "3室2厅",
    "direction": "南",
    "floor": "",
    "price": "13800",
    "tags": "",
    "source": "",
    "url": "https://sh.lianjia.com/zufang/SH2102271672273862656.html",
    "rent_type": "整租",
    "scraped_at": "2026-04-22 18:26:46",
    "region": "zhangjiang",
    "unit_price": 138.0,
    "lat": 31.207382,
    "lng": 121.617018
  },
  {
    "title": "整租·香楠小区 2室1厅 南",
    "community": "香楠小区",
    "area": "57.20",
    "rooms": "2室1厅",
    "direction": "南",
    "floor": "",
    "price": "5300",
    "tags": "",
    "source": "",
    "url": "https://sh.lianjia.com/zufang/SH2144735139530276864.html",
    "rent_type": "整租",
    "scraped_at": "2026-04-22 18:26:46",
    "region": "zhangjiang",
    "unit_price": 92.7,
    "lat": 31.21652,
    "lng": 121.614476
  },
  {
    "title": "整租·杨镇新村 2室1厅 南",
    "community": "杨镇新村",
    "area": "71.62",
    "rooms": "2室1厅",
    "direction": "南",
    "floor": "",
    "price": "5000",
    "tags": "",
    "source": "",
    "url": "https://sh.lianjia.com/zufang/SH2153441398014083072.html",
    "rent_type": "整租",
    "scraped_at": "2026-04-22 18:26:46",
    "region": "zhangjiang",
    "unit_price": 69.8,
    "lat": 31.029188,
    "lng": 121.369623
  },
  {
    "title": "整租·日月光水岸花园(一期) 2室2厅 南",
    "community": "日月光水岸花园(一期)",
    "area": "110.00",
    "rooms": "2室2厅",
    "direction": "南",
    "floor": "",
    "price": "8500",
    "tags": "",
    "source": "",
    "url": "https://sh.lianjia.com/zufang/SH2116019281501093888.html",
    "rent_type": "整租",
    "scraped_at": "2026-04-22 18:26:46",
    "region": "zhangjiang",
    "unit_price": 77.3,
    "lat": 31.214414,
    "lng": 121.623717
  },
  {
    "title": "整租·张江汤臣豪园(四期) 3室2厅 南/北",
    "community": "张江汤臣豪园(四期)",
    "area": "132.09",
    "rooms": "3室2厅",
    "direction": "南/北",
    "floor": "",
    "price": "18000",
    "tags": "",
    "source": "",
    "url": "https://sh.lianjia.com/zufang/SH2155877053621075968.html",
    "rent_type": "整租",
    "scraped_at": "2026-04-22 18:26:46",
    "region": "zhangjiang",
    "unit_price": 136.3,
    "lat": 31.198209,
    "lng": 121.592123
  },
  {
    "title": "整租·绿地MTOWN 2室1厅 南/北",
    "community": "绿地MTOWN",
    "area": "36.81",
    "rooms": "2室1厅",
    "direction": "南/北",
    "floor": "",
    "price": "4300",
    "tags": "",
    "source": "",
    "url": "https://sh.lianjia.com/zufang/SH2153380226715877376.html",
    "rent_type": "整租",
    "scraped_at": "2026-04-22 18:26:46",
    "region": "zhangjiang",
    "unit_price": 116.8,
    "lat": 31.177201,
    "lng": 121.603781
  },
  {
    "title": "整租·玉兰香苑二期A块 2室1厅 南",
    "community": "玉兰香苑二期A块",
    "area": "55.57",
    "rooms": "2室1厅",
    "direction": "南",
    "floor": "",
    "price": "5300",
    "tags": "",
    "source": "",
    "url": "https://sh.lianjia.com/zufang/SH2149815658022436864.html",
    "rent_type": "整租",
    "scraped_at": "2026-04-22 18:26:46",
    "region": "zhangjiang",
    "unit_price": 95.4,
    "lat": 31.198439,
    "lng": 121.627318
  },
  {
    "title": "整租·盛大天地青春里2.0 2室1厅 南",
    "community": "盛大天地青春里2.0",
    "area": "45.00",
    "rooms": "2室1厅",
    "direction": "南",
    "floor": "",
    "price": "5000",
    "tags": "",
    "source": "",
    "url": "https://sh.lianjia.com/zufang/SH2155579869763731456.html",
    "rent_type": "整租",
    "scraped_at": "2026-04-22 18:26:46",
    "region": "zhangjiang",
    "unit_price": 111.1,
    "lat": 31.169751,
    "lng": 121.605652
  },
  {
    "title": "整租·玉兰香苑二期C块 3室2厅 南",
    "community": "玉兰香苑二期C块",
    "area": "118.00",
    "rooms": "3室2厅",
    "direction": "南",
    "floor": "",
    "price": "8300",
    "tags": "",
    "source": "",
    "url": "https://sh.lianjia.com/zufang/SH2141884219796750336.html",
    "rent_type": "整租",
    "scraped_at": "2026-04-22 18:26:46",
    "region": "zhangjiang",
    "unit_price": 70.3,
    "lat": 31.198439,
    "lng": 121.627318
  },
  {
    "title": "整租·阳光花城 2室2厅 东南",
    "community": "阳光花城",
    "area": "112.79",
    "rooms": "2室2厅",
    "direction": "东南",
    "floor": "",
    "price": "9500",
    "tags": "",
    "source": "",
    "url": "https://sh.lianjia.com/zufang/SH2141047842398011392.html",
    "rent_type": "整租",
    "scraped_at": "2026-04-22 18:26:46",
    "region": "zhangjiang",
    "unit_price": 84.2,
    "lat": 31.208903,
    "lng": 121.623037
  },
  {
    "title": "整租·华发四季 4室2厅 南",
    "community": "华发四季",
    "area": "137.70",
    "rooms": "4室2厅",
    "direction": "南",
    "floor": "",
    "price": "15000",
    "tags": "",
    "source": "",
    "url": "https://sh.lianjia.com/zufang/SH2147346047620349952.html",
    "rent_type": "整租",
    "scraped_at": "2026-04-22 18:26:46",
    "region": "zhangjiang",
    "unit_price": 108.9,
    "lat": 31.172771,
    "lng": 121.623048
  },
  {
    "title": "整租·张江汤臣豪园(四期) 2室2厅 南",
    "community": "张江汤臣豪园(四期)",
    "area": "82.00",
    "rooms": "2室2厅",
    "direction": "南",
    "floor": "",
    "price": "12000",
    "tags": "",
    "source": "",
    "url": "https://sh.lianjia.com/zufang/SH2146535994529153024.html",
    "rent_type": "整租",
    "scraped_at": "2026-04-22 18:26:46",
    "region": "zhangjiang",
    "unit_price": 146.3,
    "lat": 31.198209,
    "lng": 121.592123
  },
  {
    "title": "整租·张江汤臣豪园(二期) 3室2厅 南",
    "community": "张江汤臣豪园(二期)",
    "area": "139.92",
    "rooms": "3室2厅",
    "direction": "南",
    "floor": "",
    "price": "14000",
    "tags": "",
    "source": "",
    "url": "https://sh.lianjia.com/zufang/SH2092251828577107968.html",
    "rent_type": "整租",
    "scraped_at": "2026-04-22 18:26:52",
    "region": "zhangjiang",
    "unit_price": 100.1,
    "lat": 31.202498,
    "lng": 121.597512
  },
  {
    "title": "整租·香楠小区 2室1厅 南",
    "community": "香楠小区",
    "area": "71.76",
    "rooms": "2室1厅",
    "direction": "南",
    "floor": "",
    "price": "6000",
    "tags": "",
    "source": "",
    "url": "https://sh.lianjia.com/zufang/SH2147255059509936128.html",
    "rent_type": "整租",
    "scraped_at": "2026-04-22 18:26:46",
    "region": "zhangjiang",
    "unit_price": 83.6,
    "lat": 31.21652,
    "lng": 121.614476
  },
  {
    "title": "整租·张江汤臣豪园(四期) 1室1厅 南",
    "community": "张江汤臣豪园(四期)",
    "area": "74.19",
    "rooms": "1室1厅",
    "direction": "南",
    "floor": "",
    "price": "9300",
    "tags": "",
    "source": "",
    "url": "https://sh.lianjia.com/zufang/SH2131343869499932672.html",
    "rent_type": "整租",
    "scraped_at": "2026-04-22 18:26:52",
    "region": "zhangjiang",
    "unit_price": 125.4,
    "lat": 31.198209,
    "lng": 121.592123
  },
  {
    "title": "整租·汤臣豪庭 4室2厅 复式 南",
    "community": "汤臣豪庭",
    "area": "157.64",
    "rooms": "4室2厅",
    "direction": "",
    "floor": "",
    "price": "14000",
    "tags": "",
    "source": "",
    "url": "https://sh.lianjia.com/zufang/SH2068648874016243712.html",
    "rent_type": "整租",
    "scraped_at": "2026-04-22 18:26:52",
    "region": "zhangjiang",
    "unit_price": 88.8,
    "lat": 31.219466,
    "lng": 121.613806
  },
  {
    "title": "整租·张江汤臣豪园(四期) 2室2厅 南",
    "community": "张江汤臣豪园(四期)",
    "area": "105.00",
    "rooms": "2室2厅",
    "direction": "南",
    "floor": "",
    "price": "13800",
    "tags": "",
    "source": "",
    "url": "https://sh.lianjia.com/zufang/SH2146521766099419136.html",
    "rent_type": "整租",
    "scraped_at": "2026-04-22 18:26:52",
    "region": "zhangjiang",
    "unit_price": 131.4,
    "lat": 31.198209,
    "lng": 121.592123
  },
  {
    "title": "整租·张江汤臣豪园(二期) 2室2厅 南",
    "community": "张江汤臣豪园(二期)",
    "area": "94.15",
    "rooms": "2室2厅",
    "direction": "南",
    "floor": "",
    "price": "10000",
    "tags": "",
    "source": "",
    "url": "https://sh.lianjia.com/zufang/SH2147650921021046784.html",
    "rent_type": "整租",
    "scraped_at": "2026-04-22 18:26:52",
    "region": "zhangjiang",
    "unit_price": 106.2,
    "lat": 31.202498,
    "lng": 121.597512
  },
  {
    "title": "整租·香楠小区 3室1厅 南",
    "community": "香楠小区",
    "area": "75.26",
    "rooms": "3室1厅",
    "direction": "南",
    "floor": "",
    "price": "6400",
    "tags": "",
    "source": "",
    "url": "https://sh.lianjia.com/zufang/SH2097567885126795264.html",
    "rent_type": "整租",
    "scraped_at": "2026-04-22 18:26:52",
    "region": "zhangjiang",
    "unit_price": 85.0,
    "lat": 31.21652,
    "lng": 121.614476
  },
  {
    "title": "整租·香楠小区 3室1厅 南",
    "community": "香楠小区",
    "area": "92.03",
    "rooms": "3室1厅",
    "direction": "南",
    "floor": "",
    "price": "9000",
    "tags": "",
    "source": "",
    "url": "https://sh.lianjia.com/zufang/SH2153143412864319488.html",
    "rent_type": "整租",
    "scraped_at": "2026-04-22 18:26:52",
    "region": "zhangjiang",
    "unit_price": 97.8,
    "lat": 31.21652,
    "lng": 121.614476
  },
  {
    "title": "整租·万科翡翠公园六期 2室2厅 南",
    "community": "万科翡翠公园六期",
    "area": "84.73",
    "rooms": "2室2厅",
    "direction": "南",
    "floor": "",
    "price": "11000",
    "tags": "",
    "source": "",
    "url": "https://sh.lianjia.com/zufang/SH2155528583303397376.html",
    "rent_type": "整租",
    "scraped_at": "2026-04-22 18:27:16",
    "region": "zhangjiang",
    "unit_price": 129.8,
    "lat": 31.181301,
    "lng": 121.612192
  },
  {
    "title": "整租·万科翡翠公园四期 3室1厅 南",
    "community": "万科翡翠公园四期",
    "area": "125.00",
    "rooms": "3室1厅",
    "direction": "南",
    "floor": "",
    "price": "14000",
    "tags": "",
    "source": "",
    "url": "https://sh.lianjia.com/zufang/SH2137929165909786624.html",
    "rent_type": "整租",
    "scraped_at": "2026-04-22 18:26:52",
    "region": "zhangjiang",
    "unit_price": 112.0,
    "lat": 31.179139,
    "lng": 121.610609
  },
  {
    "title": "整租·日月光水岸花园(一期) 2室2厅 南",
    "community": "日月光水岸花园(一期)",
    "area": "87.57",
    "rooms": "2室2厅",
    "direction": "南",
    "floor": "",
    "price": "8300",
    "tags": "",
    "source": "",
    "url": "https://sh.lianjia.com/zufang/SH2137623393418084352.html",
    "rent_type": "整租",
    "scraped_at": "2026-04-22 18:26:52",
    "region": "zhangjiang",
    "unit_price": 94.8,
    "lat": 31.214414,
    "lng": 121.623717
  },
  {
    "title": "整租·万科翡翠公园五期 3室3厅 东南",
    "community": "万科翡翠公园五期",
    "area": "148.89",
    "rooms": "3室3厅",
    "direction": "东南",
    "floor": "",
    "price": "21000",
    "tags": "",
    "source": "",
    "url": "https://sh.lianjia.com/zufang/SH2155588429230899200.html",
    "rent_type": "整租",
    "scraped_at": "2026-04-22 19:16:41",
    "region": "changning",
    "unit_price": 141.0,
    "lat": 31.180249,
    "lng": 121.61266
  },
  {
    "title": "整租·日月光水岸花园(一期) 2室2厅 南",
    "community": "日月光水岸花园(一期)",
    "area": "87.57",
    "rooms": "2室2厅",
    "direction": "南",
    "floor": "",
    "price": "7700",
    "tags": "",
    "source": "",
    "url": "https://sh.lianjia.com/zufang/SH2105227536328818688.html",
    "rent_type": "整租",
    "scraped_at": "2026-04-22 18:26:52",
    "region": "zhangjiang",
    "unit_price": 87.9,
    "lat": 31.214414,
    "lng": 121.623717
  },
  {
    "title": "整租·虹御公寓 3室2厅 南",
    "community": "虹御公寓",
    "area": "114.85",
    "rooms": "3室2厅",
    "direction": "南",
    "floor": "",
    "price": "8100",
    "tags": "",
    "source": "",
    "url": "https://sh.lianjia.com/zufang/SH2118909658302251008.html",
    "rent_type": "整租",
    "scraped_at": "2026-04-22 18:26:52",
    "region": "zhangjiang",
    "unit_price": 70.5,
    "lat": 31.187024,
    "lng": 121.628373
  },
  {
    "title": "整租·圣宇豪庭 2室2厅 南",
    "community": "圣宇豪庭",
    "area": "119.00",
    "rooms": "2室2厅",
    "direction": "南",
    "floor": "",
    "price": "13000",
    "tags": "",
    "source": "",
    "url": "https://sh.lianjia.com/zufang/SH2145937069094993920.html",
    "rent_type": "整租",
    "scraped_at": "2026-04-22 18:26:52",
    "region": "zhangjiang",
    "unit_price": 109.2,
    "lat": 31.18413,
    "lng": 121.630896
  },
  {
    "title": "整租·中建御华园 3室2厅 南/北",
    "community": "中建御华园",
    "area": "100.18",
    "rooms": "3室2厅",
    "direction": "南/北",
    "floor": "",
    "price": "14000",
    "tags": "",
    "source": "",
    "url": "https://sh.lianjia.com/zufang/SH2076582654794268672.html",
    "rent_type": "整租",
    "scraped_at": "2026-04-22 18:26:52",
    "region": "zhangjiang",
    "unit_price": 139.7,
    "lat": 31.207382,
    "lng": 121.617018
  },
  {
    "title": "整租·汤臣豪园(二期) 4室2厅 复式 南",
    "community": "汤臣豪园(二期)",
    "area": "226.99",
    "rooms": "4室2厅",
    "direction": "",
    "floor": "",
    "price": "22000",
    "tags": "",
    "source": "",
    "url": "https://sh.lianjia.com/zufang/SH2096606769806573568.html",
    "rent_type": "整租",
    "scraped_at": "2026-04-22 19:16:41",
    "region": "changning",
    "unit_price": 96.9,
    "lat": 31.208639,
    "lng": 121.582621
  },
  {
    "title": "整租·张江汤臣豪园(三期) 2室2厅 南",
    "community": "张江汤臣豪园(三期)",
    "area": "87.31",
    "rooms": "2室2厅",
    "direction": "南",
    "floor": "",
    "price": "11000",
    "tags": "",
    "source": "",
    "url": "https://sh.lianjia.com/zufang/SH2143385093903745024.html",
    "rent_type": "整租",
    "scraped_at": "2026-04-22 18:26:52",
    "region": "zhangjiang",
    "unit_price": 126.0,
    "lat": 31.199283,
    "lng": 121.597612
  },
  {
    "title": "整租·汇智湖畔家园 1室2厅 南",
    "community": "汇智湖畔家园",
    "area": "74.86",
    "rooms": "1室2厅",
    "direction": "南",
    "floor": "",
    "price": "8200",
    "tags": "",
    "source": "",
    "url": "https://sh.lianjia.com/zufang/SH2139769913571540992.html",
    "rent_type": "整租",
    "scraped_at": "2026-04-22 18:26:52",
    "region": "zhangjiang",
    "unit_price": 109.5,
    "lat": 31.199759,
    "lng": 121.606217
  },
  {
    "title": "整租·张江汤臣豪园(二期) 3室1厅 南/北",
    "community": "张江汤臣豪园(二期)",
    "area": "134.00",
    "rooms": "3室1厅",
    "direction": "南/北",
    "floor": "",
    "price": "15000",
    "tags": "",
    "source": "",
    "url": "https://sh.lianjia.com/zufang/SH2142654848091291648.html",
    "rent_type": "整租",
    "scraped_at": "2026-04-22 18:27:16",
    "region": "zhangjiang",
    "unit_price": 111.9,
    "lat": 31.202498,
    "lng": 121.597512
  },
  {
    "title": "整租·孙桥公寓 3室2厅 南/北",
    "community": "孙桥公寓",
    "area": "120.00",
    "rooms": "3室2厅",
    "direction": "南/北",
    "floor": "",
    "price": "9000",
    "tags": "",
    "source": "",
    "url": "https://sh.lianjia.com/zufang/SH2141201250388017152.html",
    "rent_type": "整租",
    "scraped_at": "2026-04-22 18:26:52",
    "region": "zhangjiang",
    "unit_price": 75.0,
    "lat": 31.182089,
    "lng": 121.631414
  },
  {
    "title": "整租·张江汤臣豪园(三期) 2室2厅 南/北",
    "community": "张江汤臣豪园(三期)",
    "area": "87.32",
    "rooms": "2室2厅",
    "direction": "南/北",
    "floor": "",
    "price": "11500",
    "tags": "",
    "source": "",
    "url": "https://sh.lianjia.com/zufang/SH2130166440387411968.html",
    "rent_type": "整租",
    "scraped_at": "2026-04-22 18:26:52",
    "region": "zhangjiang",
    "unit_price": 131.7,
    "lat": 31.199283,
    "lng": 121.597612
  },
  {
    "title": "整租·张江汤臣豪园(三期) 2室1厅 南/北",
    "community": "张江汤臣豪园(三期)",
    "area": "88.00",
    "rooms": "2室1厅",
    "direction": "南/北",
    "floor": "",
    "price": "11500",
    "tags": "",
    "source": "",
    "url": "https://sh.lianjia.com/zufang/SH2147639717070372864.html",
    "rent_type": "整租",
    "scraped_at": "2026-04-22 18:26:52",
    "region": "zhangjiang",
    "unit_price": 130.7,
    "lat": 31.199283,
    "lng": 121.597612
  },
  {
    "title": "整租·汤臣豪庭 5室2厅 复式 南",
    "community": "汤臣豪庭",
    "area": "178.00",
    "rooms": "5室2厅",
    "direction": "",
    "floor": "",
    "price": "17000",
    "tags": "",
    "source": "",
    "url": "https://sh.lianjia.com/zufang/SH2155159061283209216.html",
    "rent_type": "整租",
    "scraped_at": "2026-04-22 18:26:52",
    "region": "zhangjiang",
    "unit_price": 95.5,
    "lat": 31.219466,
    "lng": 121.613806
  },
  {
    "title": "整租·盛大天地青春里2.0 2室2厅 南",
    "community": "盛大天地青春里2.0",
    "area": "51.68",
    "rooms": "2室2厅",
    "direction": "南",
    "floor": "",
    "price": "5800",
    "tags": "",
    "source": "",
    "url": "https://sh.lianjia.com/zufang/SH2088222178041397248.html",
    "rent_type": "整租",
    "scraped_at": "2026-04-22 18:26:52",
    "region": "zhangjiang",
    "unit_price": 112.2,
    "lat": 31.169751,
    "lng": 121.605652
  },
  {
    "title": "整租·汤臣豪庭 4室2厅 复式 南",
    "community": "汤臣豪庭",
    "area": "160.63",
    "rooms": "4室2厅",
    "direction": "",
    "floor": "",
    "price": "15000",
    "tags": "",
    "source": "",
    "url": "https://sh.lianjia.com/zufang/SH2157136438867525632.html",
    "rent_type": "整租",
    "scraped_at": "2026-04-22 18:26:52",
    "region": "zhangjiang",
    "unit_price": 93.4,
    "lat": 31.219466,
    "lng": 121.613806
  },
  {
    "title": "整租·汤臣高尔夫(公寓) 3室2厅 西南",
    "community": "汤臣高尔夫(公寓)",
    "area": "188.85",
    "rooms": "3室2厅",
    "direction": "西南",
    "floor": "",
    "price": "22000",
    "tags": "",
    "source": "",
    "url": "https://sh.lianjia.com/zufang/SH2021808051232702464.html",
    "rent_type": "整租",
    "scraped_at": "2026-04-22 18:26:52",
    "region": "zhangjiang",
    "unit_price": 116.5,
    "lat": 31.218904,
    "lng": 121.582034
  },
  {
    "title": "整租·城市经典四期高迪 3室1厅 南",
    "community": "城市经典四期高迪",
    "area": "108.00",
    "rooms": "3室1厅",
    "direction": "南",
    "floor": "",
    "price": "11000",
    "tags": "",
    "source": "",
    "url": "https://sh.lianjia.com/zufang/SH2066022555633844224.html",
    "rent_type": "整租",
    "scraped_at": "2026-04-22 18:26:52",
    "region": "zhangjiang",
    "unit_price": 101.9,
    "lat": 31.212907,
    "lng": 121.618681
  },
  {
    "title": "整租·绿地MTOWN 1室1厅 南",
    "community": "绿地MTOWN",
    "area": "40.22",
    "rooms": "1室1厅",
    "direction": "南",
    "floor": "",
    "price": "4500",
    "tags": "",
    "source": "",
    "url": "https://sh.lianjia.com/zufang/SH2155642345293348864.html",
    "rent_type": "整租",
    "scraped_at": "2026-04-22 18:26:52",
    "region": "zhangjiang",
    "unit_price": 111.9,
    "lat": 31.177201,
    "lng": 121.603781
  },
  {
    "title": "整租·绿地MTOWN 1室1厅 北",
    "community": "绿地MTOWN",
    "area": "36.00",
    "rooms": "1室1厅",
    "direction": "北",
    "floor": "",
    "price": "4400",
    "tags": "",
    "source": "",
    "url": "https://sh.lianjia.com/zufang/SH2130989853716774912.html",
    "rent_type": "整租",
    "scraped_at": "2026-04-22 18:27:16",
    "region": "zhangjiang",
    "unit_price": 122.2,
    "lat": 31.177201,
    "lng": 121.603781
  },
  {
    "title": "整租·张江汤臣豪园(二期) 3室1厅 南",
    "community": "张江汤臣豪园(二期)",
    "area": "118.26",
    "rooms": "3室1厅",
    "direction": "南",
    "floor": "",
    "price": "12000",
    "tags": "",
    "source": "",
    "url": "https://sh.lianjia.com/zufang/SH2102284924571615232.html",
    "rent_type": "整租",
    "scraped_at": "2026-04-22 18:26:52",
    "region": "zhangjiang",
    "unit_price": 101.5,
    "lat": 31.202498,
    "lng": 121.597512
  },
  {
    "title": "整租·城市经典(五期) 4室1厅 复式 南",
    "community": "城市经典(五期)",
    "area": "489.60",
    "rooms": "4室1厅",
    "direction": "",
    "floor": "",
    "price": "46000",
    "tags": "",
    "source": "",
    "url": "https://sh.lianjia.com/zufang/SH2066752824888262656.html",
    "rent_type": "整租",
    "scraped_at": "2026-04-22 18:27:09",
    "region": "zhangjiang",
    "unit_price": 94.0,
    "lat": 31.212888,
    "lng": 121.61652
  },
  {
    "title": "整租·盛大天地青春里2.0 2室1厅 南",
    "community": "盛大天地青春里2.0",
    "area": "60.52",
    "rooms": "2室1厅",
    "direction": "南",
    "floor": "",
    "price": "6500",
    "tags": "",
    "source": "",
    "url": "https://sh.lianjia.com/zufang/SH2131609347350855680.html",
    "rent_type": "整租",
    "scraped_at": "2026-04-22 18:27:09",
    "region": "zhangjiang",
    "unit_price": 107.4,
    "lat": 31.169751,
    "lng": 121.605652
  },
  {
    "title": "整租·宝地东郊四季 4室2厅 南/北",
    "community": "宝地东郊四季",
    "area": "243.00",
    "rooms": "4室2厅",
    "direction": "南/北",
    "floor": "",
    "price": "29000",
    "tags": "",
    "source": "",
    "url": "https://sh.lianjia.com/zufang/SH2007757611910299648.html",
    "rent_type": "整租",
    "scraped_at": "2026-04-22 18:27:09",
    "region": "zhangjiang",
    "unit_price": 119.3,
    "lat": 31.225427,
    "lng": 121.614465
  },
  {
    "title": "整租·东郊紫园 5室3厅 复式 南",
    "community": "东郊紫园",
    "area": "456.00",
    "rooms": "5室3厅",
    "direction": "",
    "floor": "",
    "price": "58800",
    "tags": "",
    "source": "",
    "url": "https://sh.lianjia.com/zufang/SH1991443717344460800.html",
    "rent_type": "整租",
    "scraped_at": "2026-04-22 19:16:41",
    "region": "changning",
    "unit_price": 128.9,
    "lat": 31.178775,
    "lng": 121.624074
  },
  {
    "title": "整租·万科翡翠公园（商用） 1室1厅 东",
    "community": "万科翡翠公园（商用）",
    "area": "45.00",
    "rooms": "1室1厅",
    "direction": "东",
    "floor": "",
    "price": "6500",
    "tags": "",
    "source": "",
    "url": "https://sh.lianjia.com/zufang/SH2142222280384577536.html",
    "rent_type": "整租",
    "scraped_at": "2026-04-22 18:27:09",
    "region": "zhangjiang",
    "unit_price": 144.4,
    "lat": 31.179762,
    "lng": 121.610562
  },
  {
    "title": "整租·张江汤臣豪园(四期) 2室1厅 南/北",
    "community": "张江汤臣豪园(四期)",
    "area": "91.09",
    "rooms": "2室1厅",
    "direction": "南/北",
    "floor": "",
    "price": "12500",
    "tags": "",
    "source": "",
    "url": "https://sh.lianjia.com/zufang/SH2153329540368171008.html",
    "rent_type": "整租",
    "scraped_at": "2026-04-22 18:27:09",
    "region": "zhangjiang",
    "unit_price": 137.2,
    "lat": 31.198209,
    "lng": 121.592123
  },
  {
    "title": "整租·张江汤臣豪园(三期) 1室1厅 南/北",
    "community": "张江汤臣豪园(三期)",
    "area": "61.23",
    "rooms": "1室1厅",
    "direction": "南/北",
    "floor": "",
    "price": "10000",
    "tags": "",
    "source": "",
    "url": "https://sh.lianjia.com/zufang/SH2139655151730819072.html",
    "rent_type": "整租",
    "scraped_at": "2026-04-22 18:27:09",
    "region": "zhangjiang",
    "unit_price": 163.3,
    "lat": 31.199283,
    "lng": 121.597612
  },
  {
    "title": "整租·申城佳苑一期A块 3室2厅 东/西",
    "community": "申城佳苑一期A块",
    "area": "114.00",
    "rooms": "3室2厅",
    "direction": "东/西",
    "floor": "",
    "price": "7600",
    "tags": "",
    "source": "",
    "url": "https://sh.lianjia.com/zufang/SH2152232874776985600.html",
    "rent_type": "整租",
    "scraped_at": "2026-04-22 18:27:09",
    "region": "zhangjiang",
    "unit_price": 66.7,
    "lat": 31.185542,
    "lng": 121.636445
  },
  {
    "title": "整租·展想悦廷 1室1厅 东",
    "community": "展想悦廷",
    "area": "57.40",
    "rooms": "1室1厅",
    "direction": "东",
    "floor": "",
    "price": "5300",
    "tags": "",
    "source": "",
    "url": "https://sh.lianjia.com/zufang/SH2152733284839194624.html",
    "rent_type": "整租",
    "scraped_at": "2026-04-22 18:27:09",
    "region": "zhangjiang",
    "unit_price": 92.3,
    "lat": 31.210723,
    "lng": 121.626563
  },
  {
    "title": "整租·圣宇豪庭 3室2厅 南",
    "community": "圣宇豪庭",
    "area": "137.00",
    "rooms": "3室2厅",
    "direction": "南",
    "floor": "",
    "price": "13000",
    "tags": "",
    "source": "",
    "url": "https://sh.lianjia.com/zufang/SH2106375468860047360.html",
    "rent_type": "整租",
    "scraped_at": "2026-04-22 18:27:09",
    "region": "zhangjiang",
    "unit_price": 94.9,
    "lat": 31.18413,
    "lng": 121.630896
  },
  {
    "title": "整租·万科翡翠公园（商用） 1室1厅 东",
    "community": "万科翡翠公园（商用）",
    "area": "45.00",
    "rooms": "1室1厅",
    "direction": "东",
    "floor": "",
    "price": "6000",
    "tags": "",
    "source": "",
    "url": "https://sh.lianjia.com/zufang/SH2140699688318271488.html",
    "rent_type": "整租",
    "scraped_at": "2026-04-22 18:27:09",
    "region": "zhangjiang",
    "unit_price": 133.3,
    "lat": 31.179762,
    "lng": 121.610562
  },
  {
    "title": "整租·万科翡翠公园（商用） 2室1厅 西",
    "community": "万科翡翠公园（商用）",
    "area": "65.59",
    "rooms": "2室1厅",
    "direction": "西",
    "floor": "",
    "price": "6200",
    "tags": "",
    "source": "",
    "url": "https://sh.lianjia.com/zufang/SH2149417166569472000.html",
    "rent_type": "整租",
    "scraped_at": "2026-04-22 18:27:09",
    "region": "zhangjiang",
    "unit_price": 94.5,
    "lat": 31.179762,
    "lng": 121.610562
  },
  {
    "title": "整租·盛大天地青春里2.0 2室2厅 跃层 东南",
    "community": "盛大天地青春里2.0",
    "area": "45.00",
    "rooms": "2室2厅",
    "direction": "",
    "floor": "",
    "price": "5500",
    "tags": "",
    "source": "",
    "url": "https://sh.lianjia.com/zufang/SH2149837773756956672.html",
    "rent_type": "整租",
    "scraped_at": "2026-04-22 18:27:09",
    "region": "zhangjiang",
    "unit_price": 122.2,
    "lat": 31.169751,
    "lng": 121.605652
  },
  {
    "title": "整租·绿地MTOWN 2室1厅 北",
    "community": "绿地MTOWN",
    "area": "40.00",
    "rooms": "2室1厅",
    "direction": "北",
    "floor": "",
    "price": "5000",
    "tags": "",
    "source": "",
    "url": "https://sh.lianjia.com/zufang/SH2140436024281530368.html",
    "rent_type": "整租",
    "scraped_at": "2026-04-22 18:27:09",
    "region": "zhangjiang",
    "unit_price": 125.0,
    "lat": 31.177201,
    "lng": 121.603781
  },
  {
    "title": "整租·玉兰香苑一期A块 3室2厅 南",
    "community": "玉兰香苑一期A块",
    "area": "115.00",
    "rooms": "3室2厅",
    "direction": "南",
    "floor": "",
    "price": "7300",
    "tags": "",
    "source": "",
    "url": "https://sh.lianjia.com/zufang/SH2146115069434396672.html",
    "rent_type": "整租",
    "scraped_at": "2026-04-22 18:27:09",
    "region": "zhangjiang",
    "unit_price": 63.5,
    "lat": 31.201049,
    "lng": 121.631989
  },
  {
    "title": "整租·玉兰香苑二期A块 1室1厅 南",
    "community": "玉兰香苑二期A块",
    "area": "57.42",
    "rooms": "1室1厅",
    "direction": "南",
    "floor": "",
    "price": "5500",
    "tags": "",
    "source": "",
    "url": "https://sh.lianjia.com/zufang/SH2153724853637611520.html",
    "rent_type": "整租",
    "scraped_at": "2026-04-22 18:27:09",
    "region": "zhangjiang",
    "unit_price": 95.8,
    "lat": 31.198439,
    "lng": 121.627318
  },
  {
    "title": "整租·华陇建中小区 2室1厅 南",
    "community": "华陇建中小区",
    "area": "64.17",
    "rooms": "2室1厅",
    "direction": "南",
    "floor": "",
    "price": "6000",
    "tags": "",
    "source": "",
    "url": "https://sh.lianjia.com/zufang/SH2154981507859480576.html",
    "rent_type": "整租",
    "scraped_at": "2026-04-22 18:27:09",
    "region": "zhangjiang",
    "unit_price": 93.5,
    "lat": 31.198965,
    "lng": 121.61088
  },
  {
    "title": "整租·川杨新苑(二期) 3室1厅 南",
    "community": "川杨新苑(二期)",
    "area": "93.00",
    "rooms": "3室1厅",
    "direction": "南",
    "floor": "",
    "price": "5800",
    "tags": "",
    "source": "",
    "url": "https://sh.lianjia.com/zufang/SH2155145488515465216.html",
    "rent_type": "整租",
    "scraped_at": "2026-04-22 18:27:09",
    "region": "zhangjiang",
    "unit_price": 62.4,
    "lat": 31.185655,
    "lng": 121.627256
  },
  {
    "title": "整租·绿地MTOWN 1室1厅 南",
    "community": "绿地MTOWN",
    "area": "40.00",
    "rooms": "1室1厅",
    "direction": "南",
    "floor": "",
    "price": "5000",
    "tags": "",
    "source": "",
    "url": "https://sh.lianjia.com/zufang/SH2155885230815182848.html",
    "rent_type": "整租",
    "scraped_at": "2026-04-22 18:27:09",
    "region": "zhangjiang",
    "unit_price": 125.0,
    "lat": 31.177201,
    "lng": 121.603781
  },
  {
    "title": "整租·盛大天地青春里2.0 2室2厅 北",
    "community": "盛大天地青春里2.0",
    "area": "45.00",
    "rooms": "2室2厅",
    "direction": "北",
    "floor": "",
    "price": "4500",
    "tags": "",
    "source": "",
    "url": "https://sh.lianjia.com/zufang/SH2155913521181753344.html",
    "rent_type": "整租",
    "scraped_at": "2026-04-22 18:27:09",
    "region": "zhangjiang",
    "unit_price": 100.0,
    "lat": 31.169751,
    "lng": 121.605652
  },
  {
    "title": "整租·盛大天地青春里2.0 1室0厅 东",
    "community": "盛大天地青春里2.0",
    "area": "46.00",
    "rooms": "1室0厅",
    "direction": "东",
    "floor": "",
    "price": "4300",
    "tags": "",
    "source": "",
    "url": "https://sh.lianjia.com/zufang/SH2155941964216795136.html",
    "rent_type": "整租",
    "scraped_at": "2026-04-22 18:27:09",
    "region": "zhangjiang",
    "unit_price": 93.5,
    "lat": 31.169751,
    "lng": 121.605652
  },
  {
    "title": "整租·张江汤臣豪园(四期) 2室2厅 南",
    "community": "张江汤臣豪园(四期)",
    "area": "90.88",
    "rooms": "2室2厅",
    "direction": "南",
    "floor": "",
    "price": "11000",
    "tags": "",
    "source": "",
    "url": "https://sh.lianjia.com/zufang/SH2155967879181238272.html",
    "rent_type": "整租",
    "scraped_at": "2026-04-22 18:27:09",
    "region": "zhangjiang",
    "unit_price": 121.0,
    "lat": 31.198209,
    "lng": 121.592123
  },
  {
    "title": "整租·科锦苑 3室2厅 南/北",
    "community": "科锦苑",
    "area": "100.00",
    "rooms": "3室2厅",
    "direction": "南/北",
    "floor": "",
    "price": "7800",
    "tags": "",
    "source": "",
    "url": "https://sh.lianjia.com/zufang/SH2156027898119585792.html",
    "rent_type": "整租",
    "scraped_at": "2026-04-22 18:27:09",
    "region": "zhangjiang",
    "unit_price": 78.0,
    "lat": 31.173612,
    "lng": 121.625676
  },
  {
    "title": "整租·史丹福花园 5室3厅 南",
    "community": "史丹福花园",
    "area": "565.00",
    "rooms": "5室3厅",
    "direction": "南",
    "floor": "",
    "price": "100000",
    "tags": "",
    "source": "",
    "url": "https://sh.lianjia.com/zufang/SH2125829692379365376.html",
    "rent_type": "整租",
    "scraped_at": "2026-04-22 18:27:16",
    "region": "zhangjiang",
    "unit_price": 177.0,
    "lat": 31.13559,
    "lng": 121.403629
  },
  {
    "title": "整租·申城佳苑一期B块 2室1厅 南",
    "community": "申城佳苑一期B块",
    "area": "87.00",
    "rooms": "2室1厅",
    "direction": "南",
    "floor": "",
    "price": "6500",
    "tags": "",
    "source": "",
    "url": "https://sh.lianjia.com/zufang/SH2128761297238491136.html",
    "rent_type": "整租",
    "scraped_at": "2026-04-22 18:27:16",
    "region": "zhangjiang",
    "unit_price": 74.7,
    "lat": 31.185542,
    "lng": 121.636445
  },
  {
    "title": "整租·汤臣豪庭 4室2厅 南",
    "community": "汤臣豪庭",
    "area": "191.78",
    "rooms": "4室2厅",
    "direction": "南",
    "floor": "",
    "price": "17000",
    "tags": "",
    "source": "",
    "url": "https://sh.lianjia.com/zufang/SH2128412421323227136.html",
    "rent_type": "整租",
    "scraped_at": "2026-04-22 18:27:16",
    "region": "zhangjiang",
    "unit_price": 88.6,
    "lat": 31.219466,
    "lng": 121.613806
  },
  {
    "title": "整租·华发四季 3室2厅 南",
    "community": "华发四季",
    "area": "117.00",
    "rooms": "3室2厅",
    "direction": "南",
    "floor": "",
    "price": "11000",
    "tags": "",
    "source": "",
    "url": "https://sh.lianjia.com/zufang/SH2137795007698960384.html",
    "rent_type": "整租",
    "scraped_at": "2026-04-22 18:27:09",
    "region": "zhangjiang",
    "unit_price": 94.0,
    "lat": 31.172771,
    "lng": 121.623048
  },
  {
    "title": "整租·城市经典二期(公寓) 4室2厅 南/北",
    "community": "城市经典二期(公寓)",
    "area": "200.00",
    "rooms": "4室2厅",
    "direction": "南/北",
    "floor": "",
    "price": "18000",
    "tags": "",
    "source": "",
    "url": "https://sh.lianjia.com/zufang/SH2138611384970117120.html",
    "rent_type": "整租",
    "scraped_at": "2026-04-22 18:27:09",
    "region": "zhangjiang",
    "unit_price": 90.0,
    "lat": 31.212888,
    "lng": 121.61652
  },
  {
    "title": "整租·杨镇新村 3室1厅 南",
    "community": "杨镇新村",
    "area": "105.65",
    "rooms": "3室1厅",
    "direction": "南",
    "floor": "",
    "price": "7500",
    "tags": "",
    "source": "",
    "url": "https://sh.lianjia.com/zufang/SH2157078202642595840.html",
    "rent_type": "整租",
    "scraped_at": "2026-04-22 18:27:09",
    "region": "zhangjiang",
    "unit_price": 71.0,
    "lat": 31.029188,
    "lng": 121.369623
  },
  {
    "title": "整租·科锦苑 3室1厅 南",
    "community": "科锦苑",
    "area": "80.00",
    "rooms": "3室1厅",
    "direction": "南",
    "floor": "",
    "price": "5800",
    "tags": "",
    "source": "",
    "url": "https://sh.lianjia.com/zufang/SH2157144543730860032.html",
    "rent_type": "整租",
    "scraped_at": "2026-04-22 18:27:09",
    "region": "zhangjiang",
    "unit_price": 72.5,
    "lat": 31.173612,
    "lng": 121.625676
  },
  {
    "title": "独栋·集贤天地人才公寓 旗舰店 张江科创园区朝南一室户，民用水电，拎包入住优惠多多D 1室1厅",
    "community": "集贤天地人才公寓 旗舰店 张江科创园区朝南一室户，民用水电，拎包入住优惠多多D",
    "area": "45.00",
    "rooms": "1室1厅",
    "direction": "",
    "floor": "",
    "price": "5200",
    "tags": "",
    "source": "",
    "url": "https://sh.lianjia.com/apartment/85222.html",
    "rent_type": "独栋",
    "scraped_at": "2026-04-22 18:32:28",
    "region": "zhangjiang",
    "unit_price": 115.6,
    "lat": 31.208796,
    "lng": 121.629595
  },
  {
    "title": "整租·张江汤臣豪园(二期) 2室2厅 南",
    "community": "张江汤臣豪园(二期)",
    "area": "94.15",
    "rooms": "2室2厅",
    "direction": "南",
    "floor": "",
    "price": "11000",
    "tags": "",
    "source": "",
    "url": "https://sh.lianjia.com/zufang/SH2143006628650156032.html",
    "rent_type": "整租",
    "scraped_at": "2026-04-22 18:27:16",
    "region": "zhangjiang",
    "unit_price": 116.8,
    "lat": 31.202498,
    "lng": 121.597512
  },
  {
    "title": "独栋·顶夫公寓 孙桥路店 地铁口好房!13号线张江路整租任选，周边商圈环绕 开间",
    "community": "顶夫公寓 孙桥路店 地铁口好房!13号线张江路整租任选，周边商圈环绕 开间",
    "area": "23.00",
    "rooms": "",
    "direction": "",
    "floor": "",
    "price": "2300",
    "tags": "",
    "source": "",
    "url": "https://sh.lianjia.com/apartment/106602.html",
    "rent_type": "独栋",
    "scraped_at": "2026-04-22 18:32:40",
    "region": "zhangjiang",
    "unit_price": 100.0,
    "lat": 31.120383,
    "lng": 121.27151
  },
  {
    "title": "独栋·baseLITE 张江店 全景落地窗阳台，租期灵活，超大储物空间 1室1厅",
    "community": "baseLITE 张江店 全景落地窗阳台，租期灵活，超大储物空间",
    "area": "67.00",
    "rooms": "1室1厅",
    "direction": "",
    "floor": "",
    "price": "7000",
    "tags": "",
    "source": "",
    "url": "https://sh.lianjia.com/apartment/29634.html",
    "rent_type": "独栋",
    "scraped_at": "2026-04-22 18:32:40",
    "region": "zhangjiang",
    "unit_price": 104.5,
    "lat": 31.143434,
    "lng": 121.446419
  },
  {
    "title": "整租·张江汤臣豪园(二期) 3室2厅 南",
    "community": "张江汤臣豪园(二期)",
    "area": "123.20",
    "rooms": "3室2厅",
    "direction": "南",
    "floor": "",
    "price": "13000",
    "tags": "",
    "source": "",
    "url": "https://sh.lianjia.com/zufang/SH2148423754630299648.html",
    "rent_type": "整租",
    "scraped_at": "2026-04-22 18:27:16",
    "region": "zhangjiang",
    "unit_price": 105.5,
    "lat": 31.202498,
    "lng": 121.597512
  },
  {
    "title": "整租·张江汤臣豪园(四期) 2室2厅 南",
    "community": "张江汤臣豪园(四期)",
    "area": "90.00",
    "rooms": "2室2厅",
    "direction": "南",
    "floor": "",
    "price": "12000",
    "tags": "",
    "source": "",
    "url": "https://sh.lianjia.com/zufang/SH2137780230041894912.html",
    "rent_type": "整租",
    "scraped_at": "2026-04-22 18:27:16",
    "region": "zhangjiang",
    "unit_price": 133.3,
    "lat": 31.198209,
    "lng": 121.592123
  },
  {
    "title": "独栋·纳仕 张江在线右里2 开业礼立减999，12免1优惠同享，超高性价比就在右里 1室1厅",
    "community": "纳仕 张江在线右里2 开业礼立减999，12免1优惠同享，超高性价比就在右里",
    "area": "55.00",
    "rooms": "1室1厅",
    "direction": "",
    "floor": "",
    "price": "5033",
    "tags": "",
    "source": "",
    "url": "https://sh.lianjia.com/apartment/101080.html",
    "rent_type": "独栋",
    "scraped_at": "2026-04-22 18:31:52",
    "region": "zhangjiang",
    "unit_price": 91.5,
    "lat": 31.211770018144332,
    "lng": 121.59796024321206
  },
  {
    "title": "整租·香楠小区 2室1厅 南",
    "community": "香楠小区",
    "area": "51.86",
    "rooms": "2室1厅",
    "direction": "南",
    "floor": "",
    "price": "5490",
    "tags": "",
    "source": "",
    "url": "https://sh.lianjia.com/zufang/SH2149953228643500032.html",
    "rent_type": "整租",
    "scraped_at": "2026-04-22 18:27:16",
    "region": "zhangjiang",
    "unit_price": 105.9,
    "lat": 31.21652,
    "lng": 121.614476
  },
  {
    "title": "整租·古桐公寓 3室2厅 南",
    "community": "古桐公寓",
    "area": "107.23",
    "rooms": "3室2厅",
    "direction": "南",
    "floor": "",
    "price": "8000",
    "tags": "",
    "source": "",
    "url": "https://sh.lianjia.com/zufang/SH2156716873104752640.html",
    "rent_type": "整租",
    "scraped_at": "2026-04-22 18:27:16",
    "region": "zhangjiang",
    "unit_price": 74.6,
    "lat": 31.200974,
    "lng": 121.616393
  },
  {
    "title": "整租·万科翡翠公园六期 3室2厅 南",
    "community": "万科翡翠公园六期",
    "area": "94.67",
    "rooms": "3室2厅",
    "direction": "南",
    "floor": "",
    "price": "12800",
    "tags": "",
    "source": "",
    "url": "https://sh.lianjia.com/zufang/SH2098315154268618752.html",
    "rent_type": "整租",
    "scraped_at": "2026-04-22 18:27:16",
    "region": "zhangjiang",
    "unit_price": 135.2,
    "lat": 31.181301,
    "lng": 121.612192
  },
  {
    "title": "整租·城市经典四期高迪 1室1厅 南",
    "community": "城市经典四期高迪",
    "area": "64.03",
    "rooms": "1室1厅",
    "direction": "南",
    "floor": "",
    "price": "6000",
    "tags": "",
    "source": "",
    "url": "https://sh.lianjia.com/zufang/SH2142891753529671680.html",
    "rent_type": "整租",
    "scraped_at": "2026-04-22 18:27:16",
    "region": "zhangjiang",
    "unit_price": 93.7,
    "lat": 31.212907,
    "lng": 121.618681
  },
  {
    "title": "独栋·杨镇公寓 杨镇公寓 超绝性价比 国企直租 南北通透 72平两室 近长泰广场 2室1厅",
    "community": "杨镇公寓 杨镇公寓 超绝性价比 国企直租 南北通透 72平两室 近长泰广场",
    "area": "72.00",
    "rooms": "2室1厅",
    "direction": "",
    "floor": "",
    "price": "4500",
    "tags": "",
    "source": "",
    "url": "https://sh.lianjia.com/apartment/73043.html",
    "rent_type": "独栋",
    "scraped_at": "2026-04-22 18:32:28",
    "region": "zhangjiang",
    "unit_price": 62.5,
    "lat": 31.205898,
    "lng": 121.602059
  },
  {
    "title": "整租·交江大楼 2室1厅 南",
    "community": "交江大楼",
    "area": "82.12",
    "rooms": "2室1厅",
    "direction": "南",
    "floor": "",
    "price": "6300",
    "tags": "",
    "source": "",
    "url": "https://sh.lianjia.com/zufang/SH2153783509267775488.html",
    "rent_type": "整租",
    "scraped_at": "2026-04-22 18:27:23",
    "region": "zhangjiang",
    "unit_price": 76.7,
    "lat": 31.205617,
    "lng": 121.613283
  },
  {
    "title": "整租·张江汤臣豪园(四期) 3室2厅 南/北",
    "community": "张江汤臣豪园(四期)",
    "area": "129.00",
    "rooms": "3室2厅",
    "direction": "南/北",
    "floor": "",
    "price": "19000",
    "tags": "",
    "source": "",
    "url": "https://sh.lianjia.com/zufang/SH2140421904488464384.html",
    "rent_type": "整租",
    "scraped_at": "2026-04-22 18:27:23",
    "region": "zhangjiang",
    "unit_price": 147.3,
    "lat": 31.198209,
    "lng": 121.592123
  },
  {
    "title": "整租·中建朗阅府 3室2厅 南",
    "community": "中建朗阅府",
    "area": "89.00",
    "rooms": "3室2厅",
    "direction": "南",
    "floor": "",
    "price": "10500",
    "tags": "",
    "source": "",
    "url": "https://sh.lianjia.com/zufang/SH2148076008673116160.html",
    "rent_type": "整租",
    "scraped_at": "2026-04-22 18:27:23",
    "region": "zhangjiang",
    "unit_price": 118.0,
    "lat": 31.176649,
    "lng": 121.627105
  },
  {
    "title": "整租·汇智湖畔家园 2室2厅 南",
    "community": "汇智湖畔家园",
    "area": "87.69",
    "rooms": "2室2厅",
    "direction": "南",
    "floor": "",
    "price": "11000",
    "tags": "",
    "source": "",
    "url": "https://sh.lianjia.com/zufang/SH2156725081642893312.html",
    "rent_type": "整租",
    "scraped_at": "2026-04-22 18:27:23",
    "region": "zhangjiang",
    "unit_price": 125.4,
    "lat": 31.199759,
    "lng": 121.606217
  },
  {
    "title": "整租·申城佳苑一期A块 2室1厅 南",
    "community": "申城佳苑一期A块",
    "area": "61.00",
    "rooms": "2室1厅",
    "direction": "南",
    "floor": "",
    "price": "5500",
    "tags": "",
    "source": "",
    "url": "https://sh.lianjia.com/zufang/SH2153407477784248320.html",
    "rent_type": "整租",
    "scraped_at": "2026-04-22 18:27:23",
    "region": "zhangjiang",
    "unit_price": 90.2,
    "lat": 31.185542,
    "lng": 121.636445
  },
  {
    "title": "整租·汇智湖畔家园 2室2厅 南",
    "community": "汇智湖畔家园",
    "area": "89.36",
    "rooms": "2室2厅",
    "direction": "南",
    "floor": "",
    "price": "10500",
    "tags": "",
    "source": "",
    "url": "https://sh.lianjia.com/zufang/SH2139699098977042432.html",
    "rent_type": "整租",
    "scraped_at": "2026-04-22 18:27:23",
    "region": "zhangjiang",
    "unit_price": 117.5,
    "lat": 31.199759,
    "lng": 121.606217
  },
  {
    "title": "整租·张江汤臣豪园(三期) 2室2厅 南",
    "community": "张江汤臣豪园(三期)",
    "area": "89.00",
    "rooms": "2室2厅",
    "direction": "南",
    "floor": "",
    "price": "11500",
    "tags": "",
    "source": "",
    "url": "https://sh.lianjia.com/zufang/SH2152814016261521408.html",
    "rent_type": "整租",
    "scraped_at": "2026-04-22 18:27:23",
    "region": "zhangjiang",
    "unit_price": 129.2,
    "lat": 31.199283,
    "lng": 121.597612
  },
  {
    "title": "整租·张江汤臣豪园(三期) 1室2厅 南",
    "community": "张江汤臣豪园(三期)",
    "area": "61.37",
    "rooms": "1室2厅",
    "direction": "南",
    "floor": "",
    "price": "8800",
    "tags": "",
    "source": "",
    "url": "https://sh.lianjia.com/zufang/SH2150142208412483584.html",
    "rent_type": "整租",
    "scraped_at": "2026-04-22 18:27:23",
    "region": "zhangjiang",
    "unit_price": 143.4,
    "lat": 31.199283,
    "lng": 121.597612
  },
  {
    "title": "整租·汤臣高尔夫(别墅) 5室3厅 复式 南",
    "community": "汤臣高尔夫(别墅)",
    "area": "378.68",
    "rooms": "5室3厅",
    "direction": "",
    "floor": "",
    "price": "38000",
    "tags": "",
    "source": "",
    "url": "https://sh.lianjia.com/zufang/SH1983865902738702336.html",
    "rent_type": "整租",
    "scraped_at": "2026-04-22 18:27:23",
    "region": "zhangjiang",
    "unit_price": 100.3,
    "lat": 31.218904,
    "lng": 121.582034
  },
  {
    "title": "整租·玫瑰湾(别墅) 5室2厅 南",
    "community": "玫瑰湾(别墅)",
    "area": "162.00",
    "rooms": "5室2厅",
    "direction": "南",
    "floor": "",
    "price": "14000",
    "tags": "",
    "source": "",
    "url": "https://sh.lianjia.com/zufang/SH2155605510328418304.html",
    "rent_type": "整租",
    "scraped_at": "2026-04-22 18:27:23",
    "region": "zhangjiang",
    "unit_price": 86.4,
    "lat": 31.182104,
    "lng": 121.62903
  },
  {
    "title": "整租·紫晶苑 2室2厅 南",
    "community": "紫晶苑",
    "area": "80.21",
    "rooms": "2室2厅",
    "direction": "南",
    "floor": "",
    "price": "5200",
    "tags": "",
    "source": "",
    "url": "https://sh.lianjia.com/zufang/SH2120854188643581952.html",
    "rent_type": "整租",
    "scraped_at": "2026-04-22 18:27:23",
    "region": "zhangjiang",
    "unit_price": 64.8,
    "lat": 31.175766,
    "lng": 121.623784
  },
  {
    "title": "整租·万科翡翠公园四期 2室2厅 南/北",
    "community": "万科翡翠公园四期",
    "area": "85.00",
    "rooms": "2室2厅",
    "direction": "南/北",
    "floor": "",
    "price": "10500",
    "tags": "",
    "source": "",
    "url": "https://sh.lianjia.com/zufang/SH2158124537898598400.html",
    "rent_type": "整租",
    "scraped_at": "2026-04-22 18:27:23",
    "region": "zhangjiang",
    "unit_price": 123.5,
    "lat": 31.179139,
    "lng": 121.610609
  },
  {
    "title": "独栋·柚米 张江纳仕社区C店 国企张江集团高性价比三房，宠物友好，配套学校 房源紧张！ 3室1厅",
    "community": "柚米 张江纳仕社区C店 国企张江集团高性价比三房，宠物友好，配套学校 房源紧张！",
    "area": "110.00",
    "rooms": "3室1厅",
    "direction": "",
    "floor": "",
    "price": "8116",
    "tags": "",
    "source": "",
    "url": "https://sh.lianjia.com/apartment/60815.html",
    "rent_type": "独栋",
    "scraped_at": "2026-04-22 18:27:23",
    "region": "zhangjiang",
    "unit_price": 73.8,
    "lat": 31.186213,
    "lng": 121.587145
  },
  {
    "title": "整租·玉兰香苑二期B块 2室1厅 南",
    "community": "玉兰香苑二期B块",
    "area": "57.85",
    "rooms": "2室1厅",
    "direction": "南",
    "floor": "",
    "price": "5300",
    "tags": "",
    "source": "",
    "url": "https://sh.lianjia.com/zufang/SH2156980517709283328.html",
    "rent_type": "整租",
    "scraped_at": "2026-04-22 18:27:23",
    "region": "zhangjiang",
    "unit_price": 91.6,
    "lat": 31.198439,
    "lng": 121.627318
  },
  {
    "title": "独栋·柚米 张江纳仕社区B店 张江集团租赁 民用水电 可办居住证两室一厅 2室1厅",
    "community": "柚米 张江纳仕社区B店 张江集团租赁 民用水电 可办居住证两室一厅",
    "area": "90.00",
    "rooms": "2室1厅",
    "direction": "",
    "floor": "",
    "price": "6362",
    "tags": "",
    "source": "",
    "url": "https://sh.lianjia.com/apartment/60819.html",
    "rent_type": "独栋",
    "scraped_at": "2026-04-22 18:27:23",
    "region": "zhangjiang",
    "unit_price": 70.7,
    "lat": 31.168658,
    "lng": 121.623132
  },
  {
    "title": "整租·申城佳苑一期B块 2室1厅 南",
    "community": "申城佳苑一期B块",
    "area": "60.64",
    "rooms": "2室1厅",
    "direction": "南",
    "floor": "",
    "price": "5000",
    "tags": "",
    "source": "",
    "url": "https://sh.lianjia.com/zufang/SH2157480515689512960.html",
    "rent_type": "整租",
    "scraped_at": "2026-04-22 18:27:23",
    "region": "zhangjiang",
    "unit_price": 82.5,
    "lat": 31.185542,
    "lng": 121.636445
  },
  {
    "title": "整租·香楠小区 2室1厅 南",
    "community": "香楠小区",
    "area": "56.12",
    "rooms": "2室1厅",
    "direction": "南",
    "floor": "",
    "price": "5300",
    "tags": "",
    "source": "",
    "url": "https://sh.lianjia.com/zufang/SH2158066735293399040.html",
    "rent_type": "整租",
    "scraped_at": "2026-04-22 18:27:23",
    "region": "zhangjiang",
    "unit_price": 94.4,
    "lat": 31.21652,
    "lng": 121.614476
  },
  {
    "title": "整租·申城佳苑三期A块 3室1厅 南",
    "community": "申城佳苑三期A块",
    "area": "91.00",
    "rooms": "3室1厅",
    "direction": "南",
    "floor": "",
    "price": "7000",
    "tags": "",
    "source": "",
    "url": "https://sh.lianjia.com/zufang/SH2157313130969956352.html",
    "rent_type": "整租",
    "scraped_at": "2026-04-22 18:27:23",
    "region": "zhangjiang",
    "unit_price": 76.9,
    "lat": 31.180953,
    "lng": 121.638523
  },
  {
    "title": "整租·杨镇新村 2室1厅 南",
    "community": "杨镇新村",
    "area": "71.67",
    "rooms": "2室1厅",
    "direction": "南",
    "floor": "",
    "price": "5600",
    "tags": "",
    "source": "",
    "url": "https://sh.lianjia.com/zufang/SH2152996647481638912.html",
    "rent_type": "整租",
    "scraped_at": "2026-04-22 18:27:23",
    "region": "zhangjiang",
    "unit_price": 78.1,
    "lat": 31.029188,
    "lng": 121.369623
  },
  {
    "title": "独栋·柚米 张江纳仕社区F店 张江集团人才公寓 可办居住证 民水电通燃气 好房先到先得！ 2室1厅",
    "community": "柚米 张江纳仕社区F店 张江集团人才公寓 可办居住证 民水电通燃气 好房先到先得！",
    "area": "90.00",
    "rooms": "2室1厅",
    "direction": "",
    "floor": "",
    "price": "6593",
    "tags": "",
    "source": "",
    "url": "https://sh.lianjia.com/apartment/46401.html",
    "rent_type": "独栋",
    "scraped_at": "2026-04-22 18:27:23",
    "region": "zhangjiang",
    "unit_price": 73.3,
    "lat": 31.245532,
    "lng": 121.702299
  },
  {
    "title": "整租·川杨新苑(二期) 2室2厅 南/北",
    "community": "川杨新苑(二期)",
    "area": "90.58",
    "rooms": "2室2厅",
    "direction": "南/北",
    "floor": "",
    "price": "6600",
    "tags": "",
    "source": "",
    "url": "https://sh.lianjia.com/zufang/SH2152768018189385728.html",
    "rent_type": "整租",
    "scraped_at": "2026-04-22 18:27:23",
    "region": "zhangjiang",
    "unit_price": 72.9,
    "lat": 31.185655,
    "lng": 121.627256
  },
  {
    "title": "整租·玉兰香苑二期B块 3室1厅 南",
    "community": "玉兰香苑二期B块",
    "area": "74.81",
    "rooms": "3室1厅",
    "direction": "南",
    "floor": "",
    "price": "6000",
    "tags": "",
    "source": "",
    "url": "https://sh.lianjia.com/zufang/SH2158155583885148160.html",
    "rent_type": "整租",
    "scraped_at": "2026-04-22 18:27:23",
    "region": "zhangjiang",
    "unit_price": 80.2,
    "lat": 31.198439,
    "lng": 121.627318
  },
  {
    "title": "整租·圣宇豪庭 3室2厅 南",
    "community": "圣宇豪庭",
    "area": "137.08",
    "rooms": "3室2厅",
    "direction": "南",
    "floor": "",
    "price": "15000",
    "tags": "",
    "source": "",
    "url": "https://sh.lianjia.com/zufang/SH2149756293622005760.html",
    "rent_type": "整租",
    "scraped_at": "2026-04-22 18:27:23",
    "region": "zhangjiang",
    "unit_price": 109.4,
    "lat": 31.18413,
    "lng": 121.630896
  },
  {
    "title": "整租·春港丽园(公寓) 3室2厅 南",
    "community": "春港丽园(公寓)",
    "area": "112.10",
    "rooms": "3室2厅",
    "direction": "南",
    "floor": "",
    "price": "7500",
    "tags": "",
    "source": "",
    "url": "https://sh.lianjia.com/zufang/SH1930118618868088832.html",
    "rent_type": "整租",
    "scraped_at": "2026-04-22 18:27:23",
    "region": "zhangjiang",
    "unit_price": 66.9,
    "lat": 31.202239,
    "lng": 121.623576
  },
  {
    "title": "整租·中芯花园199弄 1室1厅 南",
    "community": "中芯花园199弄",
    "area": "67.05",
    "rooms": "1室1厅",
    "direction": "南",
    "floor": "",
    "price": "5000",
    "tags": "",
    "source": "",
    "url": "https://sh.lianjia.com/zufang/SH1836734004984807424.html",
    "rent_type": "整租",
    "scraped_at": "2026-04-22 18:27:31",
    "region": "zhangjiang",
    "unit_price": 74.6,
    "lat": 31.220081,
    "lng": 121.621991
  },
  {
    "title": "整租·盛大天地青春里2.0 1室1厅 南",
    "community": "盛大天地青春里2.0",
    "area": "44.91",
    "rooms": "1室1厅",
    "direction": "南",
    "floor": "",
    "price": "4900",
    "tags": "",
    "source": "",
    "url": "https://sh.lianjia.com/zufang/SH1877993836018401280.html",
    "rent_type": "整租",
    "scraped_at": "2026-04-22 18:27:31",
    "region": "zhangjiang",
    "unit_price": 109.1,
    "lat": 31.169751,
    "lng": 121.605652
  },
  {
    "title": "整租·汤臣高尔夫(公寓) 4室2厅 南",
    "community": "汤臣高尔夫(公寓)",
    "area": "188.49",
    "rooms": "4室2厅",
    "direction": "南",
    "floor": "",
    "price": "18600",
    "tags": "",
    "source": "",
    "url": "https://sh.lianjia.com/zufang/SH1878063925962997760.html",
    "rent_type": "整租",
    "scraped_at": "2026-04-22 18:27:31",
    "region": "zhangjiang",
    "unit_price": 98.7,
    "lat": 31.218904,
    "lng": 121.582034
  },
  {
    "title": "整租·古桐路小区 1室1厅 南",
    "community": "古桐路小区",
    "area": "36.45",
    "rooms": "1室1厅",
    "direction": "南",
    "floor": "",
    "price": "3570",
    "tags": "",
    "source": "",
    "url": "https://sh.lianjia.com/zufang/SH1860564605038755840.html",
    "rent_type": "整租",
    "scraped_at": "2026-04-22 18:27:31",
    "region": "zhangjiang",
    "unit_price": 97.9,
    "lat": 31.203065,
    "lng": 121.613053
  },
  {
    "title": "整租·丹芳苑 3室2厅 南",
    "community": "丹芳苑",
    "area": "174.67",
    "rooms": "3室2厅",
    "direction": "南",
    "floor": "",
    "price": "12600",
    "tags": "",
    "source": "",
    "url": "https://sh.lianjia.com/zufang/SH1872909295796879360.html",
    "rent_type": "整租",
    "scraped_at": "2026-04-22 18:27:31",
    "region": "zhangjiang",
    "unit_price": 72.1,
    "lat": 31.202251,
    "lng": 121.611451
  },
  {
    "title": "整租·申城佳苑三期B块 3室1厅 南",
    "community": "申城佳苑三期B块",
    "area": "78.61",
    "rooms": "3室1厅",
    "direction": "南",
    "floor": "",
    "price": "5300",
    "tags": "",
    "source": "",
    "url": "https://sh.lianjia.com/zufang/SH1846089519607054336.html",
    "rent_type": "整租",
    "scraped_at": "2026-04-22 18:27:31",
    "region": "zhangjiang",
    "unit_price": 67.4,
    "lat": 31.180953,
    "lng": 121.638523
  },
  {
    "title": "整租·盛大天地青春里2.0 2室1厅 东南",
    "community": "盛大天地青春里2.0",
    "area": "46.00",
    "rooms": "2室1厅",
    "direction": "东南",
    "floor": "",
    "price": "4410",
    "tags": "",
    "source": "",
    "url": "https://sh.lianjia.com/zufang/SH1919388227127476224.html",
    "rent_type": "整租",
    "scraped_at": "2026-04-22 18:27:31",
    "region": "zhangjiang",
    "unit_price": 95.9,
    "lat": 31.169751,
    "lng": 121.605652
  },
  {
    "title": "整租·紫晶苑 3室1厅 南",
    "community": "紫晶苑",
    "area": "79.58",
    "rooms": "3室1厅",
    "direction": "南",
    "floor": "",
    "price": "5200",
    "tags": "",
    "source": "",
    "url": "https://sh.lianjia.com/zufang/SH1928445798668828672.html",
    "rent_type": "整租",
    "scraped_at": "2026-04-22 18:27:31",
    "region": "zhangjiang",
    "unit_price": 65.3,
    "lat": 31.175766,
    "lng": 121.623784
  },
  {
    "title": "整租·盛大天地青春里2.0 2室2厅 东北",
    "community": "盛大天地青春里2.0",
    "area": "54.00",
    "rooms": "2室2厅",
    "direction": "东北",
    "floor": "",
    "price": "5145",
    "tags": "",
    "source": "",
    "url": "https://sh.lianjia.com/zufang/SH1928816270845673472.html",
    "rent_type": "整租",
    "scraped_at": "2026-04-22 18:27:31",
    "region": "zhangjiang",
    "unit_price": 95.3,
    "lat": 31.169751,
    "lng": 121.605652
  },
  {
    "title": "整租·盛大天地青春里2.0 2室2厅 北",
    "community": "盛大天地青春里2.0",
    "area": "45.00",
    "rooms": "2室2厅",
    "direction": "北",
    "floor": "",
    "price": "4515",
    "tags": "",
    "source": "",
    "url": "https://sh.lianjia.com/zufang/SH1931293032494137344.html",
    "rent_type": "整租",
    "scraped_at": "2026-04-22 18:27:31",
    "region": "zhangjiang",
    "unit_price": 100.3,
    "lat": 31.169751,
    "lng": 121.605652
  },
  {
    "title": "整租·盛大天地青春里2.0 1室1厅 北",
    "community": "盛大天地青春里2.0",
    "area": "45.00",
    "rooms": "1室1厅",
    "direction": "北",
    "floor": "",
    "price": "3990",
    "tags": "",
    "source": "",
    "url": "https://sh.lianjia.com/zufang/SH1933432760643354624.html",
    "rent_type": "整租",
    "scraped_at": "2026-04-22 18:27:31",
    "region": "zhangjiang",
    "unit_price": 88.7,
    "lat": 31.169751,
    "lng": 121.605652
  },
  {
    "title": "整租·盛大天地青春里2.0 2室1厅 北",
    "community": "盛大天地青春里2.0",
    "area": "45.00",
    "rooms": "2室1厅",
    "direction": "北",
    "floor": "",
    "price": "4620",
    "tags": "",
    "source": "",
    "url": "https://sh.lianjia.com/zufang/SH1933114530372517888.html",
    "rent_type": "整租",
    "scraped_at": "2026-04-22 18:27:31",
    "region": "zhangjiang",
    "unit_price": 102.7,
    "lat": 31.169751,
    "lng": 121.605652
  },
  {
    "title": "整租·玉兰香苑二期A块 2室1厅 南",
    "community": "玉兰香苑二期A块",
    "area": "58.98",
    "rooms": "2室1厅",
    "direction": "南",
    "floor": "",
    "price": "4725",
    "tags": "",
    "source": "",
    "url": "https://sh.lianjia.com/zufang/SH2023774565703876608.html",
    "rent_type": "整租",
    "scraped_at": "2026-04-22 18:27:31",
    "region": "zhangjiang",
    "unit_price": 80.1,
    "lat": 31.198439,
    "lng": 121.627318
  },
  {
    "title": "独栋·纳仕 张江国际社区云庐 张江集团自营公寓 南北通透 班车直达园区地铁站 2室2厅",
    "community": "纳仕 张江国际社区云庐 张江集团自营公寓 南北通透 班车直达园区地铁站",
    "area": "112.00",
    "rooms": "2室2厅",
    "direction": "",
    "floor": "",
    "price": "9300",
    "tags": "",
    "source": "",
    "url": "https://sh.lianjia.com/apartment/63406.html",
    "rent_type": "独栋",
    "scraped_at": "2026-04-22 18:32:40",
    "region": "zhangjiang",
    "unit_price": 83.0,
    "lat": 31.168803,
    "lng": 121.62556
  },
  {
    "title": "整租·申城佳苑一期C块 1室1厅 南",
    "community": "申城佳苑一期C块",
    "area": "60.15",
    "rooms": "1室1厅",
    "direction": "南",
    "floor": "",
    "price": "5200",
    "tags": "",
    "source": "",
    "url": "https://sh.lianjia.com/zufang/SH2154520338484953088.html",
    "rent_type": "整租",
    "scraped_at": "2026-04-22 18:31:15",
    "region": "zhangjiang",
    "unit_price": 86.5,
    "lat": 31.185542,
    "lng": 121.636445
  },
  {
    "title": "整租·古桐公寓 2室2厅 南",
    "community": "古桐公寓",
    "area": "75.63",
    "rooms": "2室2厅",
    "direction": "南",
    "floor": "",
    "price": "6700",
    "tags": "",
    "source": "",
    "url": "https://sh.lianjia.com/zufang/SH2150518641072799744.html",
    "rent_type": "整租",
    "scraped_at": "2026-04-22 18:31:15",
    "region": "zhangjiang",
    "unit_price": 88.6,
    "lat": 31.200974,
    "lng": 121.616393
  },
  {
    "title": "整租·春港丽园(公寓) 3室1厅 南",
    "community": "春港丽园(公寓)",
    "area": "77.48",
    "rooms": "3室1厅",
    "direction": "南",
    "floor": "",
    "price": "5770",
    "tags": "",
    "source": "",
    "url": "https://sh.lianjia.com/zufang/SH2150524900660477952.html",
    "rent_type": "整租",
    "scraped_at": "2026-04-22 18:31:15",
    "region": "zhangjiang",
    "unit_price": 74.5,
    "lat": 31.202239,
    "lng": 121.623576
  },
  {
    "title": "整租·紫晶苑 2室1厅 南",
    "community": "紫晶苑",
    "area": "81.00",
    "rooms": "2室1厅",
    "direction": "南",
    "floor": "",
    "price": "5300",
    "tags": "",
    "source": "",
    "url": "https://sh.lianjia.com/zufang/SH2152412022325641216.html",
    "rent_type": "整租",
    "scraped_at": "2026-04-22 18:31:15",
    "region": "zhangjiang",
    "unit_price": 65.4,
    "lat": 31.175766,
    "lng": 121.623784
  },
  {
    "title": "整租·城市经典四期高迪 1室1厅 南",
    "community": "城市经典四期高迪",
    "area": "63.79",
    "rooms": "1室1厅",
    "direction": "南",
    "floor": "",
    "price": "6100",
    "tags": "",
    "source": "",
    "url": "https://sh.lianjia.com/zufang/SH1885623954081579008.html",
    "rent_type": "整租",
    "scraped_at": "2026-04-22 18:31:15",
    "region": "zhangjiang",
    "unit_price": 95.6,
    "lat": 31.212907,
    "lng": 121.618681
  },
  {
    "title": "整租·中芯花园199弄 1室1厅 南",
    "community": "中芯花园199弄",
    "area": "67.05",
    "rooms": "1室1厅",
    "direction": "南",
    "floor": "",
    "price": "5200",
    "tags": "",
    "source": "",
    "url": "https://sh.lianjia.com/zufang/SH1892228484181262336.html",
    "rent_type": "整租",
    "scraped_at": "2026-04-22 18:31:15",
    "region": "zhangjiang",
    "unit_price": 77.6,
    "lat": 31.220081,
    "lng": 121.621991
  },
  {
    "title": "整租·绿地MTOWN 2室0厅 跃层 北",
    "community": "绿地MTOWN",
    "area": "38.00",
    "rooms": "2室0厅",
    "direction": "",
    "floor": "",
    "price": "4515",
    "tags": "",
    "source": "",
    "url": "https://sh.lianjia.com/zufang/SH2058050068597964800.html",
    "rent_type": "整租",
    "scraped_at": "2026-04-22 18:31:15",
    "region": "zhangjiang",
    "unit_price": 118.8,
    "lat": 31.177201,
    "lng": 121.603781
  },
  {
    "title": "整租·展想悦廷 1室1厅 东",
    "community": "展想悦廷",
    "area": "57.00",
    "rooms": "1室1厅",
    "direction": "东",
    "floor": "",
    "price": "4200",
    "tags": "",
    "source": "",
    "url": "https://sh.lianjia.com/zufang/SH2054435418551615488.html",
    "rent_type": "整租",
    "scraped_at": "2026-04-22 18:31:15",
    "region": "zhangjiang",
    "unit_price": 73.7,
    "lat": 31.210723,
    "lng": 121.626563
  },
  {
    "title": "整租·盛大天地青春里2.0 2室2厅 东北",
    "community": "盛大天地青春里2.0",
    "area": "45.00",
    "rooms": "2室2厅",
    "direction": "东北",
    "floor": "",
    "price": "4410",
    "tags": "",
    "source": "",
    "url": "https://sh.lianjia.com/zufang/SH1940375785416163328.html",
    "rent_type": "整租",
    "scraped_at": "2026-04-22 18:31:15",
    "region": "zhangjiang",
    "unit_price": 98.0,
    "lat": 31.169751,
    "lng": 121.605652
  },
  {
    "title": "整租·春港丽园(公寓) 2室1厅 南",
    "community": "春港丽园(公寓)",
    "area": "76.00",
    "rooms": "2室1厅",
    "direction": "南",
    "floor": "",
    "price": "5700",
    "tags": "",
    "source": "",
    "url": "https://sh.lianjia.com/zufang/SH1988598466284093440.html",
    "rent_type": "整租",
    "scraped_at": "2026-04-22 18:31:15",
    "region": "zhangjiang",
    "unit_price": 75.0,
    "lat": 31.202239,
    "lng": 121.623576
  },
  {
    "title": "整租·建中路171弄 2室1厅 南",
    "community": "建中路171弄",
    "area": "72.00",
    "rooms": "2室1厅",
    "direction": "南",
    "floor": "",
    "price": "6300",
    "tags": "",
    "source": "",
    "url": "https://sh.lianjia.com/zufang/SH1991503120978411520.html",
    "rent_type": "整租",
    "scraped_at": "2026-04-22 18:31:15",
    "region": "zhangjiang",
    "unit_price": 87.5,
    "lat": 31.202451,
    "lng": 121.614872
  },
  {
    "title": "整租·玉兰香苑(三期) 3室1厅 南",
    "community": "玉兰香苑(三期)",
    "area": "93.65",
    "rooms": "3室1厅",
    "direction": "南",
    "floor": "",
    "price": "5880",
    "tags": "",
    "source": "",
    "url": "https://sh.lianjia.com/zufang/SH2015011567384395776.html",
    "rent_type": "整租",
    "scraped_at": "2026-04-22 18:31:42",
    "region": "zhangjiang",
    "unit_price": 62.8,
    "lat": 31.198022,
    "lng": 121.634851
  },
  {
    "title": "整租·汇智湖畔家园 2室2厅 南/北",
    "community": "汇智湖畔家园",
    "area": "89.36",
    "rooms": "2室2厅",
    "direction": "南/北",
    "floor": "",
    "price": "10080",
    "tags": "",
    "source": "",
    "url": "https://sh.lianjia.com/zufang/SH2015279479403839488.html",
    "rent_type": "整租",
    "scraped_at": "2026-04-22 18:31:42",
    "region": "zhangjiang",
    "unit_price": 112.8,
    "lat": 31.199759,
    "lng": 121.606217
  },
  {
    "title": "整租·展想悦廷 1室0厅 东",
    "community": "展想悦廷",
    "area": "52.96",
    "rooms": "1室0厅",
    "direction": "东",
    "floor": "",
    "price": "4300",
    "tags": "",
    "source": "",
    "url": "https://sh.lianjia.com/zufang/SH2143662152114765824.html",
    "rent_type": "整租",
    "scraped_at": "2026-04-22 18:31:42",
    "region": "zhangjiang",
    "unit_price": 81.2,
    "lat": 31.210723,
    "lng": 121.626563
  },
  {
    "title": "独栋·城方公寓 张江璟绸社区 宠物友好保租房 民用水电 阳光户型 家具家电齐全 3室2厅",
    "community": "城方公寓 张江璟绸社区 宠物友好保租房 民用水电 阳光户型 家具家电齐全",
    "area": "99.00",
    "rooms": "3室2厅",
    "direction": "",
    "floor": "",
    "price": "8835",
    "tags": "",
    "source": "",
    "url": "https://sh.lianjia.com/apartment/90525.html",
    "rent_type": "独栋",
    "scraped_at": "2026-04-22 18:31:42",
    "region": "zhangjiang",
    "unit_price": 89.2,
    "lat": 31.213456,
    "lng": 121.435516
  },
  {
    "title": "整租·张江汤臣豪园(二期) 2室2厅 南",
    "community": "张江汤臣豪园(二期)",
    "area": "107.00",
    "rooms": "2室2厅",
    "direction": "南",
    "floor": "",
    "price": "10500",
    "tags": "",
    "source": "",
    "url": "https://sh.lianjia.com/zufang/SH2150604119876829184.html",
    "rent_type": "整租",
    "scraped_at": "2026-04-22 18:31:42",
    "region": "zhangjiang",
    "unit_price": 98.1,
    "lat": 31.202498,
    "lng": 121.597512
  },
  {
    "title": "整租·申城佳苑二期C块 3室1厅 南",
    "community": "申城佳苑二期C块",
    "area": "89.00",
    "rooms": "3室1厅",
    "direction": "南",
    "floor": "",
    "price": "6000",
    "tags": "",
    "source": "",
    "url": "https://sh.lianjia.com/zufang/SH2156357327140159488.html",
    "rent_type": "整租",
    "scraped_at": "2026-04-22 18:31:42",
    "region": "zhangjiang",
    "unit_price": 67.4,
    "lat": 31.183084,
    "lng": 121.637066
  },
  {
    "title": "独栋·纳仕 张江在线右里3 张江园区保租房，独立厨房，明火做饭，宠物友好，宜家环保家居 1室1厅",
    "community": "纳仕 张江在线右里3 张江园区保租房，独立厨房，明火做饭，宠物友好，宜家环保家居",
    "area": "55.00",
    "rooms": "1室1厅",
    "direction": "",
    "floor": "",
    "price": "5144-5227",
    "tags": "",
    "source": "",
    "url": "https://sh.lianjia.com/apartment/101073.html",
    "rent_type": "独栋",
    "scraped_at": "2026-04-22 18:31:52",
    "region": "zhangjiang",
    "unit_price": "",
    "lat": 31.20947,
    "lng": 121.611467
  },