[
  {
    "title": "整租·花木苑 3室2厅 南",
    "community": "花木苑",
    "area": "139.95",
    "rooms": "3室2厅",
    "direction": "南",
    "floor": "",
    "price": "9700",
    "tags": "",
    "source": "",
    "url": "https://sh.lianjia.com/zufang/SH2002019085340114944.html",
    "rent_type": "整租",
    "location": "浦东-花木-花木苑",
    "scraped_at": "2026-04-23 00:29:21",
    "region": "huamu",
    "unit_price": 69.3,
    "lat": 31.210128,
    "lng": 121.543377
  },
  {
    "title": "整租·浦东星河湾 5室3厅 跃层 南",
    "community": "浦东星河湾",
    "area": "940.64",
    "rooms": "5室3厅",
    "direction": "",
    "floor": "",
    "price": "200000",
    "tags": "",
    "source": "",
    "url": "https://sh.lianjia.com/zufang/SH2089230836904755200.html",
    "rent_type": "整租",
    "location": "浦东-花木-浦东星河湾",
    "scraped_at": "2026-04-23 00:29:21",
    "region": "huamu",
    "unit_price": 212.6,
    "lat": 31.192484,
    "lng": 121.535903
  },
  {
    "title": "整租·建华公寓 3室2厅 南",
    "community": "建华公寓",
    "area": "144.66",
    "rooms": "3室2厅",
    "direction": "南",
    "floor": "",
    "price": "10000",
    "tags": "",
    "source": "",
    "url": "https://sh.lianjia.com/zufang/SH1847929872962289664.html",
    "rent_type": "整租",
    "location": "浦东-花木-建华公寓",
    "scraped_at": "2026-04-23 00:29:21",
    "region": "huamu",
    "unit_price": 69.1,
    "lat": 31.209507,
    "lng": 121.550354
  },
  {
    "title": "独栋·城方公寓 龙阳璟芳社区 近陆家嘴张江/一居室/民用水电燃气/可办居住证 开间",
    "community": "城方公寓 龙阳璟芳社区 近陆家嘴张江/一居室/民用水电燃气/可办居住证 开间",
    "area": "48.00",
    "rooms": "",
    "direction": "",
    "floor": "",
    "price": "6252-6422",
    "tags": "",
    "source": "",
    "url": "https://sh.lianjia.com/apartment/80390.html",
    "rent_type": "独栋",
    "location": "",
    "scraped_at": "2026-04-23 00:29:21",
    "region": "huamu",
    "unit_price": "",
    "lat": 31.21346,
    "lng": 121.43554
  },
  {
    "title": "整租·新领地 2室1厅 南",
    "community": "新领地",
    "area": "93.51",
    "rooms": "2室1厅",
    "direction": "南",
    "floor": "",
    "price": "6300",
    "tags": "",
    "source": "",
    "url": "https://sh.lianjia.com/zufang/SH2157377740188155904.html",
    "rent_type": "整租",
    "location": "浦东-花木-新领地",
    "scraped_at": "2026-04-23 00:29:39",
    "region": "huamu",
    "unit_price": 67.4,
    "lat": 31.202454,
    "lng": 121.550383
  },
  {
    "title": "整租·陆家嘴锦绣前城二期 3室2厅 东南/北",
    "community": "陆家嘴锦绣前城二期",
    "area": "88.76",
    "rooms": "3室2厅",
    "direction": "东南/北",
    "floor": "",
    "price": "9900",
    "tags": "",
    "source": "",
    "url": "https://sh.lianjia.com/zufang/SH1992941483853873152.html",
    "rent_type": "整租",
    "location": "浦东-花木-陆家嘴锦绣前城二期",
    "scraped_at": "2026-04-23 00:29:21",
    "region": "huamu",
    "unit_price": 111.5,
    "lat": 31.194391,
    "lng": 121.534816
  },
  {
    "title": "整租·万邦都市花园 2室2厅 南",
    "community": "万邦都市花园",
    "area": "74.95",
    "rooms": "2室2厅",
    "direction": "南",
    "floor": "",
    "price": "7000",
    "tags": "",
    "source": "",
    "url": "https://sh.lianjia.com/zufang/SH2153723380925202432.html",
    "rent_type": "整租",
    "location": "浦东-花木-万邦都市花园",
    "scraped_at": "2026-04-23 00:29:21",
    "region": "huamu",
    "unit_price": 93.4,
    "lat": 31.20073,
    "lng": 121.553226
  },
  {
    "title": "整租·海桐小区 2室1厅 南",
    "community": "海桐小区",
    "area": "71.18",
    "rooms": "2室1厅",
    "direction": "南",
    "floor": "",
    "price": "6825",
    "tags": "",
    "source": "",
    "url": "https://sh.lianjia.com/zufang/SH1979561939595952128.html",
    "rent_type": "整租",
    "location": "浦东-花木-海桐小区",
    "scraped_at": "2026-04-23 00:29:39",
    "region": "huamu",
    "unit_price": 95.9,
    "lat": 31.204504,
    "lng": 121.553366
  },
  {
    "title": "独栋·枫林青年公寓 花木路店 世纪公园白领公寓99 开间",
    "community": "枫林青年公寓 花木路店 世纪公园白领公寓99 开间",
    "area": "20.00",
    "rooms": "",
    "direction": "",
    "floor": "",
    "price": "2880",
    "tags": "",
    "source": "",
    "url": "https://sh.lianjia.com/apartment/81473.html",
    "rent_type": "独栋",
    "location": "",
    "scraped_at": "2026-04-23 00:29:21",
    "region": "huamu",
    "unit_price": 144.0,
    "lat": 31.196905,
    "lng": 121.684494
  },
  {
    "title": "整租·海桐苑 2室2厅 南",
    "community": "海桐苑",
    "area": "95.45",
    "rooms": "2室2厅",
    "direction": "南",
    "floor": "",
    "price": "6800",
    "tags": "",
    "source": "",
    "url": "https://sh.lianjia.com/zufang/SH2151351146382360576.html",
    "rent_type": "整租",
    "location": "浦东-花木-海桐苑",
    "scraped_at": "2026-04-23 00:29:39",
    "region": "huamu",
    "unit_price": 71.2,
    "lat": 31.204714,
    "lng": 121.550813
  },
  {
    "title": "整租·海桐苑 2室1厅 南",
    "community": "海桐苑",
    "area": "85.77",
    "rooms": "2室1厅",
    "direction": "南",
    "floor": "",
    "price": "6900",
    "tags": "",
    "source": "",
    "url": "https://sh.lianjia.com/zufang/SH2149405261880623104.html",
    "rent_type": "整租",
    "location": "浦东-花木-海桐苑",
    "scraped_at": "2026-04-23 00:29:39",
    "region": "huamu",
    "unit_price": 80.4,
    "lat": 31.204714,
    "lng": 121.550813
  },
  {
    "title": "整租·浦东星河湾 2室2厅 南",
    "community": "浦东星河湾",
    "area": "109.92",
    "rooms": "2室2厅",
    "direction": "南",
    "floor": "",
    "price": "19000",
    "tags": "",
    "source": "",
    "url": "https://sh.lianjia.com/zufang/SH2144040117189214208.html",
    "rent_type": "整租",
    "location": "浦东-花木-浦东星河湾",
    "scraped_at": "2026-04-23 00:29:39",
    "region": "huamu",
    "unit_price": 172.9,
    "lat": 31.192484,
    "lng": 121.535903
  },
  {
    "title": "整租·四季全景台 3室2厅 南",
    "community": "四季全景台",
    "area": "161.10",
    "rooms": "3室2厅",
    "direction": "南",
    "floor": "",
    "price": "18000",
    "tags": "",
    "source": "",
    "url": "https://sh.lianjia.com/zufang/SH2142593605338923008.html",
    "rent_type": "整租",
    "location": "浦东-花木-四季全景台",
    "scraped_at": "2026-04-23 00:29:21",
    "region": "huamu",
    "unit_price": 111.7,
    "lat": 31.211106,
    "lng": 121.553868
  },
  {
    "title": "整租·万邦都市花园 4室2厅 南",
    "community": "万邦都市花园",
    "area": "152.00",
    "rooms": "4室2厅",
    "direction": "南",
    "floor": "",
    "price": "16000",
    "tags": "",
    "source": "",
    "url": "https://sh.lianjia.com/zufang/SH2109874601449226240.html",
    "rent_type": "整租",
    "location": "浦东-花木-万邦都市花园",
    "scraped_at": "2026-04-23 00:29:21",
    "region": "huamu",
    "unit_price": 105.3,
    "lat": 31.20073,
    "lng": 121.553226
  },
  {
    "title": "整租·金桂小区 1室1厅 南",
    "community": "金桂小区",
    "area": "46.29",
    "rooms": "1室1厅",
    "direction": "南",
    "floor": "",
    "price": "4100",
    "tags": "",
    "source": "",
    "url": "https://sh.lianjia.com/zufang/SH2125935583506202624.html",
    "rent_type": "整租",
    "location": "浦东-花木-金桂小区",
    "scraped_at": "2026-04-23 00:29:21",
    "region": "huamu",
    "unit_price": 88.6,
    "lat": 31.207771,
    "lng": 121.549534
  },
  {
    "title": "整租·浦东世纪花园(公寓) 4室2厅 南",
    "community": "浦东世纪花园(公寓)",
    "area": "189.20",
    "rooms": "4室2厅",
    "direction": "南",
    "floor": "",
    "price": "21500",
    "tags": "",
    "source": "",
    "url": "https://sh.lianjia.com/zufang/SH2113207312024862720.html",
    "rent_type": "整租",
    "location": "浦东-花木-浦东世纪花园(公寓)",
    "scraped_at": "2026-04-23 00:29:21",
    "region": "huamu",
    "unit_price": 113.6,
    "lat": 31.211417,
    "lng": 121.558416
  },
  {
    "title": "整租·陆家嘴锦绣前城二期 3室2厅 南/北",
    "community": "陆家嘴锦绣前城二期",
    "area": "89.00",
    "rooms": "3室2厅",
    "direction": "南/北",
    "floor": "",
    "price": "10185",
    "tags": "",
    "source": "",
    "url": "https://sh.lianjia.com/zufang/SH1916380173838581760.html",
    "rent_type": "整租",
    "location": "浦东-花木-陆家嘴锦绣前城二期",
    "scraped_at": "2026-04-23 00:29:21",
    "region": "huamu",
    "unit_price": 114.4,
    "lat": 31.194391,
    "lng": 121.534816
  },
  {
    "title": "整租·兰花小区 1室1厅 南",
    "community": "兰花小区",
    "area": "38.06",
    "rooms": "1室1厅",
    "direction": "南",
    "floor": "",
    "price": "5250",
    "tags": "",
    "source": "",
    "url": "https://sh.lianjia.com/zufang/SH2025825992894840832.html",
    "rent_type": "整租",
    "location": "浦东-花木-兰花小区",
    "scraped_at": "2026-04-23 00:29:39",
    "region": "huamu",
    "unit_price": 137.9,
    "lat": 31.204856,
    "lng": 121.54741
  },
  {
    "title": "独栋·一品兰亭公寓 世纪公园店 世纪公园舒适优雅落地窗A1 1室1厅",
    "community": "一品兰亭公寓 世纪公园店 世纪公园舒适优雅落地窗A1",
    "area": "40.00",
    "rooms": "1室1厅",
    "direction": "",
    "floor": "",
    "price": "4500",
    "tags": "",
    "source": "",
    "url": "https://sh.lianjia.com/apartment/83397.html",
    "rent_type": "独栋",
    "location": "",
    "scraped_at": "2026-04-23 00:29:21",
    "region": "huamu",
    "unit_price": 112.5,
    "lat": 31.2173,
    "lng": 121.550768
  },
  {
    "title": "整租·瑞达苑 2室1厅 南",
    "community": "瑞达苑",
    "area": "80.96",
    "rooms": "2室1厅",
    "direction": "南",
    "floor": "",
    "price": "8800",
    "tags": "",
    "source": "",
    "url": "https://sh.lianjia.com/zufang/SH2114300366454521856.html",
    "rent_type": "整租",
    "location": "浦东-花木-瑞达苑",
    "scraped_at": "2026-04-23 00:29:21",
    "region": "huamu",
    "unit_price": 108.7,
    "lat": 31.207867,
    "lng": 121.542503
  },
  {
    "title": "整租·浦东世纪花园（二期） 4室2厅 北",
    "community": "浦东世纪花园（二期）",
    "area": "224.00",
    "rooms": "4室2厅",
    "direction": "北",
    "floor": "",
    "price": "30000",
    "tags": "",
    "source": "",
    "url": "https://sh.lianjia.com/zufang/SH2116856559085551616.html",
    "rent_type": "整租",
    "location": "浦东-花木-浦东世纪花园",
    "scraped_at": "2026-04-23 00:29:21",
    "region": "huamu",
    "unit_price": 133.9,
    "lat": 31.21191,
    "lng": 121.559357
  },
  {
    "title": "整租·万邦都市花园 2室1厅 南",
    "community": "万邦都市花园",
    "area": "75.78",
    "rooms": "2室1厅",
    "direction": "南",
    "floor": "",
    "price": "7500",
    "tags": "",
    "source": "",
    "url": "https://sh.lianjia.com/zufang/SH2151574144393674752.html",
    "rent_type": "整租",
    "location": "浦东-花木-万邦都市花园",
    "scraped_at": "2026-04-23 00:29:21",
    "region": "huamu",
    "unit_price": 99.0,
    "lat": 31.20073,
    "lng": 121.553226
  },
  {
    "title": "整租·大唐盛世花园（二期） 2室2厅 南",
    "community": "大唐盛世花园（二期）",
    "area": "96.00",
    "rooms": "2室2厅",
    "direction": "南",
    "floor": "",
    "price": "12000",
    "tags": "",
    "source": "",
    "url": "https://sh.lianjia.com/zufang/SH2151643673605963776.html",
    "rent_type": "整租",
    "location": "浦东-花木-大唐盛世花园",
    "scraped_at": "2026-04-23 00:29:21",
    "region": "huamu",
    "unit_price": 125.0,
    "lat": 31.209165,
    "lng": 121.559809
  },
  {
    "title": "整租·新领地 1室1厅 西",
    "community": "新领地",
    "area": "45.00",
    "rooms": "1室1厅",
    "direction": "西",
    "floor": "",
    "price": "4305",
    "tags": "",
    "source": "",
    "url": "https://sh.lianjia.com/zufang/SH1921466349326958592.html",
    "rent_type": "整租",
    "location": "浦东-花木-新领地",
    "scraped_at": "2026-04-23 00:29:23",
    "region": "huamu",
    "unit_price": 95.7,
    "lat": 31.202454,
    "lng": 121.550383
  },
  {
    "title": "整租·万邦都市花园 3室2厅 南",
    "community": "万邦都市花园",
    "area": "127.54",
    "rooms": "3室2厅",
    "direction": "南",
    "floor": "",
    "price": "11000",
    "tags": "",
    "source": "",
    "url": "https://sh.lianjia.com/zufang/SH2137529052720791552.html",
    "rent_type": "整租",
    "location": "浦东-花木-万邦都市花园",
    "scraped_at": "2026-04-23 00:29:27",
    "region": "huamu",
    "unit_price": 86.2,
    "lat": 31.20073,
    "lng": 121.553226
  },
  {
    "title": "整租·杏花新苑 2室1厅 南/北",
    "community": "杏花新苑",
    "area": "58.12",
    "rooms": "2室1厅",
    "direction": "南/北",
    "floor": "",
    "price": "5200",
    "tags": "",
    "source": "",
    "url": "https://sh.lianjia.com/zufang/SH2615774335742246912.html",
    "rent_type": "整租",
    "location": "浦东-花木-杏花新苑",
    "scraped_at": "2026-04-23 00:29:23",
    "region": "huamu",
    "unit_price": 89.5,
    "lat": 31.201163,
    "lng": 121.548185
  },
  {
    "title": "整租·万邦都市花园 1室1厅 南",
    "community": "万邦都市花园",
    "area": "52.19",
    "rooms": "1室1厅",
    "direction": "南",
    "floor": "",
    "price": "6130",
    "tags": "",
    "source": "",
    "url": "https://sh.lianjia.com/zufang/SH1971200022217228288.html",
    "rent_type": "整租",
    "location": "浦东-花木-万邦都市花园",
    "scraped_at": "2026-04-23 00:29:23",
    "region": "huamu",
    "unit_price": 117.5,
    "lat": 31.20073,
    "lng": 121.553226
  },
  {
    "title": "整租·金桂小区 2室1厅 南",
    "community": "金桂小区",
    "area": "66.00",
    "rooms": "2室1厅",
    "direction": "南",
    "floor": "",
    "price": "8505",
    "tags": "",
    "source": "",
    "url": "https://sh.lianjia.com/zufang/SH2153129903141158912.html",
    "rent_type": "整租",
    "location": "浦东-花木-金桂小区",
    "scraped_at": "2026-04-23 00:29:39",
    "region": "huamu",
    "unit_price": 128.9,
    "lat": 31.207771,
    "lng": 121.549534
  },
  {
    "title": "整租·万邦都市花园 1室1厅 南",
    "community": "万邦都市花园",
    "area": "57.73",
    "rooms": "1室1厅",
    "direction": "南",
    "floor": "",
    "price": "6560",
    "tags": "",
    "source": "",
    "url": "https://sh.lianjia.com/zufang/SH1929556476972498944.html",
    "rent_type": "整租",
    "location": "浦东-花木-万邦都市花园",
    "scraped_at": "2026-04-23 00:29:23",
    "region": "huamu",
    "unit_price": 113.6,
    "lat": 31.20073,
    "lng": 121.553226
  },
  {
    "title": "整租·新领地 1室1厅 北",
    "community": "新领地",
    "area": "46.73",
    "rooms": "1室1厅",
    "direction": "北",
    "floor": "",
    "price": "3675",
    "tags": "",
    "source": "",
    "url": "https://sh.lianjia.com/zufang/SH1883067122301534208.html",
    "rent_type": "整租",
    "location": "浦东-花木-新领地",
    "scraped_at": "2026-04-23 00:29:23",
    "region": "huamu",
    "unit_price": 78.6,
    "lat": 31.202454,
    "lng": 121.550383
  },
  {
    "title": "整租·陆家嘴锦绣前城二期 4室2厅 南",
    "community": "陆家嘴锦绣前城二期",
    "area": "186.84",
    "rooms": "4室2厅",
    "direction": "南",
    "floor": "",
    "price": "23800",
    "tags": "",
    "source": "",
    "url": "https://sh.lianjia.com/zufang/SH2137785776035856384.html",
    "rent_type": "整租",
    "location": "浦东-花木-陆家嘴锦绣前城二期",
    "scraped_at": "2026-04-23 00:29:27",
    "region": "huamu",
    "unit_price": 127.4,
    "lat": 31.194391,
    "lng": 121.534816
  },
  {
    "title": "整租·新领地 1室1厅 西",
    "community": "新领地",
    "area": "41.00",
    "rooms": "1室1厅",
    "direction": "西",
    "floor": "",
    "price": "4053",
    "tags": "",
    "source": "",
    "url": "https://sh.lianjia.com/zufang/SH2004912552730951680.html",
    "rent_type": "整租",
    "location": "浦东-花木-新领地",
    "scraped_at": "2026-04-23 00:29:39",
    "region": "huamu",
    "unit_price": 98.9,
    "lat": 31.202454,
    "lng": 121.550383
  },
  {
    "title": "整租·新领地 1室1厅 东",
    "community": "新领地",
    "area": "48.31",
    "rooms": "1室1厅",
    "direction": "东",
    "floor": "",
    "price": "4588",
    "tags": "",
    "source": "",
    "url": "https://sh.lianjia.com/zufang/SH2145896171837587456.html",
    "rent_type": "整租",
    "location": "浦东-花木-新领地",
    "scraped_at": "2026-04-23 00:29:23",
    "region": "huamu",
    "unit_price": 95.0,
    "lat": 31.202454,
    "lng": 121.550383
  },
  {
    "title": "整租·花木苑 2室1厅 南",
    "community": "花木苑",
    "area": "76.26",
    "rooms": "2室1厅",
    "direction": "南",
    "floor": "",
    "price": "6000",
    "tags": "",
    "source": "",
    "url": "https://sh.lianjia.com/zufang/SH1875456078569799680.html",
    "rent_type": "整租",
    "location": "浦东-花木-花木苑",
    "scraped_at": "2026-04-23 00:29:23",
    "region": "huamu",
    "unit_price": 78.7,
    "lat": 31.210128,
    "lng": 121.543377
  },
  {
    "title": "整租·新领地 1室1厅 西",
    "community": "新领地",
    "area": "48.31",
    "rooms": "1室1厅",
    "direction": "西",
    "floor": "",
    "price": "5429",
    "tags": "",
    "source": "",
    "url": "https://sh.lianjia.com/zufang/SH1908625128040693760.html",
    "rent_type": "整租",
    "location": "浦东-花木-新领地",
    "scraped_at": "2026-04-23 00:29:23",
    "region": "huamu",
    "unit_price": 112.4,
    "lat": 31.202454,
    "lng": 121.550383
  },
  {
    "title": "整租·新领地 1室0厅 南",
    "community": "新领地",
    "area": "45.00",
    "rooms": "1室0厅",
    "direction": "南",
    "floor": "",
    "price": "4000",
    "tags": "",
    "source": "",
    "url": "https://sh.lianjia.com/zufang/SH2144803992650121216.html",
    "rent_type": "整租",
    "location": "浦东-花木-新领地",
    "scraped_at": "2026-04-23 00:29:39",
    "region": "huamu",
    "unit_price": 88.9,
    "lat": 31.202454,
    "lng": 121.550383
  },
  {
    "title": "整租·兰花小区 2室1厅 南",
    "community": "兰花小区",
    "area": "73.48",
    "rooms": "2室1厅",
    "direction": "南",
    "floor": "",
    "price": "7153",
    "tags": "",
    "source": "",
    "url": "https://sh.lianjia.com/zufang/SH2141488030765023232.html",
    "rent_type": "整租",
    "location": "浦东-花木-兰花小区",
    "scraped_at": "2026-04-23 00:29:23",
    "region": "huamu",
    "unit_price": 97.3,
    "lat": 31.204856,
    "lng": 121.54741
  },
  {
    "title": "整租·花木苑 3室2厅 南",
    "community": "花木苑",
    "area": "94.99",
    "rooms": "3室2厅",
    "direction": "南",
    "floor": "",
    "price": "7560",
    "tags": "",
    "source": "",
    "url": "https://sh.lianjia.com/zufang/SH2005185553447780352.html",
    "rent_type": "整租",
    "location": "浦东-花木-花木苑",
    "scraped_at": "2026-04-23 00:29:39",
    "region": "huamu",
    "unit_price": 79.6,
    "lat": 31.210128,
    "lng": 121.543377
  },
  {
    "title": "整租·万邦都市花园 2室1厅 南",
    "community": "万邦都市花园",
    "area": "95.00",
    "rooms": "2室1厅",
    "direction": "南",
    "floor": "",
    "price": "10200",
    "tags": "",
    "source": "",
    "url": "https://sh.lianjia.com/zufang/SH2674604752544997376.html",
    "rent_type": "整租",
    "location": "浦东-花木-万邦都市花园",
    "scraped_at": "2026-04-23 00:29:23",
    "region": "huamu",
    "unit_price": 107.4,
    "lat": 31.20073,
    "lng": 121.553226
  },
  {
    "title": "整租·盛第大厦 1室1厅 北",
    "community": "盛第大厦",
    "area": "33.00",
    "rooms": "1室1厅",
    "direction": "北",
    "floor": "",
    "price": "3570",
    "tags": "",
    "source": "",
    "url": "https://sh.lianjia.com/zufang/SH2042198800415588352.html",
    "rent_type": "整租",
    "location": "浦东-花木-盛第大厦",
    "scraped_at": "2026-04-23 00:29:23",
    "region": "huamu",
    "unit_price": 108.2,
    "lat": 31.203205,
    "lng": 121.549764
  },
  {
    "title": "整租·古北御庭 3室2厅 南",
    "community": "古北御庭",
    "area": "122.29",
    "rooms": "3室2厅",
    "direction": "南",
    "floor": "",
    "price": "17000",
    "tags": "",
    "source": "",
    "url": "https://sh.lianjia.com/zufang/SH2137868372392542208.html",
    "rent_type": "整租",
    "location": "浦东-花木-古北御庭",
    "scraped_at": "2026-04-23 00:29:27",
    "region": "huamu",
    "unit_price": 139.0,
    "lat": 31.199132,
    "lng": 121.548933
  },
  {
    "title": "整租·盛第大厦 1室1厅 南",
    "community": "盛第大厦",
    "area": "21.00",
    "rooms": "1室1厅",
    "direction": "南",
    "floor": "",
    "price": "2900",
    "tags": "",
    "source": "",
    "url": "https://sh.lianjia.com/zufang/SH2026297801909993472.html",
    "rent_type": "整租",
    "location": "浦东-花木-盛第大厦",
    "scraped_at": "2026-04-23 00:29:23",
    "region": "huamu",
    "unit_price": 138.1,
    "lat": 31.203205,
    "lng": 121.549764
  },
  {
    "title": "整租·新领地 1室1厅 西",
    "community": "新领地",
    "area": "49.00",
    "rooms": "1室1厅",
    "direction": "西",
    "floor": "",
    "price": "5040",
    "tags": "",
    "source": "",
    "url": "https://sh.lianjia.com/zufang/SH1937145450184310784.html",
    "rent_type": "整租",
    "location": "浦东-花木-新领地",
    "scraped_at": "2026-04-23 00:29:23",
    "region": "huamu",
    "unit_price": 102.9,
    "lat": 31.202454,
    "lng": 121.550383
  },
  {
    "title": "整租·新领地 3室2厅 北",
    "community": "新领地",
    "area": "138.20",
    "rooms": "3室2厅",
    "direction": "北",
    "floor": "",
    "price": "11800",
    "tags": "",
    "source": "",
    "url": "https://sh.lianjia.com/zufang/SH2139012141800226816.html",
    "rent_type": "整租",
    "location": "浦东-花木-新领地",
    "scraped_at": "2026-04-23 00:29:27",
    "region": "huamu",
    "unit_price": 85.4,
    "lat": 31.202454,
    "lng": 121.550383
  },
  {
    "title": "整租·新领地 1室1厅 南",
    "community": "新领地",
    "area": "62.00",
    "rooms": "1室1厅",
    "direction": "南",
    "floor": "",
    "price": "4900",
    "tags": "",
    "source": "",
    "url": "https://sh.lianjia.com/zufang/SH2144807115343003648.html",
    "rent_type": "整租",
    "location": "浦东-花木-新领地",
    "scraped_at": "2026-04-23 00:29:39",
    "region": "huamu",
    "unit_price": 79.0,
    "lat": 31.202454,
    "lng": 121.550383
  },
  {
    "title": "整租·陆家嘴锦绣前城一期 1室1厅 南",
    "community": "陆家嘴锦绣前城一期",
    "area": "50.83",
    "rooms": "1室1厅",
    "direction": "南",
    "floor": "",
    "price": "7100",
    "tags": "",
    "source": "",
    "url": "https://sh.lianjia.com/zufang/SH2139944513056014336.html",
    "rent_type": "整租",
    "location": "浦东-花木-陆家嘴锦绣前城一期",
    "scraped_at": "2026-04-23 00:29:23",
    "region": "huamu",
    "unit_price": 139.7,
    "lat": 31.194391,
    "lng": 121.534816
  },
  {
    "title": "整租·陆家嘴锦绣前城二期 2室1厅 南",
    "community": "陆家嘴锦绣前城二期",
    "area": "83.21",
    "rooms": "2室1厅",
    "direction": "南",
    "floor": "",
    "price": "10700",
    "tags": "",
    "source": "",
    "url": "https://sh.lianjia.com/zufang/SH2147260132864557056.html",
    "rent_type": "整租",
    "location": "浦东-花木-陆家嘴锦绣前城二期",
    "scraped_at": "2026-04-23 00:29:23",
    "region": "huamu",
    "unit_price": 128.6,
    "lat": 31.194391,
    "lng": 121.534816
  },
  {
    "title": "整租·陆家嘴锦绣前城二期 3室2厅 南/北",
    "community": "陆家嘴锦绣前城二期",
    "area": "121.90",
    "rooms": "3室2厅",
    "direction": "南/北",
    "floor": "",
    "price": "13000",
    "tags": "",
    "source": "",
    "url": "https://sh.lianjia.com/zufang/SH2147700271017361408.html",
    "rent_type": "整租",
    "location": "浦东-花木-陆家嘴锦绣前城二期",
    "scraped_at": "2026-04-23 00:29:23",
    "region": "huamu",
    "unit_price": 106.6,
    "lat": 31.194391,
    "lng": 121.534816
  },
  {
    "title": "整租·大唐盛世花园（一期） 3室2厅 南/北",
    "community": "大唐盛世花园（一期）",
    "area": "125.03",
    "rooms": "3室2厅",
    "direction": "南/北",
    "floor": "",
    "price": "13500",
    "tags": "",
    "source": "",
    "url": "https://sh.lianjia.com/zufang/SH2145049140847968256.html",
    "rent_type": "整租",
    "location": "浦东-花木-大唐盛世花园",
    "scraped_at": "2026-04-23 00:29:23",
    "region": "huamu",
    "unit_price": 108.0,
    "lat": 31.208468,
    "lng": 121.556477
  },
  {
    "title": "整租·万邦都市花园 1室1厅 南",
    "community": "万邦都市花园",
    "area": "56.77",
    "rooms": "1室1厅",
    "direction": "南",
    "floor": "",
    "price": "6800",
    "tags": "",
    "source": "",
    "url": "https://sh.lianjia.com/zufang/SH2146078089002614784.html",
    "rent_type": "整租",
    "location": "浦东-花木-万邦都市花园",
    "scraped_at": "2026-04-23 00:29:23",
    "region": "huamu",
    "unit_price": 119.8,
    "lat": 31.20073,
    "lng": 121.553226
  },
  {
    "title": "整租·绿缘公寓 3室2厅 南",
    "community": "绿缘公寓",
    "area": "170.86",
    "rooms": "3室2厅",
    "direction": "南",
    "floor": "",
    "price": "14800",
    "tags": "",
    "source": "",
    "url": "https://sh.lianjia.com/zufang/SH2146162339852845056.html",
    "rent_type": "整租",
    "location": "浦东-花木-绿缘公寓",
    "scraped_at": "2026-04-23 00:29:23",
    "region": "huamu",
    "unit_price": 86.6,
    "lat": 31.209654,
    "lng": 121.548305
  },
  {
    "title": "整租·陆家嘴锦绣前城二期 2室1厅 东南",
    "community": "陆家嘴锦绣前城二期",
    "area": "83.00",
    "rooms": "2室1厅",
    "direction": "东南",
    "floor": "",
    "price": "11000",
    "tags": "",
    "source": "",
    "url": "https://sh.lianjia.com/zufang/SH2146272880973840384.html",
    "rent_type": "整租",
    "location": "浦东-花木-陆家嘴锦绣前城二期",
    "scraped_at": "2026-04-23 00:29:23",
    "region": "huamu",
    "unit_price": 132.5,
    "lat": 31.194391,
    "lng": 121.534816
  },
  {
    "title": "整租·万邦都市花园 3室2厅 南",
    "community": "万邦都市花园",
    "area": "127.30",
    "rooms": "3室2厅",
    "direction": "南",
    "floor": "",
    "price": "10500",
    "tags": "",
    "source": "",
    "url": "https://sh.lianjia.com/zufang/SH2145157291794497536.html",
    "rent_type": "整租",
    "location": "浦东-花木-万邦都市花园",
    "scraped_at": "2026-04-23 00:29:23",
    "region": "huamu",
    "unit_price": 82.5,
    "lat": 31.20073,
    "lng": 121.553226
  },
  {
    "title": "整租·花木苑 2室2厅 南",
    "community": "花木苑",
    "area": "74.23",
    "rooms": "2室2厅",
    "direction": "南",
    "floor": "",
    "price": "7000",
    "tags": "",
    "source": "",
    "url": "https://sh.lianjia.com/zufang/SH2155909159889928192.html",
    "rent_type": "整租",
    "location": "浦东-花木-花木苑",
    "scraped_at": "2026-04-23 00:29:27",
    "region": "huamu",
    "unit_price": 94.3,
    "lat": 31.210128,
    "lng": 121.543377
  },
  {
    "title": "整租·大唐盛世花园（一期） 3室2厅 南",
    "community": "大唐盛世花园（一期）",
    "area": "127.00",
    "rooms": "3室2厅",
    "direction": "南",
    "floor": "",
    "price": "13000",
    "tags": "",
    "source": "",
    "url": "https://sh.lianjia.com/zufang/SH2126586074481295360.html",
    "rent_type": "整租",
    "location": "浦东-花木-大唐盛世花园",
    "scraped_at": "2026-04-23 00:29:27",
    "region": "huamu",
    "unit_price": 102.4,
    "lat": 31.208468,
    "lng": 121.556477
  },
  {
    "title": "整租·新领地 3室2厅 东/北",
    "community": "新领地",
    "area": "125.40",
    "rooms": "3室2厅",
    "direction": "东/北",
    "floor": "",
    "price": "8700",
    "tags": "",
    "source": "",
    "url": "https://sh.lianjia.com/zufang/SH2130621559843323904.html",
    "rent_type": "整租",
    "location": "浦东-花木-新领地",
    "scraped_at": "2026-04-23 00:29:27",
    "region": "huamu",
    "unit_price": 69.4,
    "lat": 31.202454,
    "lng": 121.550383
  },
  {
    "title": "整租·牡丹小区(浦东) 3室1厅 南",
    "community": "牡丹小区(浦东)",
    "area": "98.89",
    "rooms": "3室1厅",
    "direction": "南",
    "floor": "",
    "price": "8800",
    "tags": "",
    "source": "",
    "url": "https://sh.lianjia.com/zufang/SH2137104601910870016.html",
    "rent_type": "整租",
    "location": "浦东-花木-牡丹小区(浦东)",
    "scraped_at": "2026-04-23 00:29:27",
    "region": "huamu",
    "unit_price": 89.0,
    "lat": 31.206839,
    "lng": 121.54532
  },
  {
    "title": "整租·新领地 2室1厅 南/北",
    "community": "新领地",
    "area": "94.21",
    "rooms": "2室1厅",
    "direction": "南/北",
    "floor": "",
    "price": "7500",
    "tags": "",
    "source": "",
    "url": "https://sh.lianjia.com/zufang/SH2157111391893323776.html",
    "rent_type": "整租",
    "location": "浦东-花木-新领地",
    "scraped_at": "2026-04-23 00:29:27",
    "region": "huamu",
    "unit_price": 79.6,
    "lat": 31.202454,
    "lng": 121.550383
  },
  {
    "title": "整租·浦东星河湾 4室2厅 南/北",
    "community": "浦东星河湾",
    "area": "286.86",
    "rooms": "4室2厅",
    "direction": "南/北",
    "floor": "",
    "price": "37000",
    "tags": "",
    "source": "",
    "url": "https://sh.lianjia.com/zufang/SH2124146214579470336.html",
    "rent_type": "整租",
    "location": "浦东-花木-浦东星河湾",
    "scraped_at": "2026-04-23 00:29:27",
    "region": "huamu",
    "unit_price": 129.0,
    "lat": 31.192484,
    "lng": 121.535903
  },
  {
    "title": "整租·陆家嘴锦绣前城二期 1室1厅 南",
    "community": "陆家嘴锦绣前城二期",
    "area": "50.98",
    "rooms": "1室1厅",
    "direction": "南",
    "floor": "",
    "price": "7200",
    "tags": "",
    "source": "",
    "url": "https://sh.lianjia.com/zufang/SH2144381094978387968.html",
    "rent_type": "整租",
    "location": "浦东-花木-陆家嘴锦绣前城二期",
    "scraped_at": "2026-04-23 00:29:27",
    "region": "huamu",
    "unit_price": 141.2,
    "lat": 31.194391,
    "lng": 121.534816
  },
  {
    "title": "整租·海桐苑 3室1厅 南",
    "community": "海桐苑",
    "area": "96.85",
    "rooms": "3室1厅",
    "direction": "南",
    "floor": "",
    "price": "8500",
    "tags": "",
    "source": "",
    "url": "https://sh.lianjia.com/zufang/SH2153765277462953984.html",
    "rent_type": "整租",
    "location": "浦东-花木-海桐苑",
    "scraped_at": "2026-04-23 00:29:27",
    "region": "huamu",
    "unit_price": 87.8,
    "lat": 31.204714,
    "lng": 121.550813
  },
  {
    "title": "整租·陆家嘴锦绣前城二期 2室2厅 南",
    "community": "陆家嘴锦绣前城二期",
    "area": "83.21",
    "rooms": "2室2厅",
    "direction": "南",
    "floor": "",
    "price": "11500",
    "tags": "",
    "source": "",
    "url": "https://sh.lianjia.com/zufang/SH2150469833353854976.html",
    "rent_type": "整租",
    "location": "浦东-花木-陆家嘴锦绣前城二期",
    "scraped_at": "2026-04-23 00:29:27",
    "region": "huamu",
    "unit_price": 138.2,
    "lat": 31.194391,
    "lng": 121.534816
  },
  {
    "title": "整租·玉兰路99弄 2室1厅 南/北",
    "community": "玉兰路99弄",
    "area": "62.84",
    "rooms": "2室1厅",
    "direction": "南/北",
    "floor": "",
    "price": "5500",
    "tags": "",
    "source": "",
    "url": "https://sh.lianjia.com/zufang/SH2149877261937934336.html",
    "rent_type": "整租",
    "location": "浦东-花木-玉兰路",
    "scraped_at": "2026-04-23 00:29:27",
    "region": "huamu",
    "unit_price": 87.5,
    "lat": 31.204422,
    "lng": 121.548411
  },
  {
    "title": "整租·陆家嘴锦绣前城二期 2室2厅 南",
    "community": "陆家嘴锦绣前城二期",
    "area": "83.41",
    "rooms": "2室2厅",
    "direction": "南",
    "floor": "",
    "price": "11000",
    "tags": "",
    "source": "",
    "url": "https://sh.lianjia.com/zufang/SH2141844625004953600.html",
    "rent_type": "整租",
    "location": "浦东-花木-陆家嘴锦绣前城二期",
    "scraped_at": "2026-04-23 00:29:27",
    "region": "huamu",
    "unit_price": 131.9,
    "lat": 31.194391,
    "lng": 121.534816
  },
  {
    "title": "整租·金桂小区 3室1厅 南",
    "community": "金桂小区",
    "area": "88.24",
    "rooms": "3室1厅",
    "direction": "南",
    "floor": "",
    "price": "8900",
    "tags": "",
    "source": "",
    "url": "https://sh.lianjia.com/zufang/SH2139448078640349184.html",
    "rent_type": "整租",
    "location": "浦东-花木-金桂小区",
    "scraped_at": "2026-04-23 00:29:27",
    "region": "huamu",
    "unit_price": 100.9,
    "lat": 31.207771,
    "lng": 121.549534
  },
  {
    "title": "整租·绿缘公寓 3室2厅 南",
    "community": "绿缘公寓",
    "area": "170.00",
    "rooms": "3室2厅",
    "direction": "南",
    "floor": "",
    "price": "13800",
    "tags": "",
    "source": "",
    "url": "https://sh.lianjia.com/zufang/SH2125929115298037760.html",
    "rent_type": "整租",
    "location": "浦东-花木-绿缘公寓",
    "scraped_at": "2026-04-23 00:29:27",
    "region": "huamu",
    "unit_price": 81.2,
    "lat": 31.209654,
    "lng": 121.548305
  },
  {
    "title": "整租·瑞达苑 2室1厅 南",
    "community": "瑞达苑",
    "area": "80.96",
    "rooms": "2室1厅",
    "direction": "南",
    "floor": "",
    "price": "8800",
    "tags": "",
    "source": "",
    "url": "https://sh.lianjia.com/zufang/SH2149392652301238272.html",
    "rent_type": "整租",
    "location": "浦东-花木-瑞达苑",
    "scraped_at": "2026-04-23 00:29:27",
    "region": "huamu",
    "unit_price": 108.7,
    "lat": 31.207867,
    "lng": 121.542503
  },
  {
    "title": "整租·锦绣前程阳光苑 2室2厅 南/北",
    "community": "锦绣前程阳光苑",
    "area": "115.85",
    "rooms": "2室2厅",
    "direction": "南/北",
    "floor": "",
    "price": "12000",
    "tags": "",
    "source": "",
    "url": "https://sh.lianjia.com/zufang/SH2144051416526749696.html",
    "rent_type": "整租",
    "location": "浦东-花木-锦绣前程阳光苑",
    "scraped_at": "2026-04-23 00:29:27",
    "region": "huamu",
    "unit_price": 103.6,
    "lat": 31.201379,
    "lng": 121.547096
  },
  {
    "title": "整租·万邦都市花园 2室1厅 南",
    "community": "万邦都市花园",
    "area": "75.78",
    "rooms": "2室1厅",
    "direction": "南",
    "floor": "",
    "price": "8300",
    "tags": "",
    "source": "",
    "url": "https://sh.lianjia.com/zufang/SH2147303036798631936.html",
    "rent_type": "整租",
    "location": "浦东-花木-万邦都市花园",
    "scraped_at": "2026-04-23 00:29:27",
    "region": "huamu",
    "unit_price": 109.5,
    "lat": 31.20073,
    "lng": 121.553226
  },
  {
    "title": "整租·四季全景台 1室1厅 北",
    "community": "四季全景台",
    "area": "50.09",
    "rooms": "1室1厅",
    "direction": "北",
    "floor": "",
    "price": "7500",
    "tags": "",
    "source": "",
    "url": "https://sh.lianjia.com/zufang/SH2150542517236400128.html",
    "rent_type": "整租",
    "location": "浦东-花木-四季全景台",
    "scraped_at": "2026-04-23 00:29:27",
    "region": "huamu",
    "unit_price": 149.7,
    "lat": 31.211106,
    "lng": 121.553868
  },
  {
    "title": "整租·海桐苑 3室2厅 南",
    "community": "海桐苑",
    "area": "106.28",
    "rooms": "3室2厅",
    "direction": "南",
    "floor": "",
    "price": "9200",
    "tags": "",
    "source": "",
    "url": "https://sh.lianjia.com/zufang/SH2124088852346830848.html",
    "rent_type": "整租",
    "location": "浦东-花木-海桐苑",
    "scraped_at": "2026-04-23 00:29:27",
    "region": "huamu",
    "unit_price": 86.6,
    "lat": 31.204714,
    "lng": 121.550813
  },
  {
    "title": "整租·玉兰路46弄 3室1厅 南",
    "community": "玉兰路46弄",
    "area": "83.00",
    "rooms": "3室1厅",
    "direction": "南",
    "floor": "",
    "price": "8300",
    "tags": "",
    "source": "",
    "url": "https://sh.lianjia.com/zufang/SH2145840556431900672.html",
    "rent_type": "整租",
    "location": "浦东-花木-玉兰路",
    "scraped_at": "2026-04-23 00:29:27",
    "region": "huamu",
    "unit_price": 100.0,
    "lat": 31.20374,
    "lng": 121.549326
  },
  {
    "title": "整租·浦东星河湾 4室2厅 错层 南",
    "community": "浦东星河湾",
    "area": "244.95",
    "rooms": "4室2厅",
    "direction": "",
    "floor": "",
    "price": "38000",
    "tags": "",
    "source": "",
    "url": "https://sh.lianjia.com/zufang/SH2127281265198497792.html",
    "rent_type": "整租",
    "location": "浦东-花木-浦东星河湾",
    "scraped_at": "2026-04-23 00:29:27",
    "region": "huamu",
    "unit_price": 155.1,
    "lat": 31.192484,
    "lng": 121.535903
  },
  {
    "title": "整租·牡丹路399弄 2室1厅 南",
    "community": "牡丹路399弄",
    "area": "71.75",
    "rooms": "2室1厅",
    "direction": "南",
    "floor": "",
    "price": "9200",
    "tags": "",
    "source": "",
    "url": "https://sh.lianjia.com/zufang/SH2156737827906256896.html",
    "rent_type": "整租",
    "location": "浦东-花木-牡丹路",
    "scraped_at": "2026-04-23 00:29:27",
    "region": "huamu",
    "unit_price": 128.2,
    "lat": 31.208937,
    "lng": 121.552139
  },
  {
    "title": "整租·大唐盛世花园(三期) 2室2厅 南",
    "community": "大唐盛世花园(三期)",
    "area": "103.98",
    "rooms": "2室2厅",
    "direction": "南",
    "floor": "",
    "price": "13000",
    "tags": "",
    "source": "",
    "url": "https://sh.lianjia.com/zufang/SH2147545681722605568.html",
    "rent_type": "整租",
    "location": "浦东-花木-大唐盛世花园(三期)",
    "scraped_at": "2026-04-23 00:29:27",
    "region": "huamu",
    "unit_price": 125.0,
    "lat": 31.207368,
    "lng": 121.56092
  },
  {
    "title": "整租·陆家嘴锦绣前城二期 4室2厅 南/北",
    "community": "陆家嘴锦绣前城二期",
    "area": "187.84",
    "rooms": "4室2厅",
    "direction": "南/北",
    "floor": "",
    "price": "24800",
    "tags": "",
    "source": "",
    "url": "https://sh.lianjia.com/zufang/SH2107316289482522624.html",
    "rent_type": "整租",
    "location": "浦东-花木-陆家嘴锦绣前城二期",
    "scraped_at": "2026-04-23 00:29:27",
    "region": "huamu",
    "unit_price": 132.0,
    "lat": 31.194391,
    "lng": 121.534816
  },
  {
    "title": "整租·陆家嘴锦绣前城一期 2室2厅 南/北",
    "community": "陆家嘴锦绣前城一期",
    "area": "83.41",
    "rooms": "2室2厅",
    "direction": "南/北",
    "floor": "",
    "price": "11500",
    "tags": "",
    "source": "",
    "url": "https://sh.lianjia.com/zufang/SH2153746927223570432.html",
    "rent_type": "整租",
    "location": "浦东-花木-陆家嘴锦绣前城一期",
    "scraped_at": "2026-04-23 00:29:27",
    "region": "huamu",
    "unit_price": 137.9,
    "lat": 31.194391,
    "lng": 121.534816
  },
  {
    "title": "整租·陆家嘴锦绣前城二期 3室2厅 南/北",
    "community": "陆家嘴锦绣前城二期",
    "area": "88.76",
    "rooms": "3室2厅",
    "direction": "南/北",
    "floor": "",
    "price": "11500",
    "tags": "",
    "source": "",
    "url": "https://sh.lianjia.com/zufang/SH2112477065503571968.html",
    "rent_type": "整租",
    "location": "浦东-花木-陆家嘴锦绣前城二期",
    "scraped_at": "2026-04-23 00:29:30",
    "region": "huamu",
    "unit_price": 129.6,
    "lat": 31.194391,
    "lng": 121.534816
  },
  {
    "title": "整租·海桐苑 3室2厅 南",
    "community": "海桐苑",
    "area": "106.28",
    "rooms": "3室2厅",
    "direction": "南",
    "floor": "",
    "price": "9000",
    "tags": "",
    "source": "",
    "url": "https://sh.lianjia.com/zufang/SH2090797840241524736.html",
    "rent_type": "整租",
    "location": "浦东-花木-海桐苑",
    "scraped_at": "2026-04-23 00:29:30",
    "region": "huamu",
    "unit_price": 84.7,
    "lat": 31.204714,
    "lng": 121.550813
  },
  {
    "title": "整租·浦东世纪花园(公寓) 3室2厅 南/北",
    "community": "浦东世纪花园(公寓)",
    "area": "130.07",
    "rooms": "3室2厅",
    "direction": "南/北",
    "floor": "",
    "price": "15000",
    "tags": "",
    "source": "",
    "url": "https://sh.lianjia.com/zufang/SH2154085324253298688.html",
    "rent_type": "整租",
    "location": "浦东-花木-浦东世纪花园(公寓)",
    "scraped_at": "2026-04-23 00:29:30",
    "region": "huamu",
    "unit_price": 115.3,
    "lat": 31.211417,
    "lng": 121.558416
  },
  {
    "title": "整租·大唐盛世花园(三期) 2室2厅 南",
    "community": "大唐盛世花园(三期)",
    "area": "111.79",
    "rooms": "2室2厅",
    "direction": "南",
    "floor": "",
    "price": "12000",
    "tags": "",
    "source": "",
    "url": "https://sh.lianjia.com/zufang/SH2148626127835365376.html",
    "rent_type": "整租",
    "location": "浦东-花木-大唐盛世花园(三期)",
    "scraped_at": "2026-04-23 00:29:30",
    "region": "huamu",
    "unit_price": 107.3,
    "lat": 31.207368,
    "lng": 121.56092
  },
  {
    "title": "整租·万邦都市花园 3室2厅 南",
    "community": "万邦都市花园",
    "area": "108.11",
    "rooms": "3室2厅",
    "direction": "南",
    "floor": "",
    "price": "8500",
    "tags": "",
    "source": "",
    "url": "https://sh.lianjia.com/zufang/SH2112452515256598528.html",
    "rent_type": "整租",
    "location": "浦东-花木-万邦都市花园",
    "scraped_at": "2026-04-23 00:29:30",
    "region": "huamu",
    "unit_price": 78.6,
    "lat": 31.20073,
    "lng": 121.553226
  },
  {
    "title": "整租·万邦都市花园 3室2厅 南",
    "community": "万邦都市花园",
    "area": "123.51",
    "rooms": "3室2厅",
    "direction": "南",
    "floor": "",
    "price": "12000",
    "tags": "",
    "source": "",
    "url": "https://sh.lianjia.com/zufang/SH2114578130046812160.html",
    "rent_type": "整租",
    "location": "浦东-花木-万邦都市花园",
    "scraped_at": "2026-04-23 00:29:30",
    "region": "huamu",
    "unit_price": 97.2,
    "lat": 31.20073,
    "lng": 121.553226
  },
  {
    "title": "整租·浦东星河湾 4室3厅 南",
    "community": "浦东星河湾",
    "area": "356.00",
    "rooms": "4室3厅",
    "direction": "南",
    "floor": "",
    "price": "55000",
    "tags": "",
    "source": "",
    "url": "https://sh.lianjia.com/zufang/SH2099115308001263616.html",
    "rent_type": "整租",
    "location": "浦东-花木-浦东星河湾",
    "scraped_at": "2026-04-23 00:29:30",
    "region": "huamu",
    "unit_price": 154.5,
    "lat": 31.192484,
    "lng": 121.535903
  },
  {
    "title": "整租·陆家嘴锦绣前城二期 3室2厅 南/北",
    "community": "陆家嘴锦绣前城二期",
    "area": "122.56",
    "rooms": "3室2厅",
    "direction": "南/北",
    "floor": "",
    "price": "15500",
    "tags": "",
    "source": "",
    "url": "https://sh.lianjia.com/zufang/SH2147570970003505152.html",
    "rent_type": "整租",
    "location": "浦东-花木-陆家嘴锦绣前城二期",
    "scraped_at": "2026-04-23 00:29:30",
    "region": "huamu",
    "unit_price": 126.5,
    "lat": 31.194391,
    "lng": 121.534816
  },
  {
    "title": "整租·建华钻石公寓 4室2厅 南/北",
    "community": "建华钻石公寓",
    "area": "165.74",
    "rooms": "4室2厅",
    "direction": "南/北",
    "floor": "",
    "price": "17000",
    "tags": "",
    "source": "",
    "url": "https://sh.lianjia.com/zufang/SH2054574159320580096.html",
    "rent_type": "整租",
    "location": "浦东-花木-建华钻石公寓",
    "scraped_at": "2026-04-23 00:29:30",
    "region": "huamu",
    "unit_price": 102.6,
    "lat": 31.209639,
    "lng": 121.551537
  },
  {
    "title": "整租·大唐盛世花园（二期） 4室2厅 南",
    "community": "大唐盛世花园（二期）",
    "area": "181.00",
    "rooms": "4室2厅",
    "direction": "南",
    "floor": "",
    "price": "19000",
    "tags": "",
    "source": "",
    "url": "https://sh.lianjia.com/zufang/SH2150545107399475200.html",
    "rent_type": "整租",
    "location": "浦东-花木-大唐盛世花园",
    "scraped_at": "2026-04-23 00:29:30",
    "region": "huamu",
    "unit_price": 105.0,
    "lat": 31.209165,
    "lng": 121.559809
  },
  {
    "title": "整租·万邦都市花园 3室2厅 南",
    "community": "万邦都市花园",
    "area": "133.00",
    "rooms": "3室2厅",
    "direction": "南",
    "floor": "",
    "price": "12000",
    "tags": "",
    "source": "",
    "url": "https://sh.lianjia.com/zufang/SH2144700142010236928.html",
    "rent_type": "整租",
    "location": "浦东-花木-万邦都市花园",
    "scraped_at": "2026-04-23 00:29:30",
    "region": "huamu",
    "unit_price": 90.2,
    "lat": 31.20073,
    "lng": 121.553226
  },
  {
    "title": "整租·大唐盛世花园（一期） 3室2厅 南",
    "community": "大唐盛世花园（一期）",
    "area": "143.54",
    "rooms": "3室2厅",
    "direction": "南",
    "floor": "",
    "price": "13800",
    "tags": "",
    "source": "",
    "url": "https://sh.lianjia.com/zufang/SH2150870314186178560.html",
    "rent_type": "整租",
    "location": "浦东-花木-大唐盛世花园",
    "scraped_at": "2026-04-23 00:29:30",
    "region": "huamu",
    "unit_price": 96.1,
    "lat": 31.208468,
    "lng": 121.556477
  },
  {
    "title": "整租·盛第大厦 1室1厅 北",
    "community": "盛第大厦",
    "area": "32.56",
    "rooms": "1室1厅",
    "direction": "北",
    "floor": "",
    "price": "3600",
    "tags": "",
    "source": "",
    "url": "https://sh.lianjia.com/zufang/SH2154076681902489600.html",
    "rent_type": "整租",
    "location": "浦东-花木-盛第大厦",
    "scraped_at": "2026-04-23 00:29:30",
    "region": "huamu",
    "unit_price": 110.6,
    "lat": 31.203205,
    "lng": 121.549764
  },
  {
    "title": "整租·瑞达苑 3室2厅 南/西南",
    "community": "瑞达苑",
    "area": "110.30",
    "rooms": "3室2厅",
    "direction": "南/西南",
    "floor": "",
    "price": "9500",
    "tags": "",
    "source": "",
    "url": "https://sh.lianjia.com/zufang/SH2140771484514123776.html",
    "rent_type": "整租",
    "location": "浦东-花木-瑞达苑",
    "scraped_at": "2026-04-23 00:29:30",
    "region": "huamu",
    "unit_price": 86.1,
    "lat": 31.207867,
    "lng": 121.542503
  },
  {
    "title": "整租·盛第大厦 1室0厅 北",
    "community": "盛第大厦",
    "area": "30.86",
    "rooms": "1室0厅",
    "direction": "北",
    "floor": "",
    "price": "3800",
    "tags": "",
    "source": "",
    "url": "https://sh.lianjia.com/zufang/SH2141768964462608384.html",
    "rent_type": "整租",
    "location": "浦东-花木-盛第大厦",
    "scraped_at": "2026-04-23 00:29:30",
    "region": "huamu",
    "unit_price": 123.1,
    "lat": 31.203205,
    "lng": 121.549764
  },
  {
    "title": "整租·花木苑 1室1厅 南",
    "community": "花木苑",
    "area": "50.97",
    "rooms": "1室1厅",
    "direction": "南",
    "floor": "",
    "price": "7000",
    "tags": "",
    "source": "",
    "url": "https://sh.lianjia.com/zufang/SH2153885283458744320.html",
    "rent_type": "整租",
    "location": "浦东-花木-花木苑",
    "scraped_at": "2026-04-23 00:29:30",
    "region": "huamu",
    "unit_price": 137.3,
    "lat": 31.210128,
    "lng": 121.543377
  },
  {
    "title": "整租·花木绿城锦绣兰庭 2室2厅 南/北",
    "community": "花木绿城锦绣兰庭",
    "area": "128.69",
    "rooms": "2室2厅",
    "direction": "南/北",
    "floor": "",
    "price": "22000",
    "tags": "",
    "source": "",
    "url": "https://sh.lianjia.com/zufang/SH2145912010791976960.html",
    "rent_type": "整租",
    "location": "浦东-花木-花木绿城锦绣兰庭",
    "scraped_at": "2026-04-23 00:29:30",
    "region": "huamu",
    "unit_price": 171.0,
    "lat": 31.203381,
    "lng": 121.546056
  },
  {
    "title": "整租·大唐盛世花园（一期） 2室2厅 南",
    "community": "大唐盛世花园（一期）",
    "area": "96.16",
    "rooms": "2室2厅",
    "direction": "南",
    "floor": "",
    "price": "13000",
    "tags": "",
    "source": "",
    "url": "https://sh.lianjia.com/zufang/SH2149465203564085248.html",
    "rent_type": "整租",
    "location": "浦东-花木-大唐盛世花园",
    "scraped_at": "2026-04-23 00:29:30",
    "region": "huamu",
    "unit_price": 135.2,
    "lat": 31.208468,
    "lng": 121.556477
  },
  {
    "title": "整租·万邦都市花园 3室2厅 南",
    "community": "万邦都市花园",
    "area": "134.89",
    "rooms": "3室2厅",
    "direction": "南",
    "floor": "",
    "price": "13500",
    "tags": "",
    "source": "",
    "url": "https://sh.lianjia.com/zufang/SH2155862371820634112.html",
    "rent_type": "整租",
    "location": "浦东-花木-万邦都市花园",
    "scraped_at": "2026-04-23 00:29:30",
    "region": "huamu",
    "unit_price": 100.1,
    "lat": 31.20073,
    "lng": 121.553226
  },
  {
    "title": "整租·花木绿城锦绣兰庭 3室2厅 南",
    "community": "花木绿城锦绣兰庭",
    "area": "147.00",
    "rooms": "3室2厅",
    "direction": "南",
    "floor": "",
    "price": "22000",
    "tags": "",
    "source": "",
    "url": "https://sh.lianjia.com/zufang/SH2153799090620596224.html",
    "rent_type": "整租",
    "location": "浦东-花木-花木绿城锦绣兰庭",
    "scraped_at": "2026-04-23 00:29:30",
    "region": "huamu",
    "unit_price": 149.7,
    "lat": 31.203381,
    "lng": 121.546056
  },
  {
    "title": "整租·金桂小区 2室1厅 南",
    "community": "金桂小区",
    "area": "66.05",
    "rooms": "2室1厅",
    "direction": "南",
    "floor": "",
    "price": "7000",
    "tags": "",
    "source": "",
    "url": "https://sh.lianjia.com/zufang/SH2128447910541524992.html",
    "rent_type": "整租",
    "location": "浦东-花木-金桂小区",
    "scraped_at": "2026-04-23 00:29:30",
    "region": "huamu",
    "unit_price": 106.0,
    "lat": 31.207771,
    "lng": 121.549534
  },
  {
    "title": "整租·金桂小区 2室1厅 南",
    "community": "金桂小区",
    "area": "66.05",
    "rooms": "2室1厅",
    "direction": "南",
    "floor": "",
    "price": "6500",
    "tags": "",
    "source": "",
    "url": "https://sh.lianjia.com/zufang/SH2148367261277093888.html",
    "rent_type": "整租",
    "location": "浦东-花木-金桂小区",
    "scraped_at": "2026-04-23 00:29:30",
    "region": "huamu",
    "unit_price": 98.4,
    "lat": 31.207771,
    "lng": 121.549534
  },
  {
    "title": "整租·花木苑 3室2厅 南/西南",
    "community": "花木苑",
    "area": "93.22",
    "rooms": "3室2厅",
    "direction": "南/西南",
    "floor": "",
    "price": "8700",
    "tags": "",
    "source": "",
    "url": "https://sh.lianjia.com/zufang/SH2153498443731959808.html",
    "rent_type": "整租",
    "location": "浦东-花木-花木苑",
    "scraped_at": "2026-04-23 00:29:30",
    "region": "huamu",
    "unit_price": 93.3,
    "lat": 31.210128,
    "lng": 121.543377
  },
  {
    "title": "整租·四季全景台 4室2厅 南",
    "community": "四季全景台",
    "area": "212.65",
    "rooms": "4室2厅",
    "direction": "南",
    "floor": "",
    "price": "31000",
    "tags": "",
    "source": "",
    "url": "https://sh.lianjia.com/zufang/SH2128370667416977408.html",
    "rent_type": "整租",
    "location": "浦东-花木-四季全景台",
    "scraped_at": "2026-04-23 00:29:30",
    "region": "huamu",
    "unit_price": 145.8,
    "lat": 31.211106,
    "lng": 121.553868
  },
  {
    "title": "整租·玉兰路81弄 1室1厅 南",
    "community": "玉兰路81弄",
    "area": "57.62",
    "rooms": "1室1厅",
    "direction": "南",
    "floor": "",
    "price": "6000",
    "tags": "",
    "source": "",
    "url": "https://sh.lianjia.com/zufang/SH2095913899839717376.html",
    "rent_type": "整租",
    "location": "浦东-花木-玉兰路",
    "scraped_at": "2026-04-23 00:29:30",
    "region": "huamu",
    "unit_price": 104.1,
    "lat": 31.203353,
    "lng": 121.548446
  },
  {
    "title": "整租·锦绣前程阳光苑 3室2厅 南",
    "community": "锦绣前程阳光苑",
    "area": "149.09",
    "rooms": "3室2厅",
    "direction": "南",
    "floor": "",
    "price": "14500",
    "tags": "",
    "source": "",
    "url": "https://sh.lianjia.com/zufang/SH2153408139708334080.html",
    "rent_type": "整租",
    "location": "浦东-花木-锦绣前程阳光苑",
    "scraped_at": "2026-04-23 00:29:30",
    "region": "huamu",
    "unit_price": 97.3,
    "lat": 31.201379,
    "lng": 121.547096
  },
  {
    "title": "整租·万邦都市花园 3室2厅 南/北",
    "community": "万邦都市花园",
    "area": "110.00",
    "rooms": "3室2厅",
    "direction": "南/北",
    "floor": "",
    "price": "11000",
    "tags": "",
    "source": "",
    "url": "https://sh.lianjia.com/zufang/SH2152967972455448576.html",
    "rent_type": "整租",
    "location": "浦东-花木-万邦都市花园",
    "scraped_at": "2026-04-23 00:29:30",
    "region": "huamu",
    "unit_price": 100.0,
    "lat": 31.20073,
    "lng": 121.553226
  },
  {
    "title": "整租·万邦都市花园 3室2厅 南",
    "community": "万邦都市花园",
    "area": "116.34",
    "rooms": "3室2厅",
    "direction": "南",
    "floor": "",
    "price": "13800",
    "tags": "",
    "source": "",
    "url": "https://sh.lianjia.com/zufang/SH2124000901000593408.html",
    "rent_type": "整租",
    "location": "浦东-花木-万邦都市花园",
    "scraped_at": "2026-04-23 00:29:30",
    "region": "huamu",
    "unit_price": 118.6,
    "lat": 31.20073,
    "lng": 121.553226
  },
  {
    "title": "整租·万邦都市花园 1室1厅 南",
    "community": "万邦都市花园",
    "area": "54.56",
    "rooms": "1室1厅",
    "direction": "南",
    "floor": "",
    "price": "7300",
    "tags": "",
    "source": "",
    "url": "https://sh.lianjia.com/zufang/SH2129530821390893056.html",
    "rent_type": "整租",
    "location": "浦东-花木-万邦都市花园",
    "scraped_at": "2026-04-23 00:29:30",
    "region": "huamu",
    "unit_price": 133.8,
    "lat": 31.20073,
    "lng": 121.553226
  },
  {
    "title": "整租·浦东星河湾 4室2厅 南",
    "community": "浦东星河湾",
    "area": "316.24",
    "rooms": "4室2厅",
    "direction": "南",
    "floor": "",
    "price": "48000",
    "tags": "",
    "source": "",
    "url": "https://sh.lianjia.com/zufang/SH2150161771413897216.html",
    "rent_type": "整租",
    "location": "浦东-花木-浦东星河湾",
    "scraped_at": "2026-04-23 00:29:30",
    "region": "huamu",
    "unit_price": 151.8,
    "lat": 31.192484,
    "lng": 121.535903
  },
  {
    "title": "整租·大唐盛世花园（二期） 2室2厅 南",
    "community": "大唐盛世花园（二期）",
    "area": "95.00",
    "rooms": "2室2厅",
    "direction": "南",
    "floor": "",
    "price": "11700",
    "tags": "",
    "source": "",
    "url": "https://sh.lianjia.com/zufang/SH2096042283735449600.html",
    "rent_type": "整租",
    "location": "浦东-花木-大唐盛世花园",
    "scraped_at": "2026-04-23 00:29:33",
    "region": "huamu",
    "unit_price": 123.2,
    "lat": 31.209165,
    "lng": 121.559809
  },
  {
    "title": "整租·建华新苑 3室2厅 南",
    "community": "建华新苑",
    "area": "129.86",
    "rooms": "3室2厅",
    "direction": "南",
    "floor": "",
    "price": "14000",
    "tags": "",
    "source": "",
    "url": "https://sh.lianjia.com/zufang/SH2114215133256351744.html",
    "rent_type": "整租",
    "location": "浦东-花木-建华新苑",
    "scraped_at": "2026-04-23 00:29:33",
    "region": "huamu",
    "unit_price": 107.8,
    "lat": 31.209843,
    "lng": 121.553716
  },
  {
    "title": "整租·古北御庭 3室2厅 南",
    "community": "古北御庭",
    "area": "122.30",
    "rooms": "3室2厅",
    "direction": "南",
    "floor": "",
    "price": "17000",
    "tags": "",
    "source": "",
    "url": "https://sh.lianjia.com/zufang/SH2142293665534443520.html",
    "rent_type": "整租",
    "location": "浦东-花木-古北御庭",
    "scraped_at": "2026-04-23 00:29:33",
    "region": "huamu",
    "unit_price": 139.0,
    "lat": 31.199132,
    "lng": 121.548933
  },
  {
    "title": "整租·银良公寓 2室1厅 东",
    "community": "银良公寓",
    "area": "77.00",
    "rooms": "2室1厅",
    "direction": "东",
    "floor": "",
    "price": "7800",
    "tags": "",
    "source": "",
    "url": "https://sh.lianjia.com/zufang/SH2157161234951045120.html",
    "rent_type": "整租",
    "location": "浦东-花木-银良公寓",
    "scraped_at": "2026-04-23 00:29:33",
    "region": "huamu",
    "unit_price": 101.3,
    "lat": 31.204151,
    "lng": 121.54933
  },
  {
    "title": "整租·万邦都市花园 3室2厅 南",
    "community": "万邦都市花园",
    "area": "109.36",
    "rooms": "3室2厅",
    "direction": "南",
    "floor": "",
    "price": "13500",
    "tags": "",
    "source": "",
    "url": "https://sh.lianjia.com/zufang/SH2142565938669551616.html",
    "rent_type": "整租",
    "location": "浦东-花木-万邦都市花园",
    "scraped_at": "2026-04-23 00:29:33",
    "region": "huamu",
    "unit_price": 123.4,
    "lat": 31.20073,
    "lng": 121.553226
  },
  {
    "title": "整租·瑞达新苑 2室2厅 南/北",
    "community": "瑞达新苑",
    "area": "105.04",
    "rooms": "2室2厅",
    "direction": "南/北",
    "floor": "",
    "price": "11000",
    "tags": "",
    "source": "",
    "url": "https://sh.lianjia.com/zufang/SH2150552059470938112.html",
    "rent_type": "整租",
    "location": "浦东-花木-瑞达新苑",
    "scraped_at": "2026-04-23 00:29:33",
    "region": "huamu",
    "unit_price": 104.7,
    "lat": 31.207376,
    "lng": 121.554569
  },
  {
    "title": "整租·陆家嘴锦绣前城一期 1室1厅 南",
    "community": "陆家嘴锦绣前城一期",
    "area": "50.83",
    "rooms": "1室1厅",
    "direction": "南",
    "floor": "",
    "price": "7300",
    "tags": "",
    "source": "",
    "url": "https://sh.lianjia.com/zufang/SH2093894719170936832.html",
    "rent_type": "整租",
    "location": "浦东-花木-陆家嘴锦绣前城一期",
    "scraped_at": "2026-04-23 00:29:33",
    "region": "huamu",
    "unit_price": 143.6,
    "lat": 31.194391,
    "lng": 121.534816
  },
  {
    "title": "整租·万邦都市花园 3室2厅 南/北",
    "community": "万邦都市花园",
    "area": "127.00",
    "rooms": "3室2厅",
    "direction": "南/北",
    "floor": "",
    "price": "11800",
    "tags": "",
    "source": "",
    "url": "https://sh.lianjia.com/zufang/SH2148079182838497280.html",
    "rent_type": "整租",
    "location": "浦东-花木-万邦都市花园",
    "scraped_at": "2026-04-23 00:29:33",
    "region": "huamu",
    "unit_price": 92.9,
    "lat": 31.20073,
    "lng": 121.553226
  },
  {
    "title": "整租·大唐盛世花园（一期） 3室2厅 南",
    "community": "大唐盛世花园（一期）",
    "area": "143.19",
    "rooms": "3室2厅",
    "direction": "南",
    "floor": "",
    "price": "14600",
    "tags": "",
    "source": "",
    "url": "https://sh.lianjia.com/zufang/SH2121225211280883712.html",
    "rent_type": "整租",
    "location": "浦东-花木-大唐盛世花园",
    "scraped_at": "2026-04-23 00:29:33",
    "region": "huamu",
    "unit_price": 102.0,
    "lat": 31.208468,
    "lng": 121.556477
  },
  {
    "title": "整租·浦东世纪花园（二期） 4室2厅 南",
    "community": "浦东世纪花园（二期）",
    "area": "224.00",
    "rooms": "4室2厅",
    "direction": "南",
    "floor": "",
    "price": "32000",
    "tags": "",
    "source": "",
    "url": "https://sh.lianjia.com/zufang/SH2152971535361507328.html",
    "rent_type": "整租",
    "location": "浦东-花木-浦东世纪花园",
    "scraped_at": "2026-04-23 00:29:33",
    "region": "huamu",
    "unit_price": 142.9,
    "lat": 31.21191,
    "lng": 121.559357
  },
  {
    "title": "整租·花木苑 3室2厅 南",
    "community": "花木苑",
    "area": "93.00",
    "rooms": "3室2厅",
    "direction": "南",
    "floor": "",
    "price": "7800",
    "tags": "",
    "source": "",
    "url": "https://sh.lianjia.com/zufang/SH2140476514485927936.html",
    "rent_type": "整租",
    "location": "浦东-花木-花木苑",
    "scraped_at": "2026-04-23 00:29:33",
    "region": "huamu",
    "unit_price": 83.9,
    "lat": 31.210128,
    "lng": 121.543377
  },
  {
    "title": "整租·花木鑫丰苑 3室1厅 南",
    "community": "花木鑫丰苑",
    "area": "98.12",
    "rooms": "3室1厅",
    "direction": "南",
    "floor": "",
    "price": "9200",
    "tags": "",
    "source": "",
    "url": "https://sh.lianjia.com/zufang/SH2138864063445204992.html",
    "rent_type": "整租",
    "location": "浦东-花木-花木鑫丰苑",
    "scraped_at": "2026-04-23 00:29:33",
    "region": "huamu",
    "unit_price": 93.8,
    "lat": 31.207075,
    "lng": 121.552977
  },
  {
    "title": "整租·玉兰路71弄 1室1厅 南",
    "community": "玉兰路71弄",
    "area": "38.00",
    "rooms": "1室1厅",
    "direction": "南",
    "floor": "",
    "price": "5000",
    "tags": "",
    "source": "",
    "url": "https://sh.lianjia.com/zufang/SH2146544136025538560.html",
    "rent_type": "整租",
    "location": "浦东-花木-玉兰路",
    "scraped_at": "2026-04-23 00:29:33",
    "region": "huamu",
    "unit_price": 131.6,
    "lat": 31.203767,
    "lng": 121.548431
  },
  {
    "title": "整租·牡丹路399弄 1室1厅 南",
    "community": "牡丹路399弄",
    "area": "55.00",
    "rooms": "1室1厅",
    "direction": "南",
    "floor": "",
    "price": "5500",
    "tags": "",
    "source": "",
    "url": "https://sh.lianjia.com/zufang/SH2152742160925982720.html",
    "rent_type": "整租",
    "location": "浦东-花木-牡丹路",
    "scraped_at": "2026-04-23 00:29:33",
    "region": "huamu",
    "unit_price": 100.0,
    "lat": 31.208937,
    "lng": 121.552139
  },
  {
    "title": "整租·万邦都市花园 1室1厅 南",
    "community": "万邦都市花园",
    "area": "54.70",
    "rooms": "1室1厅",
    "direction": "南",
    "floor": "",
    "price": "6500",
    "tags": "",
    "source": "",
    "url": "https://sh.lianjia.com/zufang/SH2127769960733212672.html",
    "rent_type": "整租",
    "location": "浦东-花木-万邦都市花园",
    "scraped_at": "2026-04-23 00:29:33",
    "region": "huamu",
    "unit_price": 118.8,
    "lat": 31.20073,
    "lng": 121.553226
  },
  {
    "title": "整租·建华公寓 3室2厅 南/北",
    "community": "建华公寓",
    "area": "103.68",
    "rooms": "3室2厅",
    "direction": "南/北",
    "floor": "",
    "price": "9300",
    "tags": "",
    "source": "",
    "url": "https://sh.lianjia.com/zufang/SH2099824423702888448.html",
    "rent_type": "整租",
    "location": "浦东-花木-建华公寓",
    "scraped_at": "2026-04-23 00:29:33",
    "region": "huamu",
    "unit_price": 89.7,
    "lat": 31.209507,
    "lng": 121.550354
  },
  {
    "title": "整租·六街坊小区 3室1厅 南",
    "community": "六街坊小区",
    "area": "83.00",
    "rooms": "3室1厅",
    "direction": "南",
    "floor": "",
    "price": "8500",
    "tags": "",
    "source": "",
    "url": "https://sh.lianjia.com/zufang/SH2148644777078292480.html",
    "rent_type": "整租",
    "location": "浦东-花木-六街坊小区",
    "scraped_at": "2026-04-23 00:29:33",
    "region": "huamu",
    "unit_price": 102.4,
    "lat": 31.20863,
    "lng": 121.554057
  },
  {
    "title": "整租·牡丹小区(浦东) 1室1厅 南",
    "community": "牡丹小区(浦东)",
    "area": "51.30",
    "rooms": "1室1厅",
    "direction": "南",
    "floor": "",
    "price": "5500",
    "tags": "",
    "source": "",
    "url": "https://sh.lianjia.com/zufang/SH2037438268827500544.html",
    "rent_type": "整租",
    "location": "浦东-花木-牡丹小区(浦东)",
    "scraped_at": "2026-04-23 00:29:33",
    "region": "huamu",
    "unit_price": 107.2,
    "lat": 31.206839,
    "lng": 121.54532
  },
  {
    "title": "整租·浦东世纪花园(公寓) 3室2厅 南",
    "community": "浦东世纪花园(公寓)",
    "area": "145.72",
    "rooms": "3室2厅",
    "direction": "南",
    "floor": "",
    "price": "17000",
    "tags": "",
    "source": "",
    "url": "https://sh.lianjia.com/zufang/SH2085671080667643904.html",
    "rent_type": "整租",
    "location": "浦东-花木-浦东世纪花园(公寓)",
    "scraped_at": "2026-04-23 00:29:33",
    "region": "huamu",
    "unit_price": 116.7,
    "lat": 31.211417,
    "lng": 121.558416
  },
  {
    "title": "整租·建华公寓 3室2厅 南",
    "community": "建华公寓",
    "area": "124.75",
    "rooms": "3室2厅",
    "direction": "南",
    "floor": "",
    "price": "12000",
    "tags": "",
    "source": "",
    "url": "https://sh.lianjia.com/zufang/SH2141876898462957568.html",
    "rent_type": "整租",
    "location": "浦东-花木-建华公寓",
    "scraped_at": "2026-04-23 00:29:33",
    "region": "huamu",
    "unit_price": 96.2,
    "lat": 31.209507,
    "lng": 121.550354
  },
  {
    "title": "整租·大唐盛世花园（二期） 2室2厅 南",
    "community": "大唐盛世花园（二期）",
    "area": "100.00",
    "rooms": "2室2厅",
    "direction": "南",
    "floor": "",
    "price": "18800",
    "tags": "",
    "source": "",
    "url": "https://sh.lianjia.com/zufang/SH2143206104518098944.html",
    "rent_type": "整租",
    "location": "浦东-花木-大唐盛世花园",
    "scraped_at": "2026-04-23 00:29:33",
    "region": "huamu",
    "unit_price": 188.0,
    "lat": 31.209165,
    "lng": 121.559809
  },
  {
    "title": "整租·樱花坊 2室2厅 南/北",
    "community": "樱花坊",
    "area": "77.64",
    "rooms": "2室2厅",
    "direction": "南/北",
    "floor": "",
    "price": "7700",
    "tags": "",
    "source": "",
    "url": "https://sh.lianjia.com/zufang/SH2088863954259410944.html",
    "rent_type": "整租",
    "location": "浦东-花木-樱花坊",
    "scraped_at": "2026-04-23 00:29:33",
    "region": "huamu",
    "unit_price": 99.2,
    "lat": 31.207761,
    "lng": 121.552434
  },
  {
    "title": "整租·海桐小区 2室2厅 南",
    "community": "海桐小区",
    "area": "71.18",
    "rooms": "2室2厅",
    "direction": "南",
    "floor": "",
    "price": "12000",
    "tags": "",
    "source": "",
    "url": "https://sh.lianjia.com/zufang/SH2132046270414454784.html",
    "rent_type": "整租",
    "location": "浦东-花木-海桐小区",
    "scraped_at": "2026-04-23 00:29:33",
    "region": "huamu",
    "unit_price": 168.6,
    "lat": 31.204504,
    "lng": 121.553366
  },
  {
    "title": "整租·金桂小区 1室1厅 南",
    "community": "金桂小区",
    "area": "42.42",
    "rooms": "1室1厅",
    "direction": "南",
    "floor": "",
    "price": "5500",
    "tags": "",
    "source": "",
    "url": "https://sh.lianjia.com/zufang/SH2141818949677875200.html",
    "rent_type": "整租",
    "location": "浦东-花木-金桂小区",
    "scraped_at": "2026-04-23 00:29:33",
    "region": "huamu",
    "unit_price": 129.7,
    "lat": 31.207771,
    "lng": 121.549534
  },
  {
    "title": "整租·兰花小区 2室1厅 南",
    "community": "兰花小区",
    "area": "58.00",
    "rooms": "2室1厅",
    "direction": "南",
    "floor": "",
    "price": "5300",
    "tags": "",
    "source": "",
    "url": "https://sh.lianjia.com/zufang/SH2123402129577082880.html",
    "rent_type": "整租",
    "location": "浦东-花木-兰花小区",
    "scraped_at": "2026-04-23 00:29:33",
    "region": "huamu",
    "unit_price": 91.4,
    "lat": 31.204856,
    "lng": 121.54741
  },
  {
    "title": "整租·浦东星河湾 2室2厅 南",
    "community": "浦东星河湾",
    "area": "118.14",
    "rooms": "2室2厅",
    "direction": "南",
    "floor": "",
    "price": "21000",
    "tags": "",
    "source": "",
    "url": "https://sh.lianjia.com/zufang/SH2115775071262867456.html",
    "rent_type": "整租",
    "location": "浦东-花木-浦东星河湾",
    "scraped_at": "2026-04-23 00:29:33",
    "region": "huamu",
    "unit_price": 177.8,
    "lat": 31.192484,
    "lng": 121.535903
  },
  {
    "title": "整租·兰花小区 2室1厅 南",
    "community": "兰花小区",
    "area": "54.27",
    "rooms": "2室1厅",
    "direction": "南",
    "floor": "",
    "price": "6000",
    "tags": "",
    "source": "",
    "url": "https://sh.lianjia.com/zufang/SH2143978289293688832.html",
    "rent_type": "整租",
    "location": "浦东-花木-兰花小区",
    "scraped_at": "2026-04-23 00:29:33",
    "region": "huamu",
    "unit_price": 110.6,
    "lat": 31.204856,
    "lng": 121.54741
  },
  {
    "title": "整租·新领地 1室1厅 南",
    "community": "新领地",
    "area": "48.31",
    "rooms": "1室1厅",
    "direction": "南",
    "floor": "",
    "price": "5800",
    "tags": "",
    "source": "",
    "url": "https://sh.lianjia.com/zufang/SH2127675322206781440.html",
    "rent_type": "整租",
    "location": "浦东-花木-新领地",
    "scraped_at": "2026-04-23 00:29:33",
    "region": "huamu",
    "unit_price": 120.1,
    "lat": 31.202454,
    "lng": 121.550383
  },
  {
    "title": "整租·四季全景台 1室1厅 北",
    "community": "四季全景台",
    "area": "44.43",
    "rooms": "1室1厅",
    "direction": "北",
    "floor": "",
    "price": "8500",
    "tags": "",
    "source": "",
    "url": "https://sh.lianjia.com/zufang/SH2128338369208385536.html",
    "rent_type": "整租",
    "location": "浦东-花木-四季全景台",
    "scraped_at": "2026-04-23 00:29:33",
    "region": "huamu",
    "unit_price": 191.3,
    "lat": 31.211106,
    "lng": 121.553868
  },
  {
    "title": "整租·盛第大厦 1室1厅 南",
    "community": "盛第大厦",
    "area": "35.31",
    "rooms": "1室1厅",
    "direction": "南",
    "floor": "",
    "price": "3500",
    "tags": "",
    "source": "",
    "url": "https://sh.lianjia.com/zufang/SH2084111882892869632.html",
    "rent_type": "整租",
    "location": "浦东-花木-盛第大厦",
    "scraped_at": "2026-04-23 00:29:33",
    "region": "huamu",
    "unit_price": 99.1,
    "lat": 31.203205,
    "lng": 121.549764
  },
  {
    "title": "整租·兰花小区 1室1厅 南",
    "community": "兰花小区",
    "area": "38.06",
    "rooms": "1室1厅",
    "direction": "南",
    "floor": "",
    "price": "5300",
    "tags": "",
    "source": "",
    "url": "https://sh.lianjia.com/zufang/SH2128387388135702528.html",
    "rent_type": "整租",
    "location": "浦东-花木-兰花小区",
    "scraped_at": "2026-04-23 00:29:36",
    "region": "huamu",
    "unit_price": 139.3,
    "lat": 31.204856,
    "lng": 121.54741
  },
  {
    "title": "整租·金桂小区 1室1厅 南",
    "community": "金桂小区",
    "area": "40.84",
    "rooms": "1室1厅",
    "direction": "南",
    "floor": "",
    "price": "5700",
    "tags": "",
    "source": "",
    "url": "https://sh.lianjia.com/zufang/SH2137040619057446912.html",
    "rent_type": "整租",
    "location": "浦东-花木-金桂小区",
    "scraped_at": "2026-04-23 00:29:36",
    "region": "huamu",
    "unit_price": 139.6,
    "lat": 31.207771,
    "lng": 121.549534
  },
  {
    "title": "整租·浦东星河湾 2室2厅 南/北",
    "community": "浦东星河湾",
    "area": "109.00",
    "rooms": "2室2厅",
    "direction": "南/北",
    "floor": "",
    "price": "22000",
    "tags": "",
    "source": "",
    "url": "https://sh.lianjia.com/zufang/SH2057292326702678016.html",
    "rent_type": "整租",
    "location": "浦东-花木-浦东星河湾",
    "scraped_at": "2026-04-23 00:29:36",
    "region": "huamu",
    "unit_price": 201.8,
    "lat": 31.192484,
    "lng": 121.535903
  },
  {
    "title": "整租·建华公寓 1室1厅 南",
    "community": "建华公寓",
    "area": "51.38",
    "rooms": "1室1厅",
    "direction": "南",
    "floor": "",
    "price": "5300",
    "tags": "",
    "source": "",
    "url": "https://sh.lianjia.com/zufang/SH2120539725948256256.html",
    "rent_type": "整租",
    "location": "浦东-花木-建华公寓",
    "scraped_at": "2026-04-23 00:29:36",
    "region": "huamu",
    "unit_price": 103.2,
    "lat": 31.209507,
    "lng": 121.550354
  },
  {
    "title": "整租·万邦都市花园 1室1厅 南",
    "community": "万邦都市花园",
    "area": "40.99",
    "rooms": "1室1厅",
    "direction": "南",
    "floor": "",
    "price": "5900",
    "tags": "",
    "source": "",
    "url": "https://sh.lianjia.com/zufang/SH2139707944076312576.html",
    "rent_type": "整租",
    "location": "浦东-花木-万邦都市花园",
    "scraped_at": "2026-04-23 00:29:36",
    "region": "huamu",
    "unit_price": 143.9,
    "lat": 31.20073,
    "lng": 121.553226
  },
  {
    "title": "整租·金桂小区 3室2厅 南",
    "community": "金桂小区",
    "area": "96.75",
    "rooms": "3室2厅",
    "direction": "南",
    "floor": "",
    "price": "9350",
    "tags": "",
    "source": "",
    "url": "https://sh.lianjia.com/zufang/SH2149408314918699008.html",
    "rent_type": "整租",
    "location": "浦东-花木-金桂小区",
    "scraped_at": "2026-04-23 00:29:36",
    "region": "huamu",
    "unit_price": 96.6,
    "lat": 31.207771,
    "lng": 121.549534
  },
  {
    "title": "整租·大唐盛世花园(三期) 2室2厅 南",
    "community": "大唐盛世花园(三期)",
    "area": "99.34",
    "rooms": "2室2厅",
    "direction": "南",
    "floor": "",
    "price": "13000",
    "tags": "",
    "source": "",
    "url": "https://sh.lianjia.com/zufang/SH2156631464605646848.html",
    "rent_type": "整租",
    "location": "浦东-花木-大唐盛世花园(三期)",
    "scraped_at": "2026-04-23 00:29:36",
    "region": "huamu",
    "unit_price": 130.9,
    "lat": 31.207368,
    "lng": 121.56092
  },
  {
    "title": "整租·海桐苑 2室1厅 南",
    "community": "海桐苑",
    "area": "60.08",
    "rooms": "2室1厅",
    "direction": "南",
    "floor": "",
    "price": "6200",
    "tags": "",
    "source": "",
    "url": "https://sh.lianjia.com/zufang/SH2146535913113518080.html",
    "rent_type": "整租",
    "location": "浦东-花木-海桐苑",
    "scraped_at": "2026-04-23 00:29:36",
    "region": "huamu",
    "unit_price": 103.2,
    "lat": 31.204714,
    "lng": 121.550813
  },
  {
    "title": "整租·浦东世纪花园(公寓) 3室2厅 南/北",
    "community": "浦东世纪花园(公寓)",
    "area": "174.11",
    "rooms": "3室2厅",
    "direction": "南/北",
    "floor": "",
    "price": "19000",
    "tags": "",
    "source": "",
    "url": "https://sh.lianjia.com/zufang/SH2047557348959977472.html",
    "rent_type": "整租",
    "location": "浦东-花木-浦东世纪花园(公寓)",
    "scraped_at": "2026-04-23 00:29:36",
    "region": "huamu",
    "unit_price": 109.1,
    "lat": 31.211417,
    "lng": 121.558416
  },
  {
    "title": "整租·瑞达苑 3室2厅 南",
    "community": "瑞达苑",
    "area": "104.00",
    "rooms": "3室2厅",
    "direction": "南",
    "floor": "",
    "price": "8500",
    "tags": "",
    "source": "",
    "url": "https://sh.lianjia.com/zufang/SH2139561044484292608.html",
    "rent_type": "整租",
    "location": "浦东-花木-瑞达苑",
    "scraped_at": "2026-04-23 00:29:36",
    "region": "huamu",
    "unit_price": 81.7,
    "lat": 31.207867,
    "lng": 121.542503
  },
  {
    "title": "整租·玉兰路99弄 2室1厅 南",
    "community": "玉兰路99弄",
    "area": "63.94",
    "rooms": "2室1厅",
    "direction": "南",
    "floor": "",
    "price": "5100",
    "tags": "",
    "source": "",
    "url": "https://sh.lianjia.com/zufang/SH2152256620489342976.html",
    "rent_type": "整租",
    "location": "浦东-花木-玉兰路",
    "scraped_at": "2026-04-23 00:29:36",
    "region": "huamu",
    "unit_price": 79.8,
    "lat": 31.204422,
    "lng": 121.548411
  },
  {
    "title": "整租·建华公寓 3室2厅 南/北",
    "community": "建华公寓",
    "area": "124.00",
    "rooms": "3室2厅",
    "direction": "南/北",
    "floor": "",
    "price": "12000",
    "tags": "",
    "source": "",
    "url": "https://sh.lianjia.com/zufang/SH2145561903177400320.html",
    "rent_type": "整租",
    "location": "浦东-花木-建华公寓",
    "scraped_at": "2026-04-23 00:29:36",
    "region": "huamu",
    "unit_price": 96.8,
    "lat": 31.209507,
    "lng": 121.550354
  },
  {
    "title": "整租·金桂小区 3室2厅 南",
    "community": "金桂小区",
    "area": "95.90",
    "rooms": "3室2厅",
    "direction": "南",
    "floor": "",
    "price": "7800",
    "tags": "",
    "source": "",
    "url": "https://sh.lianjia.com/zufang/SH2139031954895405056.html",
    "rent_type": "整租",
    "location": "浦东-花木-金桂小区",
    "scraped_at": "2026-04-23 00:29:36",
    "region": "huamu",
    "unit_price": 81.3,
    "lat": 31.207771,
    "lng": 121.549534
  },
  {
    "title": "整租·建华公寓 3室2厅 南",
    "community": "建华公寓",
    "area": "144.58",
    "rooms": "3室2厅",
    "direction": "南",
    "floor": "",
    "price": "14000",
    "tags": "",
    "source": "",
    "url": "https://sh.lianjia.com/zufang/SH2033055462533890048.html",
    "rent_type": "整租",
    "location": "浦东-花木-建华公寓",
    "scraped_at": "2026-04-23 00:29:36",
    "region": "huamu",
    "unit_price": 96.8,
    "lat": 31.209507,
    "lng": 121.550354
  },
  {
    "title": "整租·樱花坊 2室2厅 南",
    "community": "樱花坊",
    "area": "77.49",
    "rooms": "2室2厅",
    "direction": "南",
    "floor": "",
    "price": "7500",
    "tags": "",
    "source": "",
    "url": "https://sh.lianjia.com/zufang/SH2075225282347794432.html",
    "rent_type": "整租",
    "location": "浦东-花木-樱花坊",
    "scraped_at": "2026-04-23 00:29:36",
    "region": "huamu",
    "unit_price": 96.8,
    "lat": 31.207761,
    "lng": 121.552434
  },
  {
    "title": "整租·建华新苑 3室2厅 南",
    "community": "建华新苑",
    "area": "120.00",
    "rooms": "3室2厅",
    "direction": "南",
    "floor": "",
    "price": "12800",
    "tags": "",
    "source": "",
    "url": "https://sh.lianjia.com/zufang/SH2000828374632628224.html",
    "rent_type": "整租",
    "location": "浦东-花木-建华新苑",
    "scraped_at": "2026-04-23 00:29:36",
    "region": "huamu",
    "unit_price": 106.7,
    "lat": 31.209843,
    "lng": 121.553716
  },
  {
    "title": "整租·杏花新苑 2室1厅 南",
    "community": "杏花新苑",
    "area": "56.90",
    "rooms": "2室1厅",
    "direction": "南",
    "floor": "",
    "price": "5200",
    "tags": "",
    "source": "",
    "url": "https://sh.lianjia.com/zufang/SH2143934925399654400.html",
    "rent_type": "整租",
    "location": "浦东-花木-杏花新苑",
    "scraped_at": "2026-04-23 00:29:36",
    "region": "huamu",
    "unit_price": 91.4,
    "lat": 31.201163,
    "lng": 121.548185
  },
  {
    "title": "整租·牡丹小区(浦东) 3室1厅 南",
    "community": "牡丹小区(浦东)",
    "area": "98.89",
    "rooms": "3室1厅",
    "direction": "南",
    "floor": "",
    "price": "11000",
    "tags": "",
    "source": "",
    "url": "https://sh.lianjia.com/zufang/SH2110686365317332992.html",
    "rent_type": "整租",
    "location": "浦东-花木-牡丹小区(浦东)",
    "scraped_at": "2026-04-23 00:29:36",
    "region": "huamu",
    "unit_price": 111.2,
    "lat": 31.206839,
    "lng": 121.54532
  },
  {
    "title": "整租·大唐盛世花园（二期） 4室2厅 南",
    "community": "大唐盛世花园（二期）",
    "area": "181.51",
    "rooms": "4室2厅",
    "direction": "南",
    "floor": "",
    "price": "17000",
    "tags": "",
    "source": "",
    "url": "https://sh.lianjia.com/zufang/SH1847228579687956480.html",
    "rent_type": "整租",
    "location": "浦东-花木-大唐盛世花园",
    "scraped_at": "2026-04-23 00:29:36",
    "region": "huamu",
    "unit_price": 93.7,
    "lat": 31.209165,
    "lng": 121.559809
  },
  {
    "title": "整租·维奇特大厦 1室1厅 南",
    "community": "维奇特大厦",
    "area": "37.17",
    "rooms": "1室1厅",
    "direction": "南",
    "floor": "",
    "price": "5500",
    "tags": "",
    "source": "",
    "url": "https://sh.lianjia.com/zufang/SH2154230570480041984.html",
    "rent_type": "整租",
    "location": "浦东-花木-维奇特大厦",
    "scraped_at": "2026-04-23 00:29:36",
    "region": "huamu",
    "unit_price": 148.0,
    "lat": 31.207277,
    "lng": 121.541302
  },
  {
    "title": "整租·盛第大厦 1室1厅 北",
    "community": "盛第大厦",
    "area": "30.84",
    "rooms": "1室1厅",
    "direction": "北",
    "floor": "",
    "price": "3800",
    "tags": "",
    "source": "",
    "url": "https://sh.lianjia.com/zufang/SH2125455985555275776.html",
    "rent_type": "整租",
    "location": "浦东-花木-盛第大厦",
    "scraped_at": "2026-04-23 00:29:36",
    "region": "huamu",
    "unit_price": 123.2,
    "lat": 31.203205,
    "lng": 121.549764
  },
  {
    "title": "整租·牡丹小区(浦东) 1室1厅 南",
    "community": "牡丹小区(浦东)",
    "area": "37.67",
    "rooms": "1室1厅",
    "direction": "南",
    "floor": "",
    "price": "5500",
    "tags": "",
    "source": "",
    "url": "https://sh.lianjia.com/zufang/SH2155301449959997440.html",
    "rent_type": "整租",
    "location": "浦东-花木-牡丹小区(浦东)",
    "scraped_at": "2026-04-23 00:29:36",
    "region": "huamu",
    "unit_price": 146.0,
    "lat": 31.206839,
    "lng": 121.54532
  },
  {
    "title": "整租·建华公寓 3室2厅 南",
    "community": "建华公寓",
    "area": "145.47",
    "rooms": "3室2厅",
    "direction": "南",
    "floor": "",
    "price": "15000",
    "tags": "",
    "source": "",
    "url": "https://sh.lianjia.com/zufang/SH2155695565277495296.html",
    "rent_type": "整租",
    "location": "浦东-花木-建华公寓",
    "scraped_at": "2026-04-23 00:29:36",
    "region": "huamu",
    "unit_price": 103.1,
    "lat": 31.209507,
    "lng": 121.550354
  },
  {
    "title": "整租·陆家嘴锦绣前城一期 3室2厅 南",
    "community": "陆家嘴锦绣前城一期",
    "area": "143.00",
    "rooms": "3室2厅",
    "direction": "南",
    "floor": "",
    "price": "18000",
    "tags": "",
    "source": "",
    "url": "https://sh.lianjia.com/zufang/SH2156992870815367168.html",
    "rent_type": "整租",
    "location": "浦东-花木-陆家嘴锦绣前城一期",
    "scraped_at": "2026-04-23 00:29:36",
    "region": "huamu",
    "unit_price": 125.9,
    "lat": 31.194391,
    "lng": 121.534816
  },
  {
    "title": "整租·陆家嘴锦绣前城二期 4室2厅 南",
    "community": "陆家嘴锦绣前城二期",
    "area": "143.14",
    "rooms": "4室2厅",
    "direction": "南",
    "floor": "",
    "price": "16000",
    "tags": "",
    "source": "",
    "url": "https://sh.lianjia.com/zufang/SH2150602540390023168.html",
    "rent_type": "整租",
    "location": "浦东-花木-陆家嘴锦绣前城二期",
    "scraped_at": "2026-04-23 00:29:36",
    "region": "huamu",
    "unit_price": 111.8,
    "lat": 31.194391,
    "lng": 121.534816
  },
  {
    "title": "整租·金桂小区 3室2厅 南",
    "community": "金桂小区",
    "area": "95.90",
    "rooms": "3室2厅",
    "direction": "南",
    "floor": "",
    "price": "8500",
    "tags": "",
    "source": "",
    "url": "https://sh.lianjia.com/zufang/SH2150984650799972352.html",
    "rent_type": "整租",
    "location": "浦东-花木-金桂小区",
    "scraped_at": "2026-04-23 00:29:36",
    "region": "huamu",
    "unit_price": 88.6,
    "lat": 31.207771,
    "lng": 121.549534
  },
  {
    "title": "整租·牡丹路399弄 2室1厅 南/北",
    "community": "牡丹路399弄",
    "area": "76.07",
    "rooms": "2室1厅",
    "direction": "南/北",
    "floor": "",
    "price": "6800",
    "tags": "",
    "source": "",
    "url": "https://sh.lianjia.com/zufang/SH2152336988479422464.html",
    "rent_type": "整租",
    "location": "浦东-花木-牡丹路",
    "scraped_at": "2026-04-23 00:29:36",
    "region": "huamu",
    "unit_price": 89.4,
    "lat": 31.208937,
    "lng": 121.552139
  },
  {
    "title": "整租·新领地 1室1厅 北",
    "community": "新领地",
    "area": "61.62",
    "rooms": "1室1厅",
    "direction": "北",
    "floor": "",
    "price": "5800",
    "tags": "",
    "source": "",
    "url": "https://sh.lianjia.com/zufang/SH2152680190843551744.html",
    "rent_type": "整租",
    "location": "浦东-花木-新领地",
    "scraped_at": "2026-04-23 00:29:36",
    "region": "huamu",
    "unit_price": 94.1,
    "lat": 31.202454,
    "lng": 121.550383
  },
  {
    "title": "整租·大唐盛世花园(三期) 2室2厅 南",
    "community": "大唐盛世花园(三期)",
    "area": "98.89",
    "rooms": "2室2厅",
    "direction": "南",
    "floor": "",
    "price": "12000",
    "tags": "",
    "source": "",
    "url": "https://sh.lianjia.com/zufang/SH2153108897810874368.html",
    "rent_type": "整租",
    "location": "浦东-花木-大唐盛世花园(三期)",
    "scraped_at": "2026-04-23 00:29:36",
    "region": "huamu",
    "unit_price": 121.3,
    "lat": 31.207368,
    "lng": 121.56092
  },
  {
    "title": "整租·万邦都市花园 1室1厅 南",
    "community": "万邦都市花园",
    "area": "40.99",
    "rooms": "1室1厅",
    "direction": "南",
    "floor": "",
    "price": "4600",
    "tags": "",
    "source": "",
    "url": "https://sh.lianjia.com/zufang/SH2144295798119071744.html",
    "rent_type": "整租",
    "location": "浦东-花木-万邦都市花园",
    "scraped_at": "2026-04-23 00:29:36",
    "region": "huamu",
    "unit_price": 112.2,
    "lat": 31.20073,
    "lng": 121.553226
  }
]