[
  {
    "title": "整租·新天地名居 1室1厅 西北",
    "community": "新天地名居",
    "area": "38.40",
    "rooms": "1室1厅",
    "direction": "西北",
    "floor": "",
    "price": "3850",
    "tags": "",
    "source": "",
    "url": "https://sz.lianjia.com/zufang/SZ1892914234900086784.html",
    "rent_type": "整租",
    "location": "罗湖区-黄贝岭-新天地名居",
    "scraped_at": "2026-05-03 05:24:33",
    "region": "huangbeiling",
    "unit_price": 100.3,
    "lat": 22.55102,
    "lng": 114.1361
  },
  {
    "title": "整租·新天地名居 2室1厅 西南",
    "community": "新天地名居",
    "area": "54.00",
    "rooms": "2室1厅",
    "direction": "西南",
    "floor": "",
    "price": "4900",
    "tags": "",
    "source": "",
    "url": "https://sz.lianjia.com/zufang/SZ2012811225905233920.html",
    "rent_type": "整租",
    "location": "罗湖区-黄贝岭-新天地名居",
    "scraped_at": "2026-05-03 05:24:33",
    "region": "huangbeiling",
    "unit_price": 90.7,
    "lat": 22.55102,
    "lng": 114.1361
  },
  {
    "title": "独栋·乐乎青年社区 乐乎黄贝岭地铁站店 黄贝岭地铁/免押金/民水民电/新春特惠/精装大单间/可短租！ 开间",
    "community": "乐乎青年社区 乐乎黄贝岭地铁站店 黄贝岭地铁/免押金/民水民电/新春特惠/精装大单间/可短租！ 开间",
    "area": "24.00",
    "rooms": "",
    "direction": "",
    "floor": "",
    "price": "1300-1800",
    "tags": "",
    "source": "",
    "url": "https://sz.lianjia.com/apartment/29123.html",
    "rent_type": "独栋",
    "location": "",
    "scraped_at": "2026-05-03 05:24:33",
    "region": "huangbeiling",
    "unit_price": "",
    "lat": 22.667525,
    "lng": 114.218297
  },
  {
    "title": "整租·汇鑫花园 2室1厅 东北",
    "community": "汇鑫花园",
    "area": "54.92",
    "rooms": "2室1厅",
    "direction": "东北",
    "floor": "",
    "price": "4300",
    "tags": "",
    "source": "",
    "url": "https://sz.lianjia.com/zufang/SZ1961366367923863552.html",
    "rent_type": "整租",
    "location": "罗湖区-黄贝岭-汇鑫花园",
    "scraped_at": "2026-05-03 05:24:33",
    "region": "huangbeiling",
    "unit_price": 78.3,
    "lat": 22.543081,
    "lng": 114.135713
  },
  {
    "title": "整租·深业东岭二期 2室2厅 西",
    "community": "深业东岭二期",
    "area": "70.00",
    "rooms": "2室2厅",
    "direction": "西",
    "floor": "",
    "price": "6400",
    "tags": "",
    "source": "",
    "url": "https://sz.lianjia.com/zufang/SZ1930478521243664384.html",
    "rent_type": "整租",
    "location": "罗湖区-黄贝岭-深业东岭二期",
    "scraped_at": "2026-05-03 05:24:33",
    "region": "huangbeiling",
    "unit_price": 91.4,
    "lat": 22.552549,
    "lng": 114.135673
  },
  {
    "title": "整租·万科俊园 6室0厅 东南",
    "community": "万科俊园",
    "area": "195.00",
    "rooms": "6室0厅",
    "direction": "东南",
    "floor": "",
    "price": "3500",
    "tags": "",
    "source": "",
    "url": "https://sz.lianjia.com/zufang/SZ2158829042982191104.html",
    "rent_type": "整租",
    "location": "罗湖区-黄贝岭-万科俊园",
    "scraped_at": "2026-05-03 05:24:33",
    "region": "huangbeiling",
    "unit_price": 17.9,
    "lat": 22.551416,
    "lng": 114.131009
  },
  {
    "title": "整租·深业东岭二期 2室2厅 东南",
    "community": "深业东岭二期",
    "area": "70.00",
    "rooms": "2室2厅",
    "direction": "东南",
    "floor": "",
    "price": "7200",
    "tags": "",
    "source": "",
    "url": "https://sz.lianjia.com/zufang/SZ2152375558506283008.html",
    "rent_type": "整租",
    "location": "罗湖区-黄贝岭-深业东岭二期",
    "scraped_at": "2026-05-03 05:24:56",
    "region": "huangbeiling",
    "unit_price": 102.9,
    "lat": 22.552549,
    "lng": 114.135673
  },
  {
    "title": "整租·合正荣悦 2室1厅 西南",
    "community": "合正荣悦",
    "area": "50.22",
    "rooms": "2室1厅",
    "direction": "西南",
    "floor": "",
    "price": "5500",
    "tags": "",
    "source": "",
    "url": "https://sz.lianjia.com/zufang/SZ2154494303194316800.html",
    "rent_type": "整租",
    "location": "罗湖区-黄贝岭-合正荣悦",
    "scraped_at": "2026-05-03 05:24:33",
    "region": "huangbeiling",
    "unit_price": 109.5,
    "lat": 22.552565,
    "lng": 114.129534
  },
  {
    "title": "整租·怡泰大厦 1室1厅 东/东南",
    "community": "怡泰大厦",
    "area": "36.06",
    "rooms": "1室1厅",
    "direction": "东/东南",
    "floor": "",
    "price": "2900",
    "tags": "",
    "source": "",
    "url": "https://sz.lianjia.com/zufang/SZ2026692442924777472.html",
    "rent_type": "整租",
    "location": "罗湖区-黄贝岭-怡泰大厦",
    "scraped_at": "2026-05-03 05:24:33",
    "region": "huangbeiling",
    "unit_price": 80.4,
    "lat": 22.554349,
    "lng": 114.127959
  },
  {
    "title": "整租·怡泰大厦 1室1厅 南",
    "community": "怡泰大厦",
    "area": "57.46",
    "rooms": "1室1厅",
    "direction": "南",
    "floor": "",
    "price": "3400",
    "tags": "",
    "source": "",
    "url": "https://sz.lianjia.com/zufang/SZ1966500606235377664.html",
    "rent_type": "整租",
    "location": "罗湖区-黄贝岭-怡泰大厦",
    "scraped_at": "2026-05-03 05:24:56",
    "region": "huangbeiling",
    "unit_price": 59.2,
    "lat": 22.554349,
    "lng": 114.127959
  },
  {
    "title": "整租·深业东岭二期 2室1厅 西南",
    "community": "深业东岭二期",
    "area": "55.00",
    "rooms": "2室1厅",
    "direction": "西南",
    "floor": "",
    "price": "5800",
    "tags": "",
    "source": "",
    "url": "https://sz.lianjia.com/zufang/SZ2158499364933206016.html",
    "rent_type": "整租",
    "location": "罗湖区-黄贝岭-深业东岭二期",
    "scraped_at": "2026-05-03 05:24:33",
    "region": "huangbeiling",
    "unit_price": 105.5,
    "lat": 22.552549,
    "lng": 114.135673
  },
  {
    "title": "整租·深业东岭二期 2室1厅 西南",
    "community": "深业东岭二期",
    "area": "55.00",
    "rooms": "2室1厅",
    "direction": "西南",
    "floor": "",
    "price": "5800",
    "tags": "",
    "source": "",
    "url": "https://sz.lianjia.com/zufang/SZ2158499140659576832.html",
    "rent_type": "整租",
    "location": "罗湖区-黄贝岭-深业东岭二期",
    "scraped_at": "2026-05-03 05:24:33",
    "region": "huangbeiling",
    "unit_price": 105.5,
    "lat": 22.552549,
    "lng": 114.135673
  },
  {
    "title": "整租·靖轩豪苑 2室2厅 南",
    "community": "靖轩豪苑",
    "area": "74.00",
    "rooms": "2室2厅",
    "direction": "南",
    "floor": "",
    "price": "7200",
    "tags": "",
    "source": "",
    "url": "https://sz.lianjia.com/zufang/SZ2158217083970650112.html",
    "rent_type": "整租",
    "location": "罗湖区-黄贝岭-靖轩豪苑",
    "scraped_at": "2026-05-03 05:24:33",
    "region": "huangbeiling",
    "unit_price": 97.3,
    "lat": 22.55036,
    "lng": 114.1342
  },
  {
    "title": "整租·怡泰大厦 1室1厅 南",
    "community": "怡泰大厦",
    "area": "38.87",
    "rooms": "1室1厅",
    "direction": "南",
    "floor": "",
    "price": "2300",
    "tags": "",
    "source": "",
    "url": "https://sz.lianjia.com/zufang/SZ2159546272137084928.html",
    "rent_type": "整租",
    "location": "罗湖区-黄贝岭-怡泰大厦",
    "scraped_at": "2026-05-03 05:24:33",
    "region": "huangbeiling",
    "unit_price": 59.2,
    "lat": 22.554349,
    "lng": 114.127959
  },
  {
    "title": "整租·新天地名居 3室1厅 南/西南",
    "community": "新天地名居",
    "area": "54.11",
    "rooms": "3室1厅",
    "direction": "南/西南",
    "floor": "",
    "price": "5500",
    "tags": "",
    "source": "",
    "url": "https://sz.lianjia.com/zufang/SZ2159879618276884480.html",
    "rent_type": "整租",
    "location": "罗湖区-黄贝岭-新天地名居",
    "scraped_at": "2026-05-03 05:24:33",
    "region": "huangbeiling",
    "unit_price": 101.6,
    "lat": 22.55102,
    "lng": 114.1361
  },
  {
    "title": "整租·佳米基尚领公苑 3室2厅 西南",
    "community": "佳米基尚领公苑",
    "area": "88.00",
    "rooms": "3室2厅",
    "direction": "西南",
    "floor": "",
    "price": "8300",
    "tags": "",
    "source": "",
    "url": "https://sz.lianjia.com/zufang/SZ2145877452608503808.html",
    "rent_type": "整租",
    "location": "罗湖区-黄贝岭-佳米基尚领公苑",
    "scraped_at": "2026-05-03 05:24:33",
    "region": "huangbeiling",
    "unit_price": 94.3,
    "lat": 22.55102,
    "lng": 114.1361
  },
  {
    "title": "整租·深业东岭一期 1室0厅 东/东南",
    "community": "深业东岭一期",
    "area": "39.03",
    "rooms": "1室0厅",
    "direction": "东/东南",
    "floor": "",
    "price": "4500",
    "tags": "",
    "source": "",
    "url": "https://sz.lianjia.com/zufang/SZ2145929466948354048.html",
    "rent_type": "整租",
    "location": "罗湖区-黄贝岭-深业东岭一期",
    "scraped_at": "2026-05-03 05:24:33",
    "region": "huangbeiling",
    "unit_price": 115.3,
    "lat": 22.55175,
    "lng": 114.13511
  },
  {
    "title": "整租·鸿业苑三期 3室2厅 北",
    "community": "鸿业苑三期",
    "area": "93.00",
    "rooms": "3室2厅",
    "direction": "北",
    "floor": "",
    "price": "8500",
    "tags": "",
    "source": "",
    "url": "https://sz.lianjia.com/zufang/SZ2151689463963582464.html",
    "rent_type": "整租",
    "location": "罗湖区-黄贝岭-鸿业苑三期",
    "scraped_at": "2026-05-03 05:24:50",
    "region": "huangbeiling",
    "unit_price": 91.4,
    "lat": 22.55946,
    "lng": 114.12717
  },
  {
    "title": "整租·汇鑫花园 2室1厅 西南",
    "community": "汇鑫花园",
    "area": "54.00",
    "rooms": "2室1厅",
    "direction": "西南",
    "floor": "",
    "price": "4600",
    "tags": "",
    "source": "",
    "url": "https://sz.lianjia.com/zufang/SZ2161374301947691008.html",
    "rent_type": "整租",
    "location": "罗湖区-黄贝岭-汇鑫花园",
    "scraped_at": "2026-05-03 05:24:33",
    "region": "huangbeiling",
    "unit_price": 85.2,
    "lat": 22.543081,
    "lng": 114.135713
  },
  {
    "title": "整租·靖轩豪苑 2室1厅 东北",
    "community": "靖轩豪苑",
    "area": "72.00",
    "rooms": "2室1厅",
    "direction": "东北",
    "floor": "",
    "price": "7000",
    "tags": "",
    "source": "",
    "url": "https://sz.lianjia.com/zufang/SZ2153475494413074432.html",
    "rent_type": "整租",
    "location": "罗湖区-黄贝岭-靖轩豪苑",
    "scraped_at": "2026-05-03 05:24:33",
    "region": "huangbeiling",
    "unit_price": 97.2,
    "lat": 22.55036,
    "lng": 114.1342
  },
  {
    "title": "整租·怡泰大厦 1室1厅 复式 西南",
    "community": "怡泰大厦",
    "area": "51.97",
    "rooms": "1室1厅",
    "direction": "",
    "floor": "",
    "price": "3150",
    "tags": "",
    "source": "",
    "url": "https://sz.lianjia.com/zufang/SZ2155633697305395200.html",
    "rent_type": "整租",
    "location": "罗湖区-黄贝岭-怡泰大厦",
    "scraped_at": "2026-05-03 05:24:53",
    "region": "huangbeiling",
    "unit_price": 60.6,
    "lat": 22.554349,
    "lng": 114.127959
  },
  {
    "title": "整租·深业东岭一期 2室2厅 东南",
    "community": "深业东岭一期",
    "area": "70.00",
    "rooms": "2室2厅",
    "direction": "东南",
    "floor": "",
    "price": "6300",
    "tags": "",
    "source": "",
    "url": "https://sz.lianjia.com/zufang/SZ2142876170759176192.html",
    "rent_type": "整租",
    "location": "罗湖区-黄贝岭-深业东岭一期",
    "scraped_at": "2026-05-03 05:24:53",
    "region": "huangbeiling",
    "unit_price": 90.0,
    "lat": 22.55175,
    "lng": 114.13511
  },
  {
    "title": "整租·深业东岭二期 2室1厅 西南",
    "community": "深业东岭二期",
    "area": "70.00",
    "rooms": "2室1厅",
    "direction": "西南",
    "floor": "",
    "price": "7000",
    "tags": "",
    "source": "",
    "url": "https://sz.lianjia.com/zufang/SZ2155974341177638912.html",
    "rent_type": "整租",
    "location": "罗湖区-黄贝岭-深业东岭二期",
    "scraped_at": "2026-05-03 05:24:33",
    "region": "huangbeiling",
    "unit_price": 100.0,
    "lat": 22.552549,
    "lng": 114.135673
  },
  {
    "title": "整租·集浩花园 3室2厅 东南",
    "community": "集浩花园",
    "area": "113.00",
    "rooms": "3室2厅",
    "direction": "东南",
    "floor": "",
    "price": "7500",
    "tags": "",
    "source": "",
    "url": "https://sz.lianjia.com/zufang/SZ2138843142751780864.html",
    "rent_type": "整租",
    "location": "罗湖区-黄贝岭-集浩花园",
    "scraped_at": "2026-05-03 05:24:33",
    "region": "huangbeiling",
    "unit_price": 66.4,
    "lat": 22.549667,
    "lng": 114.135532
  },
  {
    "title": "整租·乐扬枫景 2室1厅 西南",
    "community": "乐扬枫景",
    "area": "55.51",
    "rooms": "2室1厅",
    "direction": "西南",
    "floor": "",
    "price": "5300",
    "tags": "",
    "source": "",
    "url": "https://sz.lianjia.com/zufang/SZ2150244496003039232.html",
    "rent_type": "整租",
    "location": "罗湖区-黄贝岭-乐扬枫景",
    "scraped_at": "2026-05-03 05:24:33",
    "region": "huangbeiling",
    "unit_price": 95.5,
    "lat": 22.558301,
    "lng": 114.141511
  },
  {
    "title": "整租·海洋大厦 1室0厅 西南",
    "community": "海洋大厦",
    "area": "42.66",
    "rooms": "1室0厅",
    "direction": "西南",
    "floor": "",
    "price": "3800",
    "tags": "",
    "source": "",
    "url": "https://sz.lianjia.com/zufang/SZ2156960396978683904.html",
    "rent_type": "整租",
    "location": "罗湖区-黄贝岭-海洋大厦",
    "scraped_at": "2026-05-03 05:24:33",
    "region": "huangbeiling",
    "unit_price": 89.1,
    "lat": 22.555446,
    "lng": 114.129409
  },
  {
    "title": "整租·怡景花园-荷花村 2室1厅 南",
    "community": "怡景花园-荷花村",
    "area": "58.80",
    "rooms": "2室1厅",
    "direction": "南",
    "floor": "",
    "price": "5000",
    "tags": "",
    "source": "",
    "url": "https://sz.lianjia.com/zufang/SZ2124086112266747904.html",
    "rent_type": "整租",
    "location": "罗湖区-黄贝岭-怡景花园",
    "scraped_at": "2026-05-03 05:24:33",
    "region": "huangbeiling",
    "unit_price": 85.0,
    "lat": 22.555285,
    "lng": 114.129922
  },
  {
    "title": "整租·集浩大厦 2室2厅 东南",
    "community": "集浩大厦",
    "area": "101.56",
    "rooms": "2室2厅",
    "direction": "东南",
    "floor": "",
    "price": "7000",
    "tags": "",
    "source": "",
    "url": "https://sz.lianjia.com/zufang/SZ2133532460992954368.html",
    "rent_type": "整租",
    "location": "罗湖区-黄贝岭-集浩大厦",
    "scraped_at": "2026-05-03 05:24:33",
    "region": "huangbeiling",
    "unit_price": 68.9,
    "lat": 22.546469,
    "lng": 114.135433
  },
  {
    "title": "整租·龙园苑 2室1厅 西南",
    "community": "龙园苑",
    "area": "41.00",
    "rooms": "2室1厅",
    "direction": "西南",
    "floor": "",
    "price": "5000",
    "tags": "",
    "source": "",
    "url": "https://sz.lianjia.com/zufang/SZ2158436108105416704.html",
    "rent_type": "整租",
    "location": "罗湖区-黄贝岭-龙园苑",
    "scraped_at": "2026-05-03 05:24:33",
    "region": "huangbeiling",
    "unit_price": 122.0,
    "lat": 22.542408,
    "lng": 114.137514
  },
  {
    "title": "整租·文华花园 1室1厅 南",
    "community": "文华花园",
    "area": "79.00",
    "rooms": "1室1厅",
    "direction": "南",
    "floor": "",
    "price": "6000",
    "tags": "",
    "source": "",
    "url": "https://sz.lianjia.com/zufang/SZ2157724418049048576.html",
    "rent_type": "整租",
    "location": "罗湖区-黄贝岭-文华花园",
    "scraped_at": "2026-05-03 05:24:56",
    "region": "huangbeiling",
    "unit_price": 75.9,
    "lat": 22.544877,
    "lng": 114.137049
  },
  {
    "title": "整租·鸿业苑三期 4室2厅 南",
    "community": "鸿业苑三期",
    "area": "177.79",
    "rooms": "4室2厅",
    "direction": "南",
    "floor": "",
    "price": "15000",
    "tags": "",
    "source": "",
    "url": "https://sz.lianjia.com/zufang/SZ2129475970174812160.html",
    "rent_type": "整租",
    "location": "罗湖区-黄贝岭-鸿业苑三期",
    "scraped_at": "2026-05-03 05:24:36",
    "region": "huangbeiling",
    "unit_price": 84.4,
    "lat": 22.55946,
    "lng": 114.12717
  },
  {
    "title": "整租·乐扬枫景 2室1厅 东南",
    "community": "乐扬枫景",
    "area": "55.51",
    "rooms": "2室1厅",
    "direction": "东南",
    "floor": "",
    "price": "4900",
    "tags": "",
    "source": "",
    "url": "https://sz.lianjia.com/zufang/SZ2129557356042780672.html",
    "rent_type": "整租",
    "location": "罗湖区-黄贝岭-乐扬枫景",
    "scraped_at": "2026-05-03 05:24:36",
    "region": "huangbeiling",
    "unit_price": 88.3,
    "lat": 22.558301,
    "lng": 114.141511
  },
  {
    "title": "整租·深业东岭一期 5室2厅 西南",
    "community": "深业东岭一期",
    "area": "146.00",
    "rooms": "5室2厅",
    "direction": "西南",
    "floor": "",
    "price": "11900",
    "tags": "",
    "source": "",
    "url": "https://sz.lianjia.com/zufang/SZ2112411092192854016.html",
    "rent_type": "整租",
    "location": "罗湖区-黄贝岭-深业东岭一期",
    "scraped_at": "2026-05-03 05:24:36",
    "region": "huangbeiling",
    "unit_price": 81.5,
    "lat": 22.55175,
    "lng": 114.13511
  },
  {
    "title": "整租·靖轩豪苑 3室2厅 北",
    "community": "靖轩豪苑",
    "area": "98.00",
    "rooms": "3室2厅",
    "direction": "北",
    "floor": "",
    "price": "8300",
    "tags": "",
    "source": "",
    "url": "https://sz.lianjia.com/zufang/SZ2140828348404727808.html",
    "rent_type": "整租",
    "location": "罗湖区-黄贝岭-靖轩豪苑",
    "scraped_at": "2026-05-03 05:24:36",
    "region": "huangbeiling",
    "unit_price": 84.7,
    "lat": 22.55036,
    "lng": 114.1342
  },
  {
    "title": "整租·深业东岭一期 2室2厅 南",
    "community": "深业东岭一期",
    "area": "70.00",
    "rooms": "2室2厅",
    "direction": "南",
    "floor": "",
    "price": "6000",
    "tags": "",
    "source": "",
    "url": "https://sz.lianjia.com/zufang/SZ2161071546372718592.html",
    "rent_type": "整租",
    "location": "罗湖区-黄贝岭-深业东岭一期",
    "scraped_at": "2026-05-03 05:24:36",
    "region": "huangbeiling",
    "unit_price": 85.7,
    "lat": 22.55175,
    "lng": 114.13511
  },
  {
    "title": "整租·丹枫白露城东1号 1室1厅 南",
    "community": "丹枫白露城东1号",
    "area": "69.30",
    "rooms": "1室1厅",
    "direction": "南",
    "floor": "",
    "price": "4900",
    "tags": "",
    "source": "",
    "url": "https://sz.lianjia.com/zufang/SZ2158458006503686144.html",
    "rent_type": "整租",
    "location": "罗湖区-黄贝岭-丹枫白露城东",
    "scraped_at": "2026-05-03 05:24:36",
    "region": "huangbeiling",
    "unit_price": 70.7,
    "lat": 22.545036,
    "lng": 114.139403
  },
  {
    "title": "整租·益田御龙华府 3室2厅 东南",
    "community": "益田御龙华府",
    "area": "117.00",
    "rooms": "3室2厅",
    "direction": "东南",
    "floor": "",
    "price": "13500",
    "tags": "",
    "source": "",
    "url": "https://sz.lianjia.com/zufang/SZ2158513428006699008.html",
    "rent_type": "整租",
    "location": "罗湖区-黄贝岭-益田御龙华府",
    "scraped_at": "2026-05-03 05:24:36",
    "region": "huangbeiling",
    "unit_price": 115.4,
    "lat": 22.554368,
    "lng": 114.131307
  },
  {
    "title": "整租·合正荣悦 5室2厅 南/北",
    "community": "合正荣悦",
    "area": "208.00",
    "rooms": "5室2厅",
    "direction": "南/北",
    "floor": "",
    "price": "25000",
    "tags": "",
    "source": "",
    "url": "https://sz.lianjia.com/zufang/SZ2141366879371919360.html",
    "rent_type": "整租",
    "location": "罗湖区-黄贝岭-合正荣悦",
    "scraped_at": "2026-05-03 05:24:36",
    "region": "huangbeiling",
    "unit_price": 120.2,
    "lat": 22.552565,
    "lng": 114.129534
  },
  {
    "title": "整租·文锦花园 2室1厅 南/北",
    "community": "文锦花园",
    "area": "75.00",
    "rooms": "2室1厅",
    "direction": "南/北",
    "floor": "",
    "price": "4600",
    "tags": "",
    "source": "",
    "url": "https://sz.lianjia.com/zufang/SZ2140389834370318336.html",
    "rent_type": "整租",
    "location": "罗湖区-黄贝岭-文锦花园",
    "scraped_at": "2026-05-03 05:24:36",
    "region": "huangbeiling",
    "unit_price": 61.3,
    "lat": 22.543456,
    "lng": 114.132582
  },
  {
    "title": "整租·深业东岭二期 3室2厅 西南",
    "community": "深业东岭二期",
    "area": "107.00",
    "rooms": "3室2厅",
    "direction": "西南",
    "floor": "",
    "price": "12000",
    "tags": "",
    "source": "",
    "url": "https://sz.lianjia.com/zufang/SZ2148260569042386944.html",
    "rent_type": "整租",
    "location": "罗湖区-黄贝岭-深业东岭二期",
    "scraped_at": "2026-05-03 05:24:36",
    "region": "huangbeiling",
    "unit_price": 112.1,
    "lat": 22.552549,
    "lng": 114.135673
  },
  {
    "title": "整租·怡泰大厦 2室1厅 东",
    "community": "怡泰大厦",
    "area": "57.56",
    "rooms": "2室1厅",
    "direction": "东",
    "floor": "",
    "price": "4100",
    "tags": "",
    "source": "",
    "url": "https://sz.lianjia.com/zufang/SZ2064324592045916160.html",
    "rent_type": "整租",
    "location": "罗湖区-黄贝岭-怡泰大厦",
    "scraped_at": "2026-05-03 05:24:36",
    "region": "huangbeiling",
    "unit_price": 71.2,
    "lat": 22.554349,
    "lng": 114.127959
  },
  {
    "title": "整租·丹枫白露城东1号 2室1厅 错层 西南",
    "community": "丹枫白露城东1号",
    "area": "95.00",
    "rooms": "2室1厅",
    "direction": "",
    "floor": "",
    "price": "6800",
    "tags": "",
    "source": "",
    "url": "https://sz.lianjia.com/zufang/SZ2158544779732844544.html",
    "rent_type": "整租",
    "location": "罗湖区-黄贝岭-丹枫白露城东",
    "scraped_at": "2026-05-03 05:24:36",
    "region": "huangbeiling",
    "unit_price": 71.6,
    "lat": 22.545036,
    "lng": 114.139403
  },
  {
    "title": "整租·乐扬枫景 1室1厅 东南",
    "community": "乐扬枫景",
    "area": "42.63",
    "rooms": "1室1厅",
    "direction": "东南",
    "floor": "",
    "price": "4500",
    "tags": "",
    "source": "",
    "url": "https://sz.lianjia.com/zufang/SZ2147240994628698112.html",
    "rent_type": "整租",
    "location": "罗湖区-黄贝岭-乐扬枫景",
    "scraped_at": "2026-05-03 05:24:36",
    "region": "huangbeiling",
    "unit_price": 105.6,
    "lat": 22.558301,
    "lng": 114.141511
  },
  {
    "title": "整租·汇鑫花园 4室2厅 北",
    "community": "汇鑫花园",
    "area": "130.00",
    "rooms": "4室2厅",
    "direction": "北",
    "floor": "",
    "price": "11000",
    "tags": "",
    "source": "",
    "url": "https://sz.lianjia.com/zufang/SZ2127052176298606592.html",
    "rent_type": "整租",
    "location": "罗湖区-黄贝岭-汇鑫花园",
    "scraped_at": "2026-05-03 05:24:36",
    "region": "huangbeiling",
    "unit_price": 84.6,
    "lat": 22.543081,
    "lng": 114.135713
  },
  {
    "title": "整租·翠华花园 3室2厅 南",
    "community": "翠华花园",
    "area": "92.00",
    "rooms": "3室2厅",
    "direction": "南",
    "floor": "",
    "price": "4900",
    "tags": "",
    "source": "",
    "url": "https://sz.lianjia.com/zufang/SZ2146561688667684864.html",
    "rent_type": "整租",
    "location": "罗湖区-黄贝岭-翠华花园",
    "scraped_at": "2026-05-03 05:24:36",
    "region": "huangbeiling",
    "unit_price": 53.3,
    "lat": 22.555547,
    "lng": 114.13238
  },
  {
    "title": "整租·深业东岭二期 2室1厅 西",
    "community": "深业东岭二期",
    "area": "55.00",
    "rooms": "2室1厅",
    "direction": "西",
    "floor": "",
    "price": "6000",
    "tags": "",
    "source": "",
    "url": "https://sz.lianjia.com/zufang/SZ2122974374649659392.html",
    "rent_type": "整租",
    "location": "罗湖区-黄贝岭-深业东岭二期",
    "scraped_at": "2026-05-03 05:24:36",
    "region": "huangbeiling",
    "unit_price": 109.1,
    "lat": 22.552549,
    "lng": 114.135673
  },
  {
    "title": "整租·东深小区 2室1厅 南",
    "community": "东深小区",
    "area": "76.00",
    "rooms": "2室1厅",
    "direction": "南",
    "floor": "",
    "price": "5500",
    "tags": "",
    "source": "",
    "url": "https://sz.lianjia.com/zufang/SZ2141169739802607616.html",
    "rent_type": "整租",
    "location": "罗湖区-黄贝岭-东深小区",
    "scraped_at": "2026-05-03 05:24:36",
    "region": "huangbeiling",
    "unit_price": 72.4,
    "lat": 22.552208,
    "lng": 114.137485
  },
  {
    "title": "整租·深业东岭二期 1室1厅 西",
    "community": "深业东岭二期",
    "area": "36.00",
    "rooms": "1室1厅",
    "direction": "西",
    "floor": "",
    "price": "4500",
    "tags": "",
    "source": "",
    "url": "https://sz.lianjia.com/zufang/SZ2130219109189681152.html",
    "rent_type": "整租",
    "location": "罗湖区-黄贝岭-深业东岭二期",
    "scraped_at": "2026-05-03 05:24:36",
    "region": "huangbeiling",
    "unit_price": 125.0,
    "lat": 22.552549,
    "lng": 114.135673
  },
  {
    "title": "整租·碧波大厦 3室1厅 东",
    "community": "碧波大厦",
    "area": "78.00",
    "rooms": "3室1厅",
    "direction": "东",
    "floor": "",
    "price": "3800",
    "tags": "",
    "source": "",
    "url": "https://sz.lianjia.com/zufang/SZ2094619111567917056.html",
    "rent_type": "整租",
    "location": "罗湖区-黄贝岭-碧波大厦",
    "scraped_at": "2026-05-03 05:24:36",
    "region": "huangbeiling",
    "unit_price": 48.7,
    "lat": 22.562681,
    "lng": 114.144485
  },
  {
    "title": "整租·深业东岭一期 4室1厅 西南",
    "community": "深业东岭一期",
    "area": "126.00",
    "rooms": "4室1厅",
    "direction": "西南",
    "floor": "",
    "price": "9828",
    "tags": "",
    "source": "",
    "url": "https://sz.lianjia.com/zufang/SZ2126680547190112256.html",
    "rent_type": "整租",
    "location": "罗湖区-黄贝岭-深业东岭一期",
    "scraped_at": "2026-05-03 05:24:36",
    "region": "huangbeiling",
    "unit_price": 78.0,
    "lat": 22.55175,
    "lng": 114.13511
  },
  {
    "title": "整租·东湖大厦 2室2厅 东/东南",
    "community": "东湖大厦",
    "area": "71.00",
    "rooms": "2室2厅",
    "direction": "东/东南",
    "floor": "",
    "price": "4700",
    "tags": "",
    "source": "",
    "url": "https://sz.lianjia.com/zufang/SZ2159537946359758848.html",
    "rent_type": "整租",
    "location": "罗湖区-黄贝岭-东湖大厦",
    "scraped_at": "2026-05-03 05:24:36",
    "region": "huangbeiling",
    "unit_price": 66.2,
    "lat": 22.552208,
    "lng": 114.137485
  },
  {
    "title": "整租·深发花园 2室2厅 南",
    "community": "深发花园",
    "area": "76.16",
    "rooms": "2室2厅",
    "direction": "南",
    "floor": "",
    "price": "5000",
    "tags": "",
    "source": "",
    "url": "https://sz.lianjia.com/zufang/SZ2055915159624351744.html",
    "rent_type": "整租",
    "location": "罗湖区-黄贝岭-深发花园",
    "scraped_at": "2026-05-03 05:24:36",
    "region": "huangbeiling",
    "unit_price": 65.7,
    "lat": 22.550007,
    "lng": 114.135614
  },
  {
    "title": "整租·怡泰大厦 4室2厅 东",
    "community": "怡泰大厦",
    "area": "122.00",
    "rooms": "4室2厅",
    "direction": "东",
    "floor": "",
    "price": "6600",
    "tags": "",
    "source": "",
    "url": "https://sz.lianjia.com/zufang/SZ2059225469298933760.html",
    "rent_type": "整租",
    "location": "罗湖区-黄贝岭-怡泰大厦",
    "scraped_at": "2026-05-03 05:24:36",
    "region": "huangbeiling",
    "unit_price": 54.1,
    "lat": 22.554349,
    "lng": 114.127959
  },
  {
    "title": "整租·湖滨新村 3室1厅 南",
    "community": "湖滨新村",
    "area": "80.43",
    "rooms": "3室1厅",
    "direction": "南",
    "floor": "",
    "price": "4200",
    "tags": "",
    "source": "",
    "url": "https://sz.lianjia.com/zufang/SZ2060592854761209856.html",
    "rent_type": "整租",
    "location": "罗湖区-黄贝岭-湖滨新村",
    "scraped_at": "2026-05-03 05:24:36",
    "region": "huangbeiling",
    "unit_price": 52.2,
    "lat": 22.559493,
    "lng": 114.138129
  },
  {
    "title": "整租·中山花园大厦 3室2厅 东南/南",
    "community": "中山花园大厦",
    "area": "107.60",
    "rooms": "3室2厅",
    "direction": "东南/南",
    "floor": "",
    "price": "6500",
    "tags": "",
    "source": "",
    "url": "https://sz.lianjia.com/zufang/SZ2063205828063657984.html",
    "rent_type": "整租",
    "location": "罗湖区-黄贝岭-中山花园大厦",
    "scraped_at": "2026-05-03 05:24:36",
    "region": "huangbeiling",
    "unit_price": 60.4,
    "lat": 22.548684,
    "lng": 114.135312
  },
  {
    "title": "整租·怡泰大厦 1室0厅 东南",
    "community": "怡泰大厦",
    "area": "38.00",
    "rooms": "1室0厅",
    "direction": "东南",
    "floor": "",
    "price": "2900",
    "tags": "",
    "source": "",
    "url": "https://sz.lianjia.com/zufang/SZ2064244006954467328.html",
    "rent_type": "整租",
    "location": "罗湖区-黄贝岭-怡泰大厦",
    "scraped_at": "2026-05-03 05:24:36",
    "region": "huangbeiling",
    "unit_price": 76.3,
    "lat": 22.554349,
    "lng": 114.127959
  },
  {
    "title": "整租·深业东岭二期 2室1厅 南",
    "community": "深业东岭二期",
    "area": "72.00",
    "rooms": "2室1厅",
    "direction": "南",
    "floor": "",
    "price": "7800",
    "tags": "",
    "source": "",
    "url": "https://sz.lianjia.com/zufang/SZ2066447587371646976.html",
    "rent_type": "整租",
    "location": "罗湖区-黄贝岭-深业东岭二期",
    "scraped_at": "2026-05-03 05:24:36",
    "region": "huangbeiling",
    "unit_price": 108.3,
    "lat": 22.552549,
    "lng": 114.135673
  },
  {
    "title": "整租·锦上花家园 2室1厅 南",
    "community": "锦上花家园",
    "area": "50.00",
    "rooms": "2室1厅",
    "direction": "南",
    "floor": "",
    "price": "5300",
    "tags": "",
    "source": "",
    "url": "https://sz.lianjia.com/zufang/SZ2066832171426906112.html",
    "rent_type": "整租",
    "location": "罗湖区-黄贝岭-锦上花家园",
    "scraped_at": "2026-05-03 05:24:36",
    "region": "huangbeiling",
    "unit_price": 106.0,
    "lat": 22.540577,
    "lng": 114.135899
  },
  {
    "title": "整租·翠华花园 3室1厅 东南/南",
    "community": "翠华花园",
    "area": "88.80",
    "rooms": "3室1厅",
    "direction": "东南/南",
    "floor": "",
    "price": "5800",
    "tags": "",
    "source": "",
    "url": "https://sz.lianjia.com/zufang/SZ2070014870849323008.html",
    "rent_type": "整租",
    "location": "罗湖区-黄贝岭-翠华花园",
    "scraped_at": "2026-05-03 05:24:36",
    "region": "huangbeiling",
    "unit_price": 65.3,
    "lat": 22.555547,
    "lng": 114.13238
  },
  {
    "title": "整租·深业东岭二期 3室2厅 东南",
    "community": "深业东岭二期",
    "area": "105.65",
    "rooms": "3室2厅",
    "direction": "东南",
    "floor": "",
    "price": "12000",
    "tags": "",
    "source": "",
    "url": "https://sz.lianjia.com/zufang/SZ2071453807987916800.html",
    "rent_type": "整租",
    "location": "罗湖区-黄贝岭-深业东岭二期",
    "scraped_at": "2026-05-03 05:24:36",
    "region": "huangbeiling",
    "unit_price": 113.6,
    "lat": 22.552549,
    "lng": 114.135673
  },
  {
    "title": "整租·朗钜御风庭 1室1厅 东北",
    "community": "朗钜御风庭",
    "area": "46.00",
    "rooms": "1室1厅",
    "direction": "东北",
    "floor": "",
    "price": "4600",
    "tags": "",
    "source": "",
    "url": "https://sz.lianjia.com/zufang/SZ2157067519318294528.html",
    "rent_type": "整租",
    "location": "罗湖区-黄贝岭-朗钜御风庭",
    "scraped_at": "2026-05-03 05:24:50",
    "region": "huangbeiling",
    "unit_price": 100.0,
    "lat": 22.541544,
    "lng": 114.131593
  },
  {
    "title": "整租·庐峰翠苑 3室2厅 南",
    "community": "庐峰翠苑",
    "area": "124.00",
    "rooms": "3室2厅",
    "direction": "南",
    "floor": "",
    "price": "10000",
    "tags": "",
    "source": "",
    "url": "https://sz.lianjia.com/zufang/SZ2157102764285493248.html",
    "rent_type": "整租",
    "location": "罗湖区-黄贝岭-庐峰翠苑",
    "scraped_at": "2026-05-03 05:24:42",
    "region": "huangbeiling",
    "unit_price": 80.6,
    "lat": 22.55102,
    "lng": 114.1361
  },
  {
    "title": "整租·景贝北小区 3室2厅 南",
    "community": "景贝北小区",
    "area": "90.00",
    "rooms": "3室2厅",
    "direction": "南",
    "floor": "",
    "price": "4800",
    "tags": "",
    "source": "",
    "url": "https://sz.lianjia.com/zufang/SZ2157103965852925952.html",
    "rent_type": "整租",
    "location": "罗湖区-黄贝岭-景贝北小区",
    "scraped_at": "2026-05-03 05:24:42",
    "region": "huangbeiling",
    "unit_price": 53.3,
    "lat": 22.555269,
    "lng": 114.142387
  },
  {
    "title": "整租·鸿业苑一期 3室2厅 南",
    "community": "鸿业苑一期",
    "area": "132.30",
    "rooms": "3室2厅",
    "direction": "南",
    "floor": "",
    "price": "10500",
    "tags": "",
    "source": "",
    "url": "https://sz.lianjia.com/zufang/SZ2149397591819812864.html",
    "rent_type": "整租",
    "location": "罗湖区-黄贝岭-鸿业苑一期",
    "scraped_at": "2026-05-03 05:24:39",
    "region": "huangbeiling",
    "unit_price": 79.4,
    "lat": 22.56001,
    "lng": 114.12754
  },
  {
    "title": "整租·合正荣悦 3室1厅 东南/南/西南",
    "community": "合正荣悦",
    "area": "108.00",
    "rooms": "3室1厅",
    "direction": "东南/南/西南",
    "floor": "",
    "price": "12500",
    "tags": "",
    "source": "",
    "url": "https://sz.lianjia.com/zufang/SZ2149442307122790400.html",
    "rent_type": "整租",
    "location": "罗湖区-黄贝岭-合正荣悦",
    "scraped_at": "2026-05-03 05:24:39",
    "region": "huangbeiling",
    "unit_price": 115.7,
    "lat": 22.552565,
    "lng": 114.129534
  },
  {
    "title": "整租·新天地名居 1室1厅 东北",
    "community": "新天地名居",
    "area": "39.00",
    "rooms": "1室1厅",
    "direction": "东北",
    "floor": "",
    "price": "4300",
    "tags": "",
    "source": "",
    "url": "https://sz.lianjia.com/zufang/SZ2150150280090484736.html",
    "rent_type": "整租",
    "location": "罗湖区-黄贝岭-新天地名居",
    "scraped_at": "2026-05-03 05:24:44",
    "region": "huangbeiling",
    "unit_price": 110.3,
    "lat": 22.55102,
    "lng": 114.1361
  },
  {
    "title": "整租·汇鑫花园 2室1厅 南",
    "community": "汇鑫花园",
    "area": "54.00",
    "rooms": "2室1厅",
    "direction": "南",
    "floor": "",
    "price": "4800",
    "tags": "",
    "source": "",
    "url": "https://sz.lianjia.com/zufang/SZ2154089354790699008.html",
    "rent_type": "整租",
    "location": "罗湖区-黄贝岭-汇鑫花园",
    "scraped_at": "2026-05-03 05:24:44",
    "region": "huangbeiling",
    "unit_price": 88.9,
    "lat": 22.543081,
    "lng": 114.135713
  },
  {
    "title": "整租·锦上花家园 2室1厅 东南",
    "community": "锦上花家园",
    "area": "60.00",
    "rooms": "2室1厅",
    "direction": "东南",
    "floor": "",
    "price": "6200",
    "tags": "",
    "source": "",
    "url": "https://sz.lianjia.com/zufang/SZ2154186105354715136.html",
    "rent_type": "整租",
    "location": "罗湖区-黄贝岭-锦上花家园",
    "scraped_at": "2026-05-03 05:24:44",
    "region": "huangbeiling",
    "unit_price": 103.3,
    "lat": 22.540577,
    "lng": 114.135899
  },
  {
    "title": "整租·深业东岭一期 2室1厅 东南",
    "community": "深业东岭一期",
    "area": "63.00",
    "rooms": "2室1厅",
    "direction": "东南",
    "floor": "",
    "price": "6500",
    "tags": "",
    "source": "",
    "url": "https://sz.lianjia.com/zufang/SZ2154199481694814208.html",
    "rent_type": "整租",
    "location": "罗湖区-黄贝岭-深业东岭一期",
    "scraped_at": "2026-05-03 05:24:44",
    "region": "huangbeiling",
    "unit_price": 103.2,
    "lat": 22.55175,
    "lng": 114.13511
  },
  {
    "title": "整租·中山花园大厦 3室2厅 西南",
    "community": "中山花园大厦",
    "area": "104.00",
    "rooms": "3室2厅",
    "direction": "西南",
    "floor": "",
    "price": "6600",
    "tags": "",
    "source": "",
    "url": "https://sz.lianjia.com/zufang/SZ2154051749147574272.html",
    "rent_type": "整租",
    "location": "罗湖区-黄贝岭-中山花园大厦",
    "scraped_at": "2026-05-03 05:24:50",
    "region": "huangbeiling",
    "unit_price": 63.5,
    "lat": 22.548684,
    "lng": 114.135312
  },
  {
    "title": "整租·朗钜御风庭 1室1厅 南",
    "community": "朗钜御风庭",
    "area": "45.79",
    "rooms": "1室1厅",
    "direction": "南",
    "floor": "",
    "price": "4200",
    "tags": "",
    "source": "",
    "url": "https://sz.lianjia.com/zufang/SZ2154541316048945152.html",
    "rent_type": "整租",
    "location": "罗湖区-黄贝岭-朗钜御风庭",
    "scraped_at": "2026-05-03 05:24:53",
    "region": "huangbeiling",
    "unit_price": 91.7,
    "lat": 22.541544,
    "lng": 114.131593
  },
  {
    "title": "整租·怡泰大厦 2室1厅 南",
    "community": "怡泰大厦",
    "area": "57.00",
    "rooms": "2室1厅",
    "direction": "南",
    "floor": "",
    "price": "3600",
    "tags": "",
    "source": "",
    "url": "https://sz.lianjia.com/zufang/SZ2154522956192022528.html",
    "rent_type": "整租",
    "location": "罗湖区-黄贝岭-怡泰大厦",
    "scraped_at": "2026-05-03 05:24:53",
    "region": "huangbeiling",
    "unit_price": 63.2,
    "lat": 22.554349,
    "lng": 114.127959
  },
  {
    "title": "整租·怡泰大厦 1室1厅 复式 东南",
    "community": "怡泰大厦",
    "area": "35.19",
    "rooms": "1室1厅",
    "direction": "",
    "floor": "",
    "price": "3500",
    "tags": "",
    "source": "",
    "url": "https://sz.lianjia.com/zufang/SZ2150545079784177664.html",
    "rent_type": "整租",
    "location": "罗湖区-黄贝岭-怡泰大厦",
    "scraped_at": "2026-05-03 05:24:44",
    "region": "huangbeiling",
    "unit_price": 99.5,
    "lat": 22.554349,
    "lng": 114.127959
  },
  {
    "title": "整租·新天地名居 1室1厅 西南",
    "community": "新天地名居",
    "area": "39.27",
    "rooms": "1室1厅",
    "direction": "西南",
    "floor": "",
    "price": "4000",
    "tags": "",
    "source": "",
    "url": "https://sz.lianjia.com/zufang/SZ2150621637861441536.html",
    "rent_type": "整租",
    "location": "罗湖区-黄贝岭-新天地名居",
    "scraped_at": "2026-05-03 05:24:56",
    "region": "huangbeiling",
    "unit_price": 101.9,
    "lat": 22.55102,
    "lng": 114.1361
  },
  {
    "title": "整租·新天地名居 1室1厅 西北",
    "community": "新天地名居",
    "area": "39.00",
    "rooms": "1室1厅",
    "direction": "西北",
    "floor": "",
    "price": "4200",
    "tags": "",
    "source": "",
    "url": "https://sz.lianjia.com/zufang/SZ2149810543882403840.html",
    "rent_type": "整租",
    "location": "罗湖区-黄贝岭-新天地名居",
    "scraped_at": "2026-05-03 05:24:39",
    "region": "huangbeiling",
    "unit_price": 107.7,
    "lat": 22.55102,
    "lng": 114.1361
  },
  {
    "title": "整租·益田御龙华府 3室2厅 西南",
    "community": "益田御龙华府",
    "area": "111.28",
    "rooms": "3室2厅",
    "direction": "西南",
    "floor": "",
    "price": "12000",
    "tags": "",
    "source": "",
    "url": "https://sz.lianjia.com/zufang/SZ2156293112626937856.html",
    "rent_type": "整租",
    "location": "罗湖区-黄贝岭-益田御龙华府",
    "scraped_at": "2026-05-03 05:24:42",
    "region": "huangbeiling",
    "unit_price": 107.8,
    "lat": 22.554368,
    "lng": 114.131307
  },
  {
    "title": "整租·益田御龙华府 3室2厅 南",
    "community": "益田御龙华府",
    "area": "110.46",
    "rooms": "3室2厅",
    "direction": "南",
    "floor": "",
    "price": "11000",
    "tags": "",
    "source": "",
    "url": "https://sz.lianjia.com/zufang/SZ2156291151924035584.html",
    "rent_type": "整租",
    "location": "罗湖区-黄贝岭-益田御龙华府",
    "scraped_at": "2026-05-03 05:24:39",
    "region": "huangbeiling",
    "unit_price": 99.6,
    "lat": 22.554368,
    "lng": 114.131307
  },
  {
    "title": "整租·益田御龙华府 3室2厅 西南",
    "community": "益田御龙华府",
    "area": "96.57",
    "rooms": "3室2厅",
    "direction": "西南",
    "floor": "",
    "price": "10000",
    "tags": "",
    "source": "",
    "url": "https://sz.lianjia.com/zufang/SZ2156293569801879552.html",
    "rent_type": "整租",
    "location": "罗湖区-黄贝岭-益田御龙华府",
    "scraped_at": "2026-05-03 05:24:42",
    "region": "huangbeiling",
    "unit_price": 103.6,
    "lat": 22.554368,
    "lng": 114.131307
  },
  {
    "title": "整租·益田御龙华府 3室2厅 西南",
    "community": "益田御龙华府",
    "area": "110.18",
    "rooms": "3室2厅",
    "direction": "西南",
    "floor": "",
    "price": "11000",
    "tags": "",
    "source": "",
    "url": "https://sz.lianjia.com/zufang/SZ2156290849946730496.html",
    "rent_type": "整租",
    "location": "罗湖区-黄贝岭-益田御龙华府",
    "scraped_at": "2026-05-03 05:24:42",
    "region": "huangbeiling",
    "unit_price": 99.8,
    "lat": 22.554368,
    "lng": 114.131307
  },
  {
    "title": "整租·益田御龙华府 3室2厅 南",
    "community": "益田御龙华府",
    "area": "95.69",
    "rooms": "3室2厅",
    "direction": "南",
    "floor": "",
    "price": "10000",
    "tags": "",
    "source": "",
    "url": "https://sz.lianjia.com/zufang/SZ2156291389732683776.html",
    "rent_type": "整租",
    "location": "罗湖区-黄贝岭-益田御龙华府",
    "scraped_at": "2026-05-03 05:24:42",
    "region": "huangbeiling",
    "unit_price": 104.5,
    "lat": 22.554368,
    "lng": 114.131307
  },
  {
    "title": "整租·益田御龙华府 3室2厅 南",
    "community": "益田御龙华府",
    "area": "95.69",
    "rooms": "3室2厅",
    "direction": "南",
    "floor": "",
    "price": "10000",
    "tags": "",
    "source": "",
    "url": "https://sz.lianjia.com/zufang/SZ2156294936343871488.html",
    "rent_type": "整租",
    "location": "罗湖区-黄贝岭-益田御龙华府",
    "scraped_at": "2026-05-03 05:24:53",
    "region": "huangbeiling",
    "unit_price": 104.5,
    "lat": 22.554368,
    "lng": 114.131307
  },
  {
    "title": "整租·文锦渡海关三院 3室1厅 南",
    "community": "文锦渡海关三院",
    "area": "79.78",
    "rooms": "3室1厅",
    "direction": "南",
    "floor": "",
    "price": "4500",
    "tags": "",
    "source": "",
    "url": "https://sz.lianjia.com/zufang/SZ2156349334973579264.html",
    "rent_type": "整租",
    "location": "罗湖区-黄贝岭-文锦渡海关三院",
    "scraped_at": "2026-05-03 05:24:44",
    "region": "huangbeiling",
    "unit_price": 56.4,
    "lat": 22.54573,
    "lng": 114.1334
  },
  {
    "title": "整租·深业东岭一期 1室1厅 东",
    "community": "深业东岭一期",
    "area": "45.00",
    "rooms": "1室1厅",
    "direction": "东",
    "floor": "",
    "price": "4500",
    "tags": "",
    "source": "",
    "url": "https://sz.lianjia.com/zufang/SZ2156342061408714752.html",
    "rent_type": "整租",
    "location": "罗湖区-黄贝岭-深业东岭一期",
    "scraped_at": "2026-05-03 05:24:44",
    "region": "huangbeiling",
    "unit_price": 100.0,
    "lat": 22.55175,
    "lng": 114.13511
  },
  {
    "title": "整租·深业东岭二期 3室2厅 西南",
    "community": "深业东岭二期",
    "area": "71.00",
    "rooms": "3室2厅",
    "direction": "西南",
    "floor": "",
    "price": "7500",
    "tags": "",
    "source": "",
    "url": "https://sz.lianjia.com/zufang/SZ2156686539600429056.html",
    "rent_type": "整租",
    "location": "罗湖区-黄贝岭-深业东岭二期",
    "scraped_at": "2026-05-03 05:24:44",
    "region": "huangbeiling",
    "unit_price": 105.6,
    "lat": 22.552549,
    "lng": 114.135673
  },
  {
    "title": "整租·沁芳名苑 2室2厅 东南",
    "community": "沁芳名苑",
    "area": "76.87",
    "rooms": "2室2厅",
    "direction": "东南",
    "floor": "",
    "price": "8000",
    "tags": "",
    "source": "",
    "url": "https://sz.lianjia.com/zufang/SZ2156733841648123904.html",
    "rent_type": "整租",
    "location": "罗湖区-黄贝岭-沁芳名苑",
    "scraped_at": "2026-05-03 05:24:44",
    "region": "huangbeiling",
    "unit_price": 104.1,
    "lat": 22.557829,
    "lng": 114.134309
  },
  {
    "title": "整租·沁芳名苑 4室2厅 东北",
    "community": "沁芳名苑",
    "area": "233.00",
    "rooms": "4室2厅",
    "direction": "东北",
    "floor": "",
    "price": "20000",
    "tags": "",
    "source": "",
    "url": "https://sz.lianjia.com/zufang/SZ1837358906058211328.html",
    "rent_type": "整租",
    "location": "罗湖区-黄贝岭-沁芳名苑",
    "scraped_at": "2026-05-03 05:24:46",
    "region": "huangbeiling",
    "unit_price": 85.8,
    "lat": 22.557829,
    "lng": 114.134309
  },
  {
    "title": "整租·文锦花园 2室1厅 南",
    "community": "文锦花园",
    "area": "75.80",
    "rooms": "2室1厅",
    "direction": "南",
    "floor": "",
    "price": "4500",
    "tags": "",
    "source": "",
    "url": "https://sz.lianjia.com/zufang/SZ1951887240577679360.html",
    "rent_type": "整租",
    "location": "罗湖区-黄贝岭-文锦花园",
    "scraped_at": "2026-05-03 05:24:46",
    "region": "huangbeiling",
    "unit_price": 59.4,
    "lat": 22.543456,
    "lng": 114.132582
  },
  {
    "title": "整租·翠华花园 3室2厅 南",
    "community": "翠华花园",
    "area": "78.00",
    "rooms": "3室2厅",
    "direction": "南",
    "floor": "",
    "price": "5500",
    "tags": "",
    "source": "",
    "url": "https://sz.lianjia.com/zufang/SZ2127079048046706688.html",
    "rent_type": "整租",
    "location": "罗湖区-黄贝岭-翠华花园",
    "scraped_at": "2026-05-03 05:24:39",
    "region": "huangbeiling",
    "unit_price": 70.5,
    "lat": 22.555547,
    "lng": 114.13238
  },
  {
    "title": "整租·翠华花园 4室2厅 东南",
    "community": "翠华花园",
    "area": "117.00",
    "rooms": "4室2厅",
    "direction": "东南",
    "floor": "",
    "price": "7000",
    "tags": "",
    "source": "",
    "url": "https://sz.lianjia.com/zufang/SZ2126973925337333760.html",
    "rent_type": "整租",
    "location": "罗湖区-黄贝岭-翠华花园",
    "scraped_at": "2026-05-03 05:24:39",
    "region": "huangbeiling",
    "unit_price": 59.8,
    "lat": 22.555547,
    "lng": 114.13238
  },
  {
    "title": "整租·湖滨新村 3室2厅 西",
    "community": "湖滨新村",
    "area": "81.04",
    "rooms": "3室2厅",
    "direction": "西",
    "floor": "",
    "price": "4300",
    "tags": "",
    "source": "",
    "url": "https://sz.lianjia.com/zufang/SZ2138209789669277696.html",
    "rent_type": "整租",
    "location": "罗湖区-黄贝岭-湖滨新村",
    "scraped_at": "2026-05-03 05:24:46",
    "region": "huangbeiling",
    "unit_price": 53.1,
    "lat": 22.559493,
    "lng": 114.138129
  },
  {
    "title": "整租·怡景花园-荷花村 3室2厅 东南",
    "community": "怡景花园-荷花村",
    "area": "103.00",
    "rooms": "3室2厅",
    "direction": "东南",
    "floor": "",
    "price": "7000",
    "tags": "",
    "source": "",
    "url": "https://sz.lianjia.com/zufang/SZ2088871722764730368.html",
    "rent_type": "整租",
    "location": "罗湖区-黄贝岭-怡景花园",
    "scraped_at": "2026-05-03 05:24:42",
    "region": "huangbeiling",
    "unit_price": 68.0,
    "lat": 22.555285,
    "lng": 114.129922
  },
  {
    "title": "整租·万科俊园 6室2厅 西南",
    "community": "万科俊园",
    "area": "327.00",
    "rooms": "6室2厅",
    "direction": "西南",
    "floor": "",
    "price": "18000",
    "tags": "",
    "source": "",
    "url": "https://sz.lianjia.com/zufang/SZ2090098189523746816.html",
    "rent_type": "整租",
    "location": "罗湖区-黄贝岭-万科俊园",
    "scraped_at": "2026-05-03 05:24:42",
    "region": "huangbeiling",
    "unit_price": 55.0,
    "lat": 22.551416,
    "lng": 114.131009
  },
  {
    "title": "整租·集浩花园 4室2厅 西南",
    "community": "集浩花园",
    "area": "113.06",
    "rooms": "4室2厅",
    "direction": "西南",
    "floor": "",
    "price": "7500",
    "tags": "",
    "source": "",
    "url": "https://sz.lianjia.com/zufang/SZ2091398983627833344.html",
    "rent_type": "整租",
    "location": "罗湖区-黄贝岭-集浩花园",
    "scraped_at": "2026-05-03 05:24:42",
    "region": "huangbeiling",
    "unit_price": 66.3,
    "lat": 22.549667,
    "lng": 114.135532
  },
  {
    "title": "整租·深业东岭一期 3室2厅 西北",
    "community": "深业东岭一期",
    "area": "85.83",
    "rooms": "3室2厅",
    "direction": "西北",
    "floor": "",
    "price": "7800",
    "tags": "",
    "source": "",
    "url": "https://sz.lianjia.com/zufang/SZ2090434156851888128.html",
    "rent_type": "整租",
    "location": "罗湖区-黄贝岭-深业东岭一期",
    "scraped_at": "2026-05-03 05:24:42",
    "region": "huangbeiling",
    "unit_price": 90.9,
    "lat": 22.55175,
    "lng": 114.13511
  },
  {
    "title": "整租·佳米基尚领公苑 5室2厅 复式 东南",
    "community": "佳米基尚领公苑",
    "area": "271.00",
    "rooms": "5室2厅",
    "direction": "",
    "floor": "",
    "price": "30000",
    "tags": "",
    "source": "",
    "url": "https://sz.lianjia.com/zufang/SZ2102615928352014336.html",
    "rent_type": "整租",
    "location": "罗湖区-黄贝岭-佳米基尚领公苑",
    "scraped_at": "2026-05-03 05:24:42",
    "region": "huangbeiling",
    "unit_price": 110.7,
    "lat": 22.55102,
    "lng": 114.1361
  },
  {
    "title": "整租·怡泰大厦 2室1厅 东南/南",
    "community": "怡泰大厦",
    "area": "67.54",
    "rooms": "2室1厅",
    "direction": "东南/南",
    "floor": "",
    "price": "4500",
    "tags": "",
    "source": "",
    "url": "https://sz.lianjia.com/zufang/SZ2104775261533765632.html",
    "rent_type": "整租",
    "location": "罗湖区-黄贝岭-怡泰大厦",
    "scraped_at": "2026-05-03 05:24:42",
    "region": "huangbeiling",
    "unit_price": 66.6,
    "lat": 22.554349,
    "lng": 114.127959
  },
  {
    "title": "整租·深业东岭一期 2室2厅 西北",
    "community": "深业东岭一期",
    "area": "62.00",
    "rooms": "2室2厅",
    "direction": "西北",
    "floor": "",
    "price": "5600",
    "tags": "",
    "source": "",
    "url": "https://sz.lianjia.com/zufang/SZ2105689332747599872.html",
    "rent_type": "整租",
    "location": "罗湖区-黄贝岭-深业东岭一期",
    "scraped_at": "2026-05-03 05:24:42",
    "region": "huangbeiling",
    "unit_price": 90.3,
    "lat": 22.55175,
    "lng": 114.13511
  },
  {
    "title": "整租·碧波花园北区 3室2厅 东南",
    "community": "碧波花园北区",
    "area": "150.00",
    "rooms": "3室2厅",
    "direction": "东南",
    "floor": "",
    "price": "5300",
    "tags": "",
    "source": "",
    "url": "https://sz.lianjia.com/zufang/SZ2106572351545016320.html",
    "rent_type": "整租",
    "location": "罗湖区-黄贝岭-碧波花园北区",
    "scraped_at": "2026-05-03 05:24:42",
    "region": "huangbeiling",
    "unit_price": 35.3,
    "lat": 22.561188,
    "lng": 114.142727
  },
  {
    "title": "整租·深业东岭二期 3室2厅 东南/南",
    "community": "深业东岭二期",
    "area": "86.95",
    "rooms": "3室2厅",
    "direction": "东南/南",
    "floor": "",
    "price": "9500",
    "tags": "",
    "source": "",
    "url": "https://sz.lianjia.com/zufang/SZ2106690077089333248.html",
    "rent_type": "整租",
    "location": "罗湖区-黄贝岭-深业东岭二期",
    "scraped_at": "2026-05-03 05:24:42",
    "region": "huangbeiling",
    "unit_price": 109.3,
    "lat": 22.552549,
    "lng": 114.135673
  },
  {
    "title": "整租·集浩大厦 3室2厅 南",
    "community": "集浩大厦",
    "area": "108.00",
    "rooms": "3室2厅",
    "direction": "南",
    "floor": "",
    "price": "5000",
    "tags": "",
    "source": "",
    "url": "https://sz.lianjia.com/zufang/SZ2107063639541284864.html",
    "rent_type": "整租",
    "location": "罗湖区-黄贝岭-集浩大厦",
    "scraped_at": "2026-05-03 05:24:42",
    "region": "huangbeiling",
    "unit_price": 46.3,
    "lat": 22.546469,
    "lng": 114.135433
  },
  {
    "title": "整租·翠华花园 3室2厅 南",
    "community": "翠华花园",
    "area": "81.00",
    "rooms": "3室2厅",
    "direction": "南",
    "floor": "",
    "price": "6200",
    "tags": "",
    "source": "",
    "url": "https://sz.lianjia.com/zufang/SZ2106970399886540800.html",
    "rent_type": "整租",
    "location": "罗湖区-黄贝岭-翠华花园",
    "scraped_at": "2026-05-03 05:24:42",
    "region": "huangbeiling",
    "unit_price": 76.5,
    "lat": 22.555547,
    "lng": 114.13238
  },
  {
    "title": "整租·景贝北小区 2室2厅 南",
    "community": "景贝北小区",
    "area": "71.60",
    "rooms": "2室2厅",
    "direction": "南",
    "floor": "",
    "price": "3500",
    "tags": "",
    "source": "",
    "url": "https://sz.lianjia.com/zufang/SZ2109648399878848512.html",
    "rent_type": "整租",
    "location": "罗湖区-黄贝岭-景贝北小区",
    "scraped_at": "2026-05-03 05:24:50",
    "region": "huangbeiling",
    "unit_price": 48.9,
    "lat": 22.555269,
    "lng": 114.142387
  },
  {
    "title": "整租·文华花园 3室2厅 南",
    "community": "文华花园",
    "area": "118.00",
    "rooms": "3室2厅",
    "direction": "南",
    "floor": "",
    "price": "7300",
    "tags": "",
    "source": "",
    "url": "https://sz.lianjia.com/zufang/SZ2102269817657491456.html",
    "rent_type": "整租",
    "location": "罗湖区-黄贝岭-文华花园",
    "scraped_at": "2026-05-03 05:24:42",
    "region": "huangbeiling",
    "unit_price": 61.9,
    "lat": 22.544877,
    "lng": 114.137049
  },
  {
    "title": "整租·靖轩豪苑 3室2厅 南",
    "community": "靖轩豪苑",
    "area": "87.00",
    "rooms": "3室2厅",
    "direction": "南",
    "floor": "",
    "price": "8800",
    "tags": "",
    "source": "",
    "url": "https://sz.lianjia.com/zufang/SZ2102325033274703872.html",
    "rent_type": "整租",
    "location": "罗湖区-黄贝岭-靖轩豪苑",
    "scraped_at": "2026-05-03 05:24:42",
    "region": "huangbeiling",
    "unit_price": 101.1,
    "lat": 22.55036,
    "lng": 114.1342
  },
  {
    "title": "整租·翠华花园 3室2厅 南",
    "community": "翠华花园",
    "area": "82.00",
    "rooms": "3室2厅",
    "direction": "南",
    "floor": "",
    "price": "4900",
    "tags": "",
    "source": "",
    "url": "https://sz.lianjia.com/zufang/SZ2108895570734088192.html",
    "rent_type": "整租",
    "location": "罗湖区-黄贝岭-翠华花园",
    "scraped_at": "2026-05-03 05:24:42",
    "region": "huangbeiling",
    "unit_price": 59.8,
    "lat": 22.555547,
    "lng": 114.13238
  },
  {
    "title": "整租·深业东岭一期 1室1厅 南",
    "community": "深业东岭一期",
    "area": "45.00",
    "rooms": "1室1厅",
    "direction": "南",
    "floor": "",
    "price": "4800",
    "tags": "",
    "source": "",
    "url": "https://sz.lianjia.com/zufang/SZ2104892050812960768.html",
    "rent_type": "整租",
    "location": "罗湖区-黄贝岭-深业东岭一期",
    "scraped_at": "2026-05-03 05:24:42",
    "region": "huangbeiling",
    "unit_price": 106.7,
    "lat": 22.55175,
    "lng": 114.13511
  },
  {
    "title": "整租·乐扬枫景 1室0厅 东南",
    "community": "乐扬枫景",
    "area": "23.92",
    "rooms": "1室0厅",
    "direction": "东南",
    "floor": "",
    "price": "3200",
    "tags": "",
    "source": "",
    "url": "https://sz.lianjia.com/zufang/SZ2137545792712343552.html",
    "rent_type": "整租",
    "location": "罗湖区-黄贝岭-乐扬枫景",
    "scraped_at": "2026-05-03 05:24:42",
    "region": "huangbeiling",
    "unit_price": 133.8,
    "lat": 22.558301,
    "lng": 114.141511
  },
  {
    "title": "整租·怡景花园-桂花村 2室1厅 东南",
    "community": "怡景花园-桂花村",
    "area": "54.00",
    "rooms": "2室1厅",
    "direction": "东南",
    "floor": "",
    "price": "4600",
    "tags": "",
    "source": "",
    "url": "https://sz.lianjia.com/zufang/SZ2129845262166786048.html",
    "rent_type": "整租",
    "location": "罗湖区-黄贝岭-怡景花园",
    "scraped_at": "2026-05-03 05:24:42",
    "region": "huangbeiling",
    "unit_price": 85.2,
    "lat": 22.558414,
    "lng": 114.134051
  },
  {
    "title": "整租·鸿锦阁 1室1厅 南",
    "community": "鸿锦阁",
    "area": "39.21",
    "rooms": "1室1厅",
    "direction": "南",
    "floor": "",
    "price": "3000",
    "tags": "",
    "source": "",
    "url": "https://sz.lianjia.com/zufang/SZ2156987894441443328.html",
    "rent_type": "整租",
    "location": "罗湖区-黄贝岭-鸿锦阁",
    "scraped_at": "2026-05-03 05:24:42",
    "region": "huangbeiling",
    "unit_price": 76.5,
    "lat": 22.542718,
    "lng": 114.138131
  },
  {
    "title": "整租·深发花园 3室1厅 西北",
    "community": "深发花园",
    "area": "86.37",
    "rooms": "3室1厅",
    "direction": "西北",
    "floor": "",
    "price": "6000",
    "tags": "",
    "source": "",
    "url": "https://sz.lianjia.com/zufang/SZ2155998581759148032.html",
    "rent_type": "整租",
    "location": "罗湖区-黄贝岭-深发花园",
    "scraped_at": "2026-05-03 05:24:53",
    "region": "huangbeiling",
    "unit_price": 69.5,
    "lat": 22.550007,
    "lng": 114.135614
  },
  {
    "title": "整租·合正荣悦 2室2厅 东",
    "community": "合正荣悦",
    "area": "66.00",
    "rooms": "2室2厅",
    "direction": "东",
    "floor": "",
    "price": "6400",
    "tags": "",
    "source": "",
    "url": "https://sz.lianjia.com/zufang/SZ2150206782390140928.html",
    "rent_type": "整租",
    "location": "罗湖区-黄贝岭-合正荣悦",
    "scraped_at": "2026-05-03 05:24:44",
    "region": "huangbeiling",
    "unit_price": 97.0,
    "lat": 22.552565,
    "lng": 114.129534
  },
  {
    "title": "整租·益田御龙华府 3室2厅 东北",
    "community": "益田御龙华府",
    "area": "115.00",
    "rooms": "3室2厅",
    "direction": "东北",
    "floor": "",
    "price": "12500",
    "tags": "",
    "source": "",
    "url": "https://sz.lianjia.com/zufang/SZ2150260192825049088.html",
    "rent_type": "整租",
    "location": "罗湖区-黄贝岭-益田御龙华府",
    "scraped_at": "2026-05-03 05:24:44",
    "region": "huangbeiling",
    "unit_price": 108.7,
    "lat": 22.554368,
    "lng": 114.131307
  },
  {
    "title": "整租·鸿业苑三期 2室1厅 北",
    "community": "鸿业苑三期",
    "area": "93.30",
    "rooms": "2室1厅",
    "direction": "北",
    "floor": "",
    "price": "8000",
    "tags": "",
    "source": "",
    "url": "https://sz.lianjia.com/zufang/SZ2150501675620630528.html",
    "rent_type": "整租",
    "location": "罗湖区-黄贝岭-鸿业苑三期",
    "scraped_at": "2026-05-03 05:24:44",
    "region": "huangbeiling",
    "unit_price": 85.7,
    "lat": 22.55946,
    "lng": 114.12717
  },
  {
    "title": "整租·新天地名居 1室1厅 西",
    "community": "新天地名居",
    "area": "39.00",
    "rooms": "1室1厅",
    "direction": "西",
    "floor": "",
    "price": "4000",
    "tags": "",
    "source": "",
    "url": "https://sz.lianjia.com/zufang/SZ2150980943165259776.html",
    "rent_type": "整租",
    "location": "罗湖区-黄贝岭-新天地名居",
    "scraped_at": "2026-05-03 05:24:56",
    "region": "huangbeiling",
    "unit_price": 102.6,
    "lat": 22.55102,
    "lng": 114.1361
  },
  {
    "title": "整租·峰景台大厦 3室2厅 东",
    "community": "峰景台大厦",
    "area": "91.35",
    "rooms": "3室2厅",
    "direction": "东",
    "floor": "",
    "price": "5200",
    "tags": "",
    "source": "",
    "url": "https://sz.lianjia.com/zufang/SZ2151554152268824576.html",
    "rent_type": "整租",
    "location": "罗湖区-黄贝岭-峰景台大厦",
    "scraped_at": "2026-05-03 05:24:50",
    "region": "huangbeiling",
    "unit_price": 56.9,
    "lat": 22.554975,
    "lng": 114.14031
  },
  {
    "title": "整租·湖滨阁 3室2厅 南",
    "community": "湖滨阁",
    "area": "87.00",
    "rooms": "3室2厅",
    "direction": "南",
    "floor": "",
    "price": "6600",
    "tags": "",
    "source": "",
    "url": "https://sz.lianjia.com/zufang/SZ2153494012827271168.html",
    "rent_type": "整租",
    "location": "罗湖区-黄贝岭-湖滨阁",
    "scraped_at": "2026-05-03 05:24:44",
    "region": "huangbeiling",
    "unit_price": 75.9,
    "lat": 22.558098,
    "lng": 114.138571
  },
  {
    "title": "整租·锦星花园 2室2厅 南",
    "community": "锦星花园",
    "area": "76.00",
    "rooms": "2室2厅",
    "direction": "南",
    "floor": "",
    "price": "5000",
    "tags": "",
    "source": "",
    "url": "https://sz.lianjia.com/zufang/SZ2153511485341433856.html",
    "rent_type": "整租",
    "location": "罗湖区-黄贝岭-锦星花园",
    "scraped_at": "2026-05-03 05:24:44",
    "region": "huangbeiling",
    "unit_price": 65.8,
    "lat": 22.541958,
    "lng": 114.133374
  },
  {
    "title": "整租·电视台家属大院 3室1厅 南",
    "community": "电视台家属大院",
    "area": "96.00",
    "rooms": "3室1厅",
    "direction": "南",
    "floor": "",
    "price": "5900",
    "tags": "",
    "source": "",
    "url": "https://sz.lianjia.com/zufang/SZ2145040003531538432.html",
    "rent_type": "整租",
    "location": "罗湖区-黄贝岭-电视台家属大院",
    "scraped_at": "2026-05-03 05:24:50",
    "region": "huangbeiling",
    "unit_price": 61.5,
    "lat": 22.558304,
    "lng": 114.140057
  },
  {
    "title": "整租·朗钜御风庭 2室1厅 东",
    "community": "朗钜御风庭",
    "area": "65.09",
    "rooms": "2室1厅",
    "direction": "东",
    "floor": "",
    "price": "6500",
    "tags": "",
    "source": "",
    "url": "https://sz.lianjia.com/zufang/SZ2145034122991501312.html",
    "rent_type": "整租",
    "location": "罗湖区-黄贝岭-朗钜御风庭",
    "scraped_at": "2026-05-03 05:24:50",
    "region": "huangbeiling",
    "unit_price": 99.9,
    "lat": 22.541544,
    "lng": 114.131593
  },
  {
    "title": "整租·新天地名居 2室1厅 西南",
    "community": "新天地名居",
    "area": "53.56",
    "rooms": "2室1厅",
    "direction": "西南",
    "floor": "",
    "price": "5500",
    "tags": "",
    "source": "",
    "url": "https://sz.lianjia.com/zufang/SZ2145007552239239168.html",
    "rent_type": "整租",
    "location": "罗湖区-黄贝岭-新天地名居",
    "scraped_at": "2026-05-03 05:24:50",
    "region": "huangbeiling",
    "unit_price": 102.7,
    "lat": 22.55102,
    "lng": 114.1361
  },
  {
    "title": "整租·翠华花园 3室2厅 东南",
    "community": "翠华花园",
    "area": "76.80",
    "rooms": "3室2厅",
    "direction": "东南",
    "floor": "",
    "price": "5500",
    "tags": "",
    "source": "",
    "url": "https://sz.lianjia.com/zufang/SZ2145091066213171200.html",
    "rent_type": "整租",
    "location": "罗湖区-黄贝岭-翠华花园",
    "scraped_at": "2026-05-03 05:24:50",
    "region": "huangbeiling",
    "unit_price": 71.6,
    "lat": 22.555547,
    "lng": 114.13238
  },
  {
    "title": "整租·天井湖小区 3室1厅 南",
    "community": "天井湖小区",
    "area": "76.59",
    "rooms": "3室1厅",
    "direction": "南",
    "floor": "",
    "price": "4800",
    "tags": "",
    "source": "",
    "url": "https://sz.lianjia.com/zufang/SZ2145923458201026560.html",
    "rent_type": "整租",
    "location": "罗湖区-黄贝岭-天井湖小区",
    "scraped_at": "2026-05-03 05:24:44",
    "region": "huangbeiling",
    "unit_price": 62.7,
    "lat": 22.559572,
    "lng": 114.140439
  },
  {
    "title": "整租·东深小区 3室2厅 南",
    "community": "东深小区",
    "area": "90.80",
    "rooms": "3室2厅",
    "direction": "南",
    "floor": "",
    "price": "6500",
    "tags": "",
    "source": "",
    "url": "https://sz.lianjia.com/zufang/SZ2152006736133750784.html",
    "rent_type": "整租",
    "location": "罗湖区-黄贝岭-东深小区",
    "scraped_at": "2026-05-03 05:24:56",
    "region": "huangbeiling",
    "unit_price": 71.6,
    "lat": 22.552208,
    "lng": 114.137485
  },
  {
    "title": "整租·合正荣悦 4室2厅 南",
    "community": "合正荣悦",
    "area": "134.00",
    "rooms": "4室2厅",
    "direction": "南",
    "floor": "",
    "price": "16000",
    "tags": "",
    "source": "",
    "url": "https://sz.lianjia.com/zufang/SZ2152696447865192448.html",
    "rent_type": "整租",
    "location": "罗湖区-黄贝岭-合正荣悦",
    "scraped_at": "2026-05-03 05:24:50",
    "region": "huangbeiling",
    "unit_price": 119.4,
    "lat": 22.552565,
    "lng": 114.129534
  },
  {
    "title": "整租·深业东岭一期 1室1厅 西南",
    "community": "深业东岭一期",
    "area": "45.00",
    "rooms": "1室1厅",
    "direction": "西南",
    "floor": "",
    "price": "4800",
    "tags": "",
    "source": "",
    "url": "https://sz.lianjia.com/zufang/SZ2155968289254146048.html",
    "rent_type": "整租",
    "location": "罗湖区-黄贝岭-深业东岭一期",
    "scraped_at": "2026-05-03 05:24:44",
    "region": "huangbeiling",
    "unit_price": 106.7,
    "lat": 22.55175,
    "lng": 114.13511
  },
  {
    "title": "整租·翠华花园 2室2厅 南",
    "community": "翠华花园",
    "area": "64.00",
    "rooms": "2室2厅",
    "direction": "南",
    "floor": "",
    "price": "4500",
    "tags": "",
    "source": "",
    "url": "https://sz.lianjia.com/zufang/SZ2155568671592808448.html",
    "rent_type": "整租",
    "location": "罗湖区-黄贝岭-翠华花园",
    "scraped_at": "2026-05-03 05:24:53",
    "region": "huangbeiling",
    "unit_price": 70.3,
    "lat": 22.555547,
    "lng": 114.13238
  },
  {
    "title": "整租·文锦渡海关二院 3室2厅 南",
    "community": "文锦渡海关二院",
    "area": "80.00",
    "rooms": "3室2厅",
    "direction": "南",
    "floor": "",
    "price": "4600",
    "tags": "",
    "source": "",
    "url": "https://sz.lianjia.com/zufang/SZ2140762637292535808.html",
    "rent_type": "整租",
    "location": "罗湖区-黄贝岭-文锦渡海关二院",
    "scraped_at": "2026-05-03 05:24:46",
    "region": "huangbeiling",
    "unit_price": 57.5,
    "lat": 22.540551,
    "lng": 114.136661
  },
  {
    "title": "整租·益田御龙华府 4室2厅 西北",
    "community": "益田御龙华府",
    "area": "115.00",
    "rooms": "4室2厅",
    "direction": "西北",
    "floor": "",
    "price": "12000",
    "tags": "",
    "source": "",
    "url": "https://sz.lianjia.com/zufang/SZ2140760554409558016.html",
    "rent_type": "整租",
    "location": "罗湖区-黄贝岭-益田御龙华府",
    "scraped_at": "2026-05-03 05:24:46",
    "region": "huangbeiling",
    "unit_price": 104.3,
    "lat": 22.554368,
    "lng": 114.131307
  },
  {
    "title": "整租·碧中园 2室1厅 东南",
    "community": "碧中园",
    "area": "77.88",
    "rooms": "2室1厅",
    "direction": "东南",
    "floor": "",
    "price": "6000",
    "tags": "",
    "source": "",
    "url": "https://sz.lianjia.com/zufang/SZ2138853004349014016.html",
    "rent_type": "整租",
    "location": "罗湖区-黄贝岭-碧中园",
    "scraped_at": "2026-05-03 05:24:46",
    "region": "huangbeiling",
    "unit_price": 77.0,
    "lat": 22.55102,
    "lng": 114.1361
  },
  {
    "title": "整租·怡泰大厦 3室2厅 南",
    "community": "怡泰大厦",
    "area": "98.00",
    "rooms": "3室2厅",
    "direction": "南",
    "floor": "",
    "price": "6700",
    "tags": "",
    "source": "",
    "url": "https://sz.lianjia.com/zufang/SZ2139724502752296960.html",
    "rent_type": "整租",
    "location": "罗湖区-黄贝岭-怡泰大厦",
    "scraped_at": "2026-05-03 05:24:50",
    "region": "huangbeiling",
    "unit_price": 68.4,
    "lat": 22.554349,
    "lng": 114.127959
  },
  {
    "title": "整租·新天地名居 2室1厅 东北",
    "community": "新天地名居",
    "area": "54.16",
    "rooms": "2室1厅",
    "direction": "东北",
    "floor": "",
    "price": "5500",
    "tags": "",
    "source": "",
    "url": "https://sz.lianjia.com/zufang/SZ2139084258839363584.html",
    "rent_type": "整租",
    "location": "罗湖区-黄贝岭-新天地名居",
    "scraped_at": "2026-05-03 05:24:46",
    "region": "huangbeiling",
    "unit_price": 101.6,
    "lat": 22.55102,
    "lng": 114.1361
  },
  {
    "title": "整租·深业东岭一期 3室2厅 东/东南/南",
    "community": "深业东岭一期",
    "area": "102.00",
    "rooms": "3室2厅",
    "direction": "东/东南/南",
    "floor": "",
    "price": "8000",
    "tags": "",
    "source": "",
    "url": "https://sz.lianjia.com/zufang/SZ2141871766300000256.html",
    "rent_type": "整租",
    "location": "罗湖区-黄贝岭-深业东岭一期",
    "scraped_at": "2026-05-03 05:24:46",
    "region": "huangbeiling",
    "unit_price": 78.4,
    "lat": 22.55175,
    "lng": 114.13511
  },
  {
    "title": "整租·东湖大厦 3室2厅 东/南",
    "community": "东湖大厦",
    "area": "103.00",
    "rooms": "3室2厅",
    "direction": "东/南",
    "floor": "",
    "price": "5800",
    "tags": "",
    "source": "",
    "url": "https://sz.lianjia.com/zufang/SZ2004504877413171200.html",
    "rent_type": "整租",
    "location": "罗湖区-黄贝岭-东湖大厦",
    "scraped_at": "2026-05-03 05:24:46",
    "region": "huangbeiling",
    "unit_price": 56.3,
    "lat": 22.552208,
    "lng": 114.137485
  },
  {
    "title": "整租·文华花园 2室1厅 南",
    "community": "文华花园",
    "area": "78.00",
    "rooms": "2室1厅",
    "direction": "南",
    "floor": "",
    "price": "4900",
    "tags": "",
    "source": "",
    "url": "https://sz.lianjia.com/zufang/SZ2144074307267985408.html",
    "rent_type": "整租",
    "location": "罗湖区-黄贝岭-文华花园",
    "scraped_at": "2026-05-03 05:24:53",
    "region": "huangbeiling",
    "unit_price": 62.8,
    "lat": 22.544877,
    "lng": 114.137049
  },
  {
    "title": "整租·深业东岭二期 2室1厅 西北",
    "community": "深业东岭二期",
    "area": "55.00",
    "rooms": "2室1厅",
    "direction": "西北",
    "floor": "",
    "price": "6200",
    "tags": "",
    "source": "",
    "url": "https://sz.lianjia.com/zufang/SZ2144075968996704256.html",
    "rent_type": "整租",
    "location": "罗湖区-黄贝岭-深业东岭二期",
    "scraped_at": "2026-05-03 05:24:53",
    "region": "huangbeiling",
    "unit_price": 112.7,
    "lat": 22.552549,
    "lng": 114.135673
  },
  {
    "title": "整租·深业东岭一期 2室1厅 西北",
    "community": "深业东岭一期",
    "area": "60.00",
    "rooms": "2室1厅",
    "direction": "西北",
    "floor": "",
    "price": "5600",
    "tags": "",
    "source": "",
    "url": "https://sz.lianjia.com/zufang/SZ2144282248130592768.html",
    "rent_type": "整租",
    "location": "罗湖区-黄贝岭-深业东岭一期",
    "scraped_at": "2026-05-03 05:24:53",
    "region": "huangbeiling",
    "unit_price": 93.3,
    "lat": 22.55175,
    "lng": 114.13511
  },
  {
    "title": "整租·锦上花家园 2室1厅 西南",
    "community": "锦上花家园",
    "area": "50.00",
    "rooms": "2室1厅",
    "direction": "西南",
    "floor": "",
    "price": "4800",
    "tags": "",
    "source": "",
    "url": "https://sz.lianjia.com/zufang/SZ2142891883477598208.html",
    "rent_type": "整租",
    "location": "罗湖区-黄贝岭-锦上花家园",
    "scraped_at": "2026-05-03 05:24:53",
    "region": "huangbeiling",
    "unit_price": 96.0,
    "lat": 22.540577,
    "lng": 114.135899
  },
  {
    "title": "整租·新天地名居 1室1厅 东南",
    "community": "新天地名居",
    "area": "38.05",
    "rooms": "1室1厅",
    "direction": "东南",
    "floor": "",
    "price": "4000",
    "tags": "",
    "source": "",
    "url": "https://sz.lianjia.com/zufang/SZ2143383600240787456.html",
    "rent_type": "整租",
    "location": "罗湖区-黄贝岭-新天地名居",
    "scraped_at": "2026-05-03 05:24:53",
    "region": "huangbeiling",
    "unit_price": 105.1,
    "lat": 22.55102,
    "lng": 114.1361
  },
  {
    "title": "整租·汇鑫花园 3室1厅 北",
    "community": "汇鑫花园",
    "area": "72.00",
    "rooms": "3室1厅",
    "direction": "北",
    "floor": "",
    "price": "6600",
    "tags": "",
    "source": "",
    "url": "https://sz.lianjia.com/zufang/SZ2143925808345907200.html",
    "rent_type": "整租",
    "location": "罗湖区-黄贝岭-汇鑫花园",
    "scraped_at": "2026-05-03 05:24:53",
    "region": "huangbeiling",
    "unit_price": 91.7,
    "lat": 22.543081,
    "lng": 114.135713
  },
  {
    "title": "整租·新天地名居 1室1厅 东北",
    "community": "新天地名居",
    "area": "39.00",
    "rooms": "1室1厅",
    "direction": "东北",
    "floor": "",
    "price": "4800",
    "tags": "",
    "source": "",
    "url": "https://sz.lianjia.com/zufang/SZ2153410243097264128.html",
    "rent_type": "整租",
    "location": "罗湖区-黄贝岭-新天地名居",
    "scraped_at": "2026-05-03 05:24:50",
    "region": "huangbeiling",
    "unit_price": 123.1,
    "lat": 22.55102,
    "lng": 114.1361
  },
  {
    "title": "整租·锦上花家园 3室1厅 南",
    "community": "锦上花家园",
    "area": "85.00",
    "rooms": "3室1厅",
    "direction": "南",
    "floor": "",
    "price": "6200",
    "tags": "",
    "source": "",
    "url": "https://sz.lianjia.com/zufang/SZ2152317757612359680.html",
    "rent_type": "整租",
    "location": "罗湖区-黄贝岭-锦上花家园",
    "scraped_at": "2026-05-03 05:24:56",
    "region": "huangbeiling",
    "unit_price": 72.9,
    "lat": 22.540577,
    "lng": 114.135899
  },
  {
    "title": "整租·深业东岭一期 3室2厅 西南",
    "community": "深业东岭一期",
    "area": "102.00",
    "rooms": "3室2厅",
    "direction": "西南",
    "floor": "",
    "price": "8500",
    "tags": "",
    "source": "",
    "url": "https://sz.lianjia.com/zufang/SZ2158420100850384896.html",
    "rent_type": "整租",
    "location": "罗湖区-黄贝岭-深业东岭一期",
    "scraped_at": "2026-05-03 05:24:46",
    "region": "huangbeiling",
    "unit_price": 83.3,
    "lat": 22.55175,
    "lng": 114.13511
  },
  {
    "title": "整租·新天地名居 1室1厅 东北",
    "community": "新天地名居",
    "area": "38.00",
    "rooms": "1室1厅",
    "direction": "东北",
    "floor": "",
    "price": "4200",
    "tags": "",
    "source": "",
    "url": "https://sz.lianjia.com/zufang/SZ2145867245652279296.html",
    "rent_type": "整租",
    "location": "罗湖区-黄贝岭-新天地名居",
    "scraped_at": "2026-05-03 05:24:46",
    "region": "huangbeiling",
    "unit_price": 110.5,
    "lat": 22.55102,
    "lng": 114.1361
  },
  {
    "title": "整租·宁水花园 3室2厅 南",
    "community": "宁水花园",
    "area": "75.00",
    "rooms": "3室2厅",
    "direction": "南",
    "floor": "",
    "price": "4800",
    "tags": "",
    "source": "",
    "url": "https://sz.lianjia.com/zufang/SZ2150931348724908032.html",
    "rent_type": "整租",
    "location": "罗湖区-黄贝岭-宁水花园",
    "scraped_at": "2026-05-03 05:24:56",
    "region": "huangbeiling",
    "unit_price": 64.0,
    "lat": 22.561848,
    "lng": 114.145687
  },
  {
    "title": "整租·景园大厦(爱国路) 3室2厅 东南",
    "community": "景园大厦(爱国路)",
    "area": "103.00",
    "rooms": "3室2厅",
    "direction": "东南",
    "floor": "",
    "price": "5400",
    "tags": "",
    "source": "",
    "url": "https://sz.lianjia.com/zufang/SZ2161326878789468160.html",
    "rent_type": "整租",
    "location": "罗湖区-黄贝岭-景园大厦(爱国路)",
    "scraped_at": "2026-05-03 05:24:46",
    "region": "huangbeiling",
    "unit_price": 52.4,
    "lat": 22.56359,
    "lng": 114.13506
  },
  {
    "title": "整租·丹枫白露城东1号 1室1厅 东南",
    "community": "丹枫白露城东1号",
    "area": "69.00",
    "rooms": "1室1厅",
    "direction": "东南",
    "floor": "",
    "price": "5000",
    "tags": "",
    "source": "",
    "url": "https://sz.lianjia.com/zufang/SZ2153844529768169472.html",
    "rent_type": "整租",
    "location": "罗湖区-黄贝岭-丹枫白露城东",
    "scraped_at": "2026-05-03 05:24:50",
    "region": "huangbeiling",
    "unit_price": 72.5,
    "lat": 22.545036,
    "lng": 114.139403
  },
  {
    "title": "整租·丹枫白露城东1号 1室2厅 东北",
    "community": "丹枫白露城东1号",
    "area": "6900.00",
    "rooms": "1室2厅",
    "direction": "东北",
    "floor": "",
    "price": "5100",
    "tags": "",
    "source": "",
    "url": "https://sz.lianjia.com/zufang/SZ2150116150904619008.html",
    "rent_type": "整租",
    "location": "罗湖区-黄贝岭-丹枫白露城东",
    "scraped_at": "2026-05-03 05:24:46",
    "region": "huangbeiling",
    "unit_price": 0.7,
    "lat": 22.545036,
    "lng": 114.139403
  },
  {
    "title": "整租·庐峰翠苑 4室2厅 南",
    "community": "庐峰翠苑",
    "area": "132.00",
    "rooms": "4室2厅",
    "direction": "南",
    "floor": "",
    "price": "11500",
    "tags": "",
    "source": "",
    "url": "https://sz.lianjia.com/zufang/SZ2150139718547800064.html",
    "rent_type": "整租",
    "location": "罗湖区-黄贝岭-庐峰翠苑",
    "scraped_at": "2026-05-03 05:24:46",
    "region": "huangbeiling",
    "unit_price": 87.1,
    "lat": 22.55102,
    "lng": 114.1361
  },
  {
    "title": "整租·湖滨阁 3室2厅 东南",
    "community": "湖滨阁",
    "area": "103.00",
    "rooms": "3室2厅",
    "direction": "东南",
    "floor": "",
    "price": "7500",
    "tags": "",
    "source": "",
    "url": "https://sz.lianjia.com/zufang/SZ2146202446559444992.html",
    "rent_type": "整租",
    "location": "罗湖区-黄贝岭-湖滨阁",
    "scraped_at": "2026-05-03 05:24:46",
    "region": "huangbeiling",
    "unit_price": 72.8,
    "lat": 22.558098,
    "lng": 114.138571
  },
  {
    "title": "整租·翠园中学教工高中宿舍 3室2厅 南",
    "community": "翠园中学教工高中宿舍",
    "area": "91.66",
    "rooms": "3室2厅",
    "direction": "南",
    "floor": "",
    "price": "5500",
    "tags": "",
    "source": "",
    "url": "https://sz.lianjia.com/zufang/SZ2122999818262413312.html",
    "rent_type": "整租",
    "location": "罗湖区-黄贝岭-翠园中学教工高中宿舍",
    "scraped_at": "2026-05-03 05:24:46",
    "region": "huangbeiling",
    "unit_price": 60.0,
    "lat": 22.554701,
    "lng": 114.130387
  },
  {
    "title": "整租·新天地名居 3室2厅 东南",
    "community": "新天地名居",
    "area": "86.00",
    "rooms": "3室2厅",
    "direction": "东南",
    "floor": "",
    "price": "9000",
    "tags": "",
    "source": "",
    "url": "https://sz.lianjia.com/zufang/SZ2127687277302775808.html",
    "rent_type": "整租",
    "location": "罗湖区-黄贝岭-新天地名居",
    "scraped_at": "2026-05-03 05:24:46",
    "region": "huangbeiling",
    "unit_price": 104.7,
    "lat": 22.55102,
    "lng": 114.1361
  },
  {
    "title": "整租·集浩大厦 2室1厅 东南",
    "community": "集浩大厦",
    "area": "46.80",
    "rooms": "2室1厅",
    "direction": "东南",
    "floor": "",
    "price": "4900",
    "tags": "",
    "source": "",
    "url": "https://sz.lianjia.com/zufang/SZ2138834912147406848.html",
    "rent_type": "整租",
    "location": "罗湖区-黄贝岭-集浩大厦",
    "scraped_at": "2026-05-03 05:24:46",
    "region": "huangbeiling",
    "unit_price": 104.7,
    "lat": 22.546469,
    "lng": 114.135433
  },
  {
    "title": "整租·海洋大厦 2室1厅 南",
    "community": "海洋大厦",
    "area": "60.00",
    "rooms": "2室1厅",
    "direction": "南",
    "floor": "",
    "price": "7000",
    "tags": "",
    "source": "",
    "url": "https://sz.lianjia.com/zufang/SZ2142245053588832256.html",
    "rent_type": "整租",
    "location": "罗湖区-黄贝岭-海洋大厦",
    "scraped_at": "2026-05-03 05:24:53",
    "region": "huangbeiling",
    "unit_price": 116.7,
    "lat": 22.555446,
    "lng": 114.129409
  },
  {
    "title": "整租·海洋大厦 1室0厅 东南",
    "community": "海洋大厦",
    "area": "37.00",
    "rooms": "1室0厅",
    "direction": "东南",
    "floor": "",
    "price": "3600",
    "tags": "",
    "source": "",
    "url": "https://sz.lianjia.com/zufang/SZ2146619848233320448.html",
    "rent_type": "整租",
    "location": "罗湖区-黄贝岭-海洋大厦",
    "scraped_at": "2026-05-03 05:24:50",
    "region": "huangbeiling",
    "unit_price": 97.3,
    "lat": 22.555446,
    "lng": 114.129409
  },
  {
    "title": "整租·峰景台大厦 4室2厅 东南",
    "community": "峰景台大厦",
    "area": "166.35",
    "rooms": "4室2厅",
    "direction": "东南",
    "floor": "",
    "price": "12800",
    "tags": "",
    "source": "",
    "url": "https://sz.lianjia.com/zufang/SZ2146635487337512960.html",
    "rent_type": "整租",
    "location": "罗湖区-黄贝岭-峰景台大厦",
    "scraped_at": "2026-05-03 05:24:50",
    "region": "huangbeiling",
    "unit_price": 76.9,
    "lat": 22.554975,
    "lng": 114.14031
  },
  {
    "title": "整租·合正荣悦 2室1厅 东南",
    "community": "合正荣悦",
    "area": "50.00",
    "rooms": "2室1厅",
    "direction": "东南",
    "floor": "",
    "price": "6200",
    "tags": "",
    "source": "",
    "url": "https://sz.lianjia.com/zufang/SZ2146804373429157888.html",
    "rent_type": "整租",
    "location": "罗湖区-黄贝岭-合正荣悦",
    "scraped_at": "2026-05-03 05:24:50",
    "region": "huangbeiling",
    "unit_price": 124.0,
    "lat": 22.552565,
    "lng": 114.129534
  },
  {
    "title": "整租·深业东岭二期 3室2厅 西北",
    "community": "深业东岭二期",
    "area": "106.00",
    "rooms": "3室2厅",
    "direction": "西北",
    "floor": "",
    "price": "11500",
    "tags": "",
    "source": "",
    "url": "https://sz.lianjia.com/zufang/SZ2146865035257839616.html",
    "rent_type": "整租",
    "location": "罗湖区-黄贝岭-深业东岭二期",
    "scraped_at": "2026-05-03 05:24:50",
    "region": "huangbeiling",
    "unit_price": 108.5,
    "lat": 22.552549,
    "lng": 114.135673
  },
  {
    "title": "整租·泰丽苑 3室2厅 南",
    "community": "泰丽苑",
    "area": "100.00",
    "rooms": "3室2厅",
    "direction": "南",
    "floor": "",
    "price": "4400",
    "tags": "",
    "source": "",
    "url": "https://sz.lianjia.com/zufang/SZ2146901097434841088.html",
    "rent_type": "整租",
    "location": "罗湖区-黄贝岭-泰丽苑",
    "scraped_at": "2026-05-03 05:24:50",
    "region": "huangbeiling",
    "unit_price": 44.0,
    "lat": 22.550726,
    "lng": 114.136819
  },
  {
    "title": "整租·深业东岭一期 2室1厅 西南",
    "community": "深业东岭一期",
    "area": "63.00",
    "rooms": "2室1厅",
    "direction": "西南",
    "floor": "",
    "price": "6000",
    "tags": "",
    "source": "",
    "url": "https://sz.lianjia.com/zufang/SZ2146911913685024768.html",
    "rent_type": "整租",
    "location": "罗湖区-黄贝岭-深业东岭一期",
    "scraped_at": "2026-05-03 05:24:50",
    "region": "huangbeiling",
    "unit_price": 95.2,
    "lat": 22.55175,
    "lng": 114.13511
  },
  {
    "title": "整租·深业东岭一期 3室2厅 东北",
    "community": "深业东岭一期",
    "area": "78.00",
    "rooms": "3室2厅",
    "direction": "东北",
    "floor": "",
    "price": "7700",
    "tags": "",
    "source": "",
    "url": "https://sz.lianjia.com/zufang/SZ2146971703262052352.html",
    "rent_type": "整租",
    "location": "罗湖区-黄贝岭-深业东岭一期",
    "scraped_at": "2026-05-03 05:24:50",
    "region": "huangbeiling",
    "unit_price": 98.7,
    "lat": 22.55175,
    "lng": 114.13511
  },
  {
    "title": "整租·新天地名居 1室1厅 北",
    "community": "新天地名居",
    "area": "38.00",
    "rooms": "1室1厅",
    "direction": "北",
    "floor": "",
    "price": "4200",
    "tags": "",
    "source": "",
    "url": "https://sz.lianjia.com/zufang/SZ2153799433584640000.html",
    "rent_type": "整租",
    "location": "罗湖区-黄贝岭-新天地名居",
    "scraped_at": "2026-05-03 05:24:50",
    "region": "huangbeiling",
    "unit_price": 110.5,
    "lat": 22.55102,
    "lng": 114.1361
  },
  {
    "title": "整租·新天地名居 1室1厅 东南",
    "community": "新天地名居",
    "area": "39.00",
    "rooms": "1室1厅",
    "direction": "东南",
    "floor": "",
    "price": "4300",
    "tags": "",
    "source": "",
    "url": "https://sz.lianjia.com/zufang/SZ2155163472910876672.html",
    "rent_type": "整租",
    "location": "罗湖区-黄贝岭-新天地名居",
    "scraped_at": "2026-05-03 05:24:53",
    "region": "huangbeiling",
    "unit_price": 110.3,
    "lat": 22.55102,
    "lng": 114.1361
  },
  {
    "title": "整租·银通金秀小区 3室2厅 东南/南",
    "community": "银通金秀小区",
    "area": "89.90",
    "rooms": "3室2厅",
    "direction": "东南/南",
    "floor": "",
    "price": "8600",
    "tags": "",
    "source": "",
    "url": "https://sz.lianjia.com/zufang/SZ2155526303489458176.html",
    "rent_type": "整租",
    "location": "罗湖区-黄贝岭-银通金秀小区",
    "scraped_at": "2026-05-03 05:24:53",
    "region": "huangbeiling",
    "unit_price": 95.7,
    "lat": 22.54103,
    "lng": 114.14028
  },
  {
    "title": "整租·靖轩豪苑 3室1厅 东南",
    "community": "靖轩豪苑",
    "area": "88.00",
    "rooms": "3室1厅",
    "direction": "东南",
    "floor": "",
    "price": "7800",
    "tags": "",
    "source": "",
    "url": "https://sz.lianjia.com/zufang/SZ2155546474216161280.html",
    "rent_type": "整租",
    "location": "罗湖区-黄贝岭-靖轩豪苑",
    "scraped_at": "2026-05-03 05:24:53",
    "region": "huangbeiling",
    "unit_price": 88.6,
    "lat": 22.55036,
    "lng": 114.1342
  },
  {
    "title": "整租·集浩大厦 2室1厅 北",
    "community": "集浩大厦",
    "area": "42.00",
    "rooms": "2室1厅",
    "direction": "北",
    "floor": "",
    "price": "3800",
    "tags": "",
    "source": "",
    "url": "https://sz.lianjia.com/zufang/SZ2155612909642711040.html",
    "rent_type": "整租",
    "location": "罗湖区-黄贝岭-集浩大厦",
    "scraped_at": "2026-05-03 05:24:53",
    "region": "huangbeiling",
    "unit_price": 90.5,
    "lat": 22.546469,
    "lng": 114.135433
  },
  {
    "title": "整租·深业东岭二期 2室1厅 西南",
    "community": "深业东岭二期",
    "area": "70.27",
    "rooms": "2室1厅",
    "direction": "西南",
    "floor": "",
    "price": "7500",
    "tags": "",
    "source": "",
    "url": "https://sz.lianjia.com/zufang/SZ2155654887738703872.html",
    "rent_type": "整租",
    "location": "罗湖区-黄贝岭-深业东岭二期",
    "scraped_at": "2026-05-03 05:24:53",
    "region": "huangbeiling",
    "unit_price": 106.7,
    "lat": 22.552549,
    "lng": 114.135673
  },
  {
    "title": "整租·怡泰大厦 3室1厅 西/西北",
    "community": "怡泰大厦",
    "area": "99.00",
    "rooms": "3室1厅",
    "direction": "西/西北",
    "floor": "",
    "price": "6200",
    "tags": "",
    "source": "",
    "url": "https://sz.lianjia.com/zufang/SZ2145143238019776512.html",
    "rent_type": "整租",
    "location": "罗湖区-黄贝岭-怡泰大厦",
    "scraped_at": "2026-05-03 05:24:50",
    "region": "huangbeiling",
    "unit_price": 62.6,
    "lat": 22.554349,
    "lng": 114.127959
  },
  {
    "title": "整租·新天地名居 1室1厅 南",
    "community": "新天地名居",
    "area": "38.30",
    "rooms": "1室1厅",
    "direction": "南",
    "floor": "",
    "price": "4300",
    "tags": "",
    "source": "",
    "url": "https://sz.lianjia.com/zufang/SZ2152669286500401152.html",
    "rent_type": "整租",
    "location": "罗湖区-黄贝岭-新天地名居",
    "scraped_at": "2026-05-03 05:24:50",
    "region": "huangbeiling",
    "unit_price": 112.3,
    "lat": 22.55102,
    "lng": 114.1361
  },
  {
    "title": "整租·新天地名居 2室1厅 东北",
    "community": "新天地名居",
    "area": "54.00",
    "rooms": "2室1厅",
    "direction": "东北",
    "floor": "",
    "price": "5800",
    "tags": "",
    "source": "",
    "url": "https://sz.lianjia.com/zufang/SZ2144450576102981632.html",
    "rent_type": "整租",
    "location": "罗湖区-黄贝岭-新天地名居",
    "scraped_at": "2026-05-03 05:24:56",
    "region": "huangbeiling",
    "unit_price": 107.4,
    "lat": 22.55102,
    "lng": 114.1361
  },
  {
    "title": "整租·汇鑫花园 2室1厅 南",
    "community": "汇鑫花园",
    "area": "66.00",
    "rooms": "2室1厅",
    "direction": "南",
    "floor": "",
    "price": "5000",
    "tags": "",
    "source": "",
    "url": "https://sz.lianjia.com/zufang/SZ2143214913198227456.html",
    "rent_type": "整租",
    "location": "罗湖区-黄贝岭-汇鑫花园",
    "scraped_at": "2026-05-03 05:24:53",
    "region": "huangbeiling",
    "unit_price": 75.8,
    "lat": 22.543081,
    "lng": 114.135713
  },
  {
    "title": "整租·中山花园大厦 3室2厅 东北",
    "community": "中山花园大厦",
    "area": "104.00",
    "rooms": "3室2厅",
    "direction": "东北",
    "floor": "",
    "price": "6500",
    "tags": "",
    "source": "",
    "url": "https://sz.lianjia.com/zufang/SZ2143220208762880000.html",
    "rent_type": "整租",
    "location": "罗湖区-黄贝岭-中山花园大厦",
    "scraped_at": "2026-05-03 05:24:53",
    "region": "huangbeiling",
    "unit_price": 62.5,
    "lat": 22.548684,
    "lng": 114.135312
  },
  {
    "title": "整租·集浩花园 3室2厅 北",
    "community": "集浩花园",
    "area": "82.11",
    "rooms": "3室2厅",
    "direction": "北",
    "floor": "",
    "price": "6500",
    "tags": "",
    "source": "",
    "url": "https://sz.lianjia.com/zufang/SZ2143585453608009728.html",
    "rent_type": "整租",
    "location": "罗湖区-黄贝岭-集浩花园",
    "scraped_at": "2026-05-03 05:24:56",
    "region": "huangbeiling",
    "unit_price": 79.2,
    "lat": 22.549667,
    "lng": 114.135532
  },
  {
    "title": "整租·新天地名居 3室2厅 西南",
    "community": "新天地名居",
    "area": "88.00",
    "rooms": "3室2厅",
    "direction": "西南",
    "floor": "",
    "price": "7500",
    "tags": "",
    "source": "",
    "url": "https://sz.lianjia.com/zufang/SZ2143624892870819840.html",
    "rent_type": "整租",
    "location": "罗湖区-黄贝岭-新天地名居",
    "scraped_at": "2026-05-03 05:24:56",
    "region": "huangbeiling",
    "unit_price": 85.2,
    "lat": 22.55102,
    "lng": 114.1361
  },
  {
    "title": "整租·新天地名居 1室1厅 西南",
    "community": "新天地名居",
    "area": "38.50",
    "rooms": "1室1厅",
    "direction": "西南",
    "floor": "",
    "price": "4400",
    "tags": "",
    "source": "",
    "url": "https://sz.lianjia.com/zufang/SZ2142308624435773440.html",
    "rent_type": "整租",
    "location": "罗湖区-黄贝岭-新天地名居",
    "scraped_at": "2026-05-03 05:24:53",
    "region": "huangbeiling",
    "unit_price": 114.3,
    "lat": 22.55102,
    "lng": 114.1361
  },
  {
    "title": "整租·深业东岭二期 3室2厅 东",
    "community": "深业东岭二期",
    "area": "89.81",
    "rooms": "3室2厅",
    "direction": "东",
    "floor": "",
    "price": "8800",
    "tags": "",
    "source": "",
    "url": "https://sz.lianjia.com/zufang/SZ2142469307928412160.html",
    "rent_type": "整租",
    "location": "罗湖区-黄贝岭-深业东岭二期",
    "scraped_at": "2026-05-03 05:24:56",
    "region": "huangbeiling",
    "unit_price": 98.0,
    "lat": 22.552549,
    "lng": 114.135673
  },
  {
    "title": "整租·汇鑫花园 2室2厅 南",
    "community": "汇鑫花园",
    "area": "65.00",
    "rooms": "2室2厅",
    "direction": "南",
    "floor": "",
    "price": "6800",
    "tags": "",
    "source": "",
    "url": "https://sz.lianjia.com/zufang/SZ2142480361056108544.html",
    "rent_type": "整租",
    "location": "罗湖区-黄贝岭-汇鑫花园",
    "scraped_at": "2026-05-03 05:24:53",
    "region": "huangbeiling",
    "unit_price": 104.6,
    "lat": 22.543081,
    "lng": 114.135713
  },
  {
    "title": "整租·口岸服务公司生活区 3室1厅 南",
    "community": "口岸服务公司生活区",
    "area": "86.00",
    "rooms": "3室1厅",
    "direction": "南",
    "floor": "",
    "price": "4300",
    "tags": "",
    "source": "",
    "url": "https://sz.lianjia.com/zufang/SZ2143003721808740352.html",
    "rent_type": "整租",
    "location": "罗湖区-黄贝岭-口岸服务公司生活区",
    "scraped_at": "2026-05-03 05:24:53",
    "region": "huangbeiling",
    "unit_price": 50.0,
    "lat": 22.548078,
    "lng": 114.135377
  },
  {
    "title": "整租·深业东岭二期 2室1厅 西北",
    "community": "深业东岭二期",
    "area": "55.00",
    "rooms": "2室1厅",
    "direction": "西北",
    "floor": "",
    "price": "6200",
    "tags": "",
    "source": "",
    "url": "https://sz.lianjia.com/zufang/SZ2142961011987054592.html",
    "rent_type": "整租",
    "location": "罗湖区-黄贝岭-深业东岭二期",
    "scraped_at": "2026-05-03 05:24:53",
    "region": "huangbeiling",
    "unit_price": 112.7,
    "lat": 22.552549,
    "lng": 114.135673
  },
  {
    "title": "整租·汇鑫花园 2室1厅 西北",
    "community": "汇鑫花园",
    "area": "68.27",
    "rooms": "2室1厅",
    "direction": "西北",
    "floor": "",
    "price": "5600",
    "tags": "",
    "source": "",
    "url": "https://sz.lianjia.com/zufang/SZ2143639757731659776.html",
    "rent_type": "整租",
    "location": "罗湖区-黄贝岭-汇鑫花园",
    "scraped_at": "2026-05-03 05:24:56",
    "region": "huangbeiling",
    "unit_price": 82.0,
    "lat": 22.543081,
    "lng": 114.135713
  },
  {
    "title": "整租·靖轩豪苑 2室2厅 东南",
    "community": "靖轩豪苑",
    "area": "72.00",
    "rooms": "2室2厅",
    "direction": "东南",
    "floor": "",
    "price": "6500",
    "tags": "",
    "source": "",
    "url": "https://sz.lianjia.com/zufang/SZ2150877484063653888.html",
    "rent_type": "整租",
    "location": "罗湖区-黄贝岭-靖轩豪苑",
    "scraped_at": "2026-05-03 05:24:56",
    "region": "huangbeiling",
    "unit_price": 90.3,
    "lat": 22.55036,
    "lng": 114.1342
  },
  {
    "title": "整租·新天地名居 1室1厅 东",
    "community": "新天地名居",
    "area": "39.00",
    "rooms": "1室1厅",
    "direction": "东",
    "floor": "",
    "price": "4300",
    "tags": "",
    "source": "",
    "url": "https://sz.lianjia.com/zufang/SZ2150597826822799360.html",
    "rent_type": "整租",
    "location": "罗湖区-黄贝岭-新天地名居",
    "scraped_at": "2026-05-03 05:24:56",
    "region": "huangbeiling",
    "unit_price": 110.3,
    "lat": 22.55102,
    "lng": 114.1361
  },
  {
    "title": "整租·新天地名居 1室1厅 南",
    "community": "新天地名居",
    "area": "39.16",
    "rooms": "1室1厅",
    "direction": "南",
    "floor": "",
    "price": "4200",
    "tags": "",
    "source": "",
    "url": "https://sz.lianjia.com/zufang/SZ2157847251584548864.html",
    "rent_type": "整租",
    "location": "罗湖区-黄贝岭-新天地名居",
    "scraped_at": "2026-05-03 05:24:56",
    "region": "huangbeiling",
    "unit_price": 107.3,
    "lat": 22.55102,
    "lng": 114.1361
  },
  {
    "title": "整租·乐扬枫景 2室2厅 北",
    "community": "乐扬枫景",
    "area": "55.00",
    "rooms": "2室2厅",
    "direction": "北",
    "floor": "",
    "price": "5200",
    "tags": "",
    "source": "",
    "url": "https://sz.lianjia.com/zufang/SZ2157471372291342336.html",
    "rent_type": "整租",
    "location": "罗湖区-黄贝岭-乐扬枫景",
    "scraped_at": "2026-05-03 05:24:56",
    "region": "huangbeiling",
    "unit_price": 94.5,
    "lat": 22.558301,
    "lng": 114.141511
  },
  {
    "title": "整租·新天地名居 1室1厅 东南",
    "community": "新天地名居",
    "area": "39.27",
    "rooms": "1室1厅",
    "direction": "东南",
    "floor": "",
    "price": "4100",
    "tags": "",
    "source": "",
    "url": "https://sz.lianjia.com/zufang/SZ2157848229851430912.html",
    "rent_type": "整租",
    "location": "罗湖区-黄贝岭-新天地名居",
    "scraped_at": "2026-05-03 05:24:56",
    "region": "huangbeiling",
    "unit_price": 104.4,
    "lat": 22.55102,
    "lng": 114.1361
  },
  {
    "title": "整租·虹楼 1室0厅 南",
    "community": "虹楼",
    "area": "48.00",
    "rooms": "1室0厅",
    "direction": "南",
    "floor": "",
    "price": "3800",
    "tags": "",
    "source": "",
    "url": "https://sz.lianjia.com/zufang/SZ2157873166955839488.html",
    "rent_type": "整租",
    "location": "罗湖区-黄贝岭-虹楼",
    "scraped_at": "2026-05-03 05:24:56",
    "region": "huangbeiling",
    "unit_price": 79.2,
    "lat": 22.555344,
    "lng": 114.129151
  }
]