[
  {
    "title": "整租·绿景中城天邑花园 2室2厅 南",
    "community": "绿景中城天邑花园",
    "area": "70.00",
    "rooms": "2室2厅",
    "direction": "南",
    "floor": "",
    "price": "7400",
    "tags": "",
    "source": "",
    "url": "https://sz.lianjia.com/zufang/SZ2075531472265019392.html",
    "rent_type": "整租",
    "location": "福田区-新洲-绿景中城天邑花园",
    "scraped_at": "2026-05-03 05:56:19",
    "region": "xinzhou1",
    "unit_price": 105.7,
    "lat": 22.524445,
    "lng": 114.037901
  },
  {
    "title": "整租·嘉洲富苑 1室0厅 北",
    "community": "嘉洲富苑",
    "area": "41.74",
    "rooms": "1室0厅",
    "direction": "北",
    "floor": "",
    "price": "4200",
    "tags": "",
    "source": "",
    "url": "https://sz.lianjia.com/zufang/SZ2125597246794760192.html",
    "rent_type": "整租",
    "location": "福田区-新洲-嘉洲富苑",
    "scraped_at": "2026-05-03 05:56:42",
    "region": "xinzhou1",
    "unit_price": 100.6,
    "lat": 22.526283,
    "lng": 114.045858
  },
  {
    "title": "独栋·云享家 福田店 沙尾地铁口，一房一厅，全齐拎包即住 1室1厅",
    "community": "云享家 福田店 沙尾地铁口，一房一厅，全齐拎包即住",
    "area": "50.00",
    "rooms": "1室1厅",
    "direction": "",
    "floor": "",
    "price": "5480",
    "tags": "",
    "source": "",
    "url": "https://sz.lianjia.com/apartment/106788.html",
    "rent_type": "独栋",
    "location": "",
    "scraped_at": "2026-05-03 05:56:19",
    "region": "xinzhou1",
    "unit_price": 109.6,
    "lat": 22.54429,
    "lng": 114.0825
  },
  {
    "title": "整租·韵动家园 1室1厅 西南",
    "community": "韵动家园",
    "area": "41.58",
    "rooms": "1室1厅",
    "direction": "西南",
    "floor": "",
    "price": "4600",
    "tags": "",
    "source": "",
    "url": "https://sz.lianjia.com/zufang/SZ1878779960752078848.html",
    "rent_type": "整租",
    "location": "福田区-新洲-韵动家园",
    "scraped_at": "2026-05-03 05:56:22",
    "region": "xinzhou1",
    "unit_price": 110.6,
    "lat": 22.52645,
    "lng": 114.038225
  },
  {
    "title": "独栋·向日葵 新洲2店 靠近口岸/石厦/新洲 一房一厅【不短租】 1室1厅",
    "community": "向日葵 新洲2店 靠近口岸/石厦/新洲 一房一厅【不短租】",
    "area": "30.00",
    "rooms": "1室1厅",
    "direction": "",
    "floor": "",
    "price": "3750",
    "tags": "",
    "source": "",
    "url": "https://sz.lianjia.com/apartment/88484.html",
    "rent_type": "独栋",
    "location": "",
    "scraped_at": "2026-05-03 05:56:19",
    "region": "xinzhou1",
    "unit_price": 125.0,
    "lat": 22.565651,
    "lng": 114.050409
  },
  {
    "title": "整租·金福苑 4室2厅 南",
    "community": "金福苑",
    "area": "100.47",
    "rooms": "4室2厅",
    "direction": "南",
    "floor": "",
    "price": "9800",
    "tags": "",
    "source": "",
    "url": "https://sz.lianjia.com/zufang/SZ2127787328737902592.html",
    "rent_type": "整租",
    "location": "福田区-新洲-金福苑",
    "scraped_at": "2026-05-03 05:56:19",
    "region": "xinzhou1",
    "unit_price": 97.5,
    "lat": 22.517066,
    "lng": 114.03885
  },
  {
    "title": "整租·祥云天都世纪大厦 3室2厅 西北",
    "community": "祥云天都世纪大厦",
    "area": "90.00",
    "rooms": "3室2厅",
    "direction": "西北",
    "floor": "",
    "price": "8200",
    "tags": "",
    "source": "",
    "url": "https://sz.lianjia.com/zufang/SZ2057405983742754816.html",
    "rent_type": "整租",
    "location": "福田区-新洲-祥云天都世纪大厦",
    "scraped_at": "2026-05-03 05:56:19",
    "region": "xinzhou1",
    "unit_price": 91.1,
    "lat": 22.523737,
    "lng": 114.038792
  },
  {
    "title": "整租·荔树人家 2室1厅 南",
    "community": "荔树人家",
    "area": "41.47",
    "rooms": "2室1厅",
    "direction": "南",
    "floor": "",
    "price": "4300",
    "tags": "",
    "source": "",
    "url": "https://sz.lianjia.com/zufang/SZ2005671208552497152.html",
    "rent_type": "整租",
    "location": "福田区-新洲-荔树人家",
    "scraped_at": "2026-05-03 05:56:42",
    "region": "xinzhou1",
    "unit_price": 103.7,
    "lat": 22.549799,
    "lng": 114.043286
  },
  {
    "title": "整租·祥云天都世纪大厦 1室0厅 西南",
    "community": "祥云天都世纪大厦",
    "area": "39.00",
    "rooms": "1室0厅",
    "direction": "西南",
    "floor": "",
    "price": "4800",
    "tags": "",
    "source": "",
    "url": "https://sz.lianjia.com/zufang/SZ2083186734337622016.html",
    "rent_type": "整租",
    "location": "福田区-新洲-祥云天都世纪大厦",
    "scraped_at": "2026-05-03 05:56:38",
    "region": "xinzhou1",
    "unit_price": 123.1,
    "lat": 22.523737,
    "lng": 114.038792
  },
  {
    "title": "整租·朗晴馨洲 2室1厅 西北",
    "community": "朗晴馨洲",
    "area": "65.24",
    "rooms": "2室1厅",
    "direction": "西北",
    "floor": "",
    "price": "6000",
    "tags": "",
    "source": "",
    "url": "https://sz.lianjia.com/zufang/SZ2096267106931703808.html",
    "rent_type": "整租",
    "location": "福田区-新洲-朗晴馨洲",
    "scraped_at": "2026-05-03 05:56:42",
    "region": "xinzhou1",
    "unit_price": 92.0,
    "lat": 22.527513,
    "lng": 114.045613
  },
  {
    "title": "独栋·向日葵 新洲1店 居家优选一房一厅 1室1厅",
    "community": "向日葵 新洲1店 居家优选一房一厅",
    "area": "35.00",
    "rooms": "1室1厅",
    "direction": "",
    "floor": "",
    "price": "4200",
    "tags": "",
    "source": "",
    "url": "https://sz.lianjia.com/apartment/88601.html",
    "rent_type": "独栋",
    "location": "",
    "scraped_at": "2026-05-03 05:56:19",
    "region": "xinzhou1",
    "unit_price": 120.0,
    "lat": 22.65596,
    "lng": 114.01977
  },
  {
    "title": "整租·嘉葆润金座二期 4室1厅 北",
    "community": "嘉葆润金座二期",
    "area": "80.92",
    "rooms": "4室1厅",
    "direction": "北",
    "floor": "",
    "price": "9600",
    "tags": "",
    "source": "",
    "url": "https://sz.lianjia.com/zufang/SZ2138649411633283072.html",
    "rent_type": "整租",
    "location": "福田区-新洲-嘉葆润金座二期",
    "scraped_at": "2026-05-03 05:56:19",
    "region": "xinzhou1",
    "unit_price": 118.6,
    "lat": 22.526386,
    "lng": 114.043321
  },
  {
    "title": "整租·韵动家园 1室1厅 东南",
    "community": "韵动家园",
    "area": "56.17",
    "rooms": "1室1厅",
    "direction": "东南",
    "floor": "",
    "price": "4800",
    "tags": "",
    "source": "",
    "url": "https://sz.lianjia.com/zufang/SZ2111311581039034368.html",
    "rent_type": "整租",
    "location": "福田区-新洲-韵动家园",
    "scraped_at": "2026-05-03 05:56:19",
    "region": "xinzhou1",
    "unit_price": 85.5,
    "lat": 22.52645,
    "lng": 114.038225
  },
  {
    "title": "合租·宝鸿苑 5居室 东南卧",
    "community": "宝鸿苑 5居室 东南卧",
    "area": "18.33",
    "rooms": "",
    "direction": "",
    "floor": "",
    "price": "1700",
    "tags": "",
    "source": "",
    "url": "https://sz.lianjia.com/zufang/SZ1630899141192187904.html",
    "rent_type": "合租",
    "location": "福田区-新洲-宝鸿苑",
    "scraped_at": "2026-05-03 05:56:19",
    "region": "xinzhou1",
    "unit_price": 92.7,
    "lat": 22.523245,
    "lng": 114.042329
  },
  {
    "title": "整租·嘉洲富苑 1室1厅 东",
    "community": "嘉洲富苑",
    "area": "41.00",
    "rooms": "1室1厅",
    "direction": "东",
    "floor": "",
    "price": "4300",
    "tags": "",
    "source": "",
    "url": "https://sz.lianjia.com/zufang/SZ2160322192179462144.html",
    "rent_type": "整租",
    "location": "福田区-新洲-嘉洲富苑",
    "scraped_at": "2026-05-03 05:56:19",
    "region": "xinzhou1",
    "unit_price": 104.9,
    "lat": 22.526283,
    "lng": 114.045858
  },
  {
    "title": "合租·金沙花园 5居室 复式 南卧",
    "community": "金沙花园 5居室 复式 南卧",
    "area": "28.00",
    "rooms": "",
    "direction": "",
    "floor": "",
    "price": "2700",
    "tags": "",
    "source": "",
    "url": "https://sz.lianjia.com/zufang/SZ1880950865691410432.html",
    "rent_type": "合租",
    "location": "福田区-新洲-金沙花园",
    "scraped_at": "2026-05-03 05:56:19",
    "region": "xinzhou1",
    "unit_price": 96.4,
    "lat": 22.607582,
    "lng": 114.107399
  },
  {
    "title": "整租·嘉葆润金座二期 4室2厅 南/北",
    "community": "嘉葆润金座二期",
    "area": "83.67",
    "rooms": "4室2厅",
    "direction": "南/北",
    "floor": "",
    "price": "11000",
    "tags": "",
    "source": "",
    "url": "https://sz.lianjia.com/zufang/SZ2159588727221911552.html",
    "rent_type": "整租",
    "location": "福田区-新洲-嘉葆润金座二期",
    "scraped_at": "2026-05-03 05:56:19",
    "region": "xinzhou1",
    "unit_price": 131.5,
    "lat": 22.526386,
    "lng": 114.043321
  },
  {
    "title": "整租·绿景中城天邑花园 2室2厅 南",
    "community": "绿景中城天邑花园",
    "area": "67.69",
    "rooms": "2室2厅",
    "direction": "南",
    "floor": "",
    "price": "8500",
    "tags": "",
    "source": "",
    "url": "https://sz.lianjia.com/zufang/SZ2159978641608409088.html",
    "rent_type": "整租",
    "location": "福田区-新洲-绿景中城天邑花园",
    "scraped_at": "2026-05-03 05:56:19",
    "region": "xinzhou1",
    "unit_price": 125.6,
    "lat": 22.524445,
    "lng": 114.037901
  },
  {
    "title": "整租·祥云天都世纪大厦 1室1厅 东北",
    "community": "祥云天都世纪大厦",
    "area": "50.00",
    "rooms": "1室1厅",
    "direction": "东北",
    "floor": "",
    "price": "5600",
    "tags": "",
    "source": "",
    "url": "https://sz.lianjia.com/zufang/SZ2158950968018862080.html",
    "rent_type": "整租",
    "location": "福田区-新洲-祥云天都世纪大厦",
    "scraped_at": "2026-05-03 05:56:19",
    "region": "xinzhou1",
    "unit_price": 112.0,
    "lat": 22.523737,
    "lng": 114.038792
  },
  {
    "title": "合租·新洲苑 4居室 东南卧",
    "community": "新洲苑 4居室 东南卧",
    "area": "21.00",
    "rooms": "",
    "direction": "",
    "floor": "",
    "price": "2200",
    "tags": "",
    "source": "",
    "url": "https://sz.lianjia.com/zufang/SZ1647185957058772992.html",
    "rent_type": "合租",
    "location": "福田区-新洲-新洲苑",
    "scraped_at": "2026-05-03 05:56:19",
    "region": "xinzhou1",
    "unit_price": 104.8,
    "lat": 22.52473,
    "lng": 114.04548
  },
  {
    "title": "独栋·源悦里青年公寓酒店 B栋 【实习出差套房】月租短租 石厦新洲 精装电梯房 拎包入住包网络 开间",
    "community": "源悦里青年公寓酒店 B栋 【实习出差套房】月租短租 石厦新洲 精装电梯房 拎包入住包网络 开间",
    "area": "20.00",
    "rooms": "",
    "direction": "",
    "floor": "",
    "price": "2513",
    "tags": "",
    "source": "",
    "url": "https://sz.lianjia.com/apartment/92629.html",
    "rent_type": "独栋",
    "location": "",
    "scraped_at": "2026-05-03 05:56:19",
    "region": "xinzhou1",
    "unit_price": 125.7,
    "lat": 22.618254,
    "lng": 114.140241
  },
  {
    "title": "独栋·源悦里青年公寓酒店 A栋 【石厦站600米】短租五一特价 石厦新洲 精致套房拎包入住 开间",
    "community": "源悦里青年公寓酒店 A栋 【石厦站600米】短租五一特价 石厦新洲 精致套房拎包入住 开间",
    "area": "18.00",
    "rooms": "",
    "direction": "",
    "floor": "",
    "price": "2719",
    "tags": "",
    "source": "",
    "url": "https://sz.lianjia.com/apartment/92688.html",
    "rent_type": "独栋",
    "location": "",
    "scraped_at": "2026-05-03 05:56:19",
    "region": "xinzhou1",
    "unit_price": 151.1,
    "lat": 22.52023,
    "lng": 114.051677
  },
  {
    "title": "合租·新洲中心村 5居室 西卧",
    "community": "新洲中心村 5居室 西卧",
    "area": "15.00",
    "rooms": "",
    "direction": "",
    "floor": "",
    "price": "2100",
    "tags": "",
    "source": "",
    "url": "https://sz.lianjia.com/zufang/SZ1747176534176694272.html",
    "rent_type": "合租",
    "location": "福田区-新洲-新洲中心村",
    "scraped_at": "2026-05-03 05:56:19",
    "region": "xinzhou1",
    "unit_price": 140.0,
    "lat": 22.5243,
    "lng": 114.048902
  },
  {
    "title": "合租·宝鸿苑 5居室 南卧",
    "community": "宝鸿苑 5居室 南卧",
    "area": "22.00",
    "rooms": "",
    "direction": "",
    "floor": "",
    "price": "2300",
    "tags": "",
    "source": "",
    "url": "https://sz.lianjia.com/zufang/SZ1652678303019958272.html",
    "rent_type": "合租",
    "location": "福田区-新洲-宝鸿苑",
    "scraped_at": "2026-05-03 05:56:22",
    "region": "xinzhou1",
    "unit_price": 104.5,
    "lat": 22.523245,
    "lng": 114.042329
  },
  {
    "title": "整租·蜜园 2室2厅 北",
    "community": "蜜园",
    "area": "60.00",
    "rooms": "2室2厅",
    "direction": "北",
    "floor": "",
    "price": "6500",
    "tags": "",
    "source": "",
    "url": "https://sz.lianjia.com/zufang/SZ2145175034618970112.html",
    "rent_type": "整租",
    "location": "福田区-新洲-蜜园",
    "scraped_at": "2026-05-03 05:56:22",
    "region": "xinzhou1",
    "unit_price": 108.3,
    "lat": 22.523938,
    "lng": 114.043177
  },
  {
    "title": "合租·金沙花园 5居室 复式 南卧",
    "community": "金沙花园 5居室 复式 南卧",
    "area": "28.00",
    "rooms": "",
    "direction": "",
    "floor": "",
    "price": "2700",
    "tags": "",
    "source": "",
    "url": "https://sz.lianjia.com/zufang/SZ1880568779600035840.html",
    "rent_type": "合租",
    "location": "福田区-新洲-金沙花园",
    "scraped_at": "2026-05-03 05:56:22",
    "region": "xinzhou1",
    "unit_price": 96.4,
    "lat": 22.607582,
    "lng": 114.107399
  },
  {
    "title": "整租·荔树人家 1室1厅 西南",
    "community": "荔树人家",
    "area": "50.00",
    "rooms": "1室1厅",
    "direction": "西南",
    "floor": "",
    "price": "4500",
    "tags": "",
    "source": "",
    "url": "https://sz.lianjia.com/zufang/SZ2150928097334001664.html",
    "rent_type": "整租",
    "location": "福田区-新洲-荔树人家",
    "scraped_at": "2026-05-03 05:56:22",
    "region": "xinzhou1",
    "unit_price": 90.0,
    "lat": 22.549799,
    "lng": 114.043286
  },
  {
    "title": "整租·绿景中城天邑花园 2室2厅 东南",
    "community": "绿景中城天邑花园",
    "area": "49.06",
    "rooms": "2室2厅",
    "direction": "东南",
    "floor": "",
    "price": "6800",
    "tags": "",
    "source": "",
    "url": "https://sz.lianjia.com/zufang/SZ2151198640952049664.html",
    "rent_type": "整租",
    "location": "福田区-新洲-绿景中城天邑花园",
    "scraped_at": "2026-05-03 05:56:22",
    "region": "xinzhou1",
    "unit_price": 138.6,
    "lat": 22.524445,
    "lng": 114.037901
  },
  {
    "title": "合租·宝鸿苑 5居室 南卧",
    "community": "宝鸿苑 5居室 南卧",
    "area": "25.00",
    "rooms": "",
    "direction": "",
    "floor": "",
    "price": "2700",
    "tags": "",
    "source": "",
    "url": "https://sz.lianjia.com/zufang/SZ1765975804421865472.html",
    "rent_type": "合租",
    "location": "福田区-新洲-宝鸿苑",
    "scraped_at": "2026-05-03 05:56:22",
    "region": "xinzhou1",
    "unit_price": 108.0,
    "lat": 22.523245,
    "lng": 114.042329
  },
  {
    "title": "整租·绿景新苑 2室2厅 南",
    "community": "绿景新苑",
    "area": "86.00",
    "rooms": "2室2厅",
    "direction": "南",
    "floor": "",
    "price": "8500",
    "tags": "",
    "source": "",
    "url": "https://sz.lianjia.com/zufang/SZ2153761287870349312.html",
    "rent_type": "整租",
    "location": "福田区-新洲-绿景新苑",
    "scraped_at": "2026-05-03 05:56:22",
    "region": "xinzhou1",
    "unit_price": 98.8,
    "lat": 22.524445,
    "lng": 114.037901
  },
  {
    "title": "合租·宝鸿苑 5居室 南卧",
    "community": "宝鸿苑 5居室 南卧",
    "area": "28.00",
    "rooms": "",
    "direction": "",
    "floor": "",
    "price": "2300",
    "tags": "",
    "source": "",
    "url": "https://sz.lianjia.com/zufang/SZ1640619902119182336.html",
    "rent_type": "合租",
    "location": "福田区-新洲-宝鸿苑",
    "scraped_at": "2026-05-03 05:56:22",
    "region": "xinzhou1",
    "unit_price": 82.1,
    "lat": 22.523245,
    "lng": 114.042329
  },
  {
    "title": "整租·祥云天都世纪大厦 1室1厅 西北",
    "community": "祥云天都世纪大厦",
    "area": "50.00",
    "rooms": "1室1厅",
    "direction": "西北",
    "floor": "",
    "price": "5600",
    "tags": "",
    "source": "",
    "url": "https://sz.lianjia.com/zufang/SZ2153155053408485376.html",
    "rent_type": "整租",
    "location": "福田区-新洲-祥云天都世纪大厦",
    "scraped_at": "2026-05-03 05:56:22",
    "region": "xinzhou1",
    "unit_price": 112.0,
    "lat": 22.523737,
    "lng": 114.038792
  },
  {
    "title": "整租·绿景花园二期 2室2厅 西北",
    "community": "绿景花园二期",
    "area": "63.52",
    "rooms": "2室2厅",
    "direction": "西北",
    "floor": "",
    "price": "7800",
    "tags": "",
    "source": "",
    "url": "https://sz.lianjia.com/zufang/SZ2153855074739159040.html",
    "rent_type": "整租",
    "location": "福田区-新洲-绿景花园二期",
    "scraped_at": "2026-05-03 05:56:22",
    "region": "xinzhou1",
    "unit_price": 122.8,
    "lat": 22.52421,
    "lng": 114.03826
  },
  {
    "title": "整租·绿景中城天邑花园 5室2厅 南",
    "community": "绿景中城天邑花园",
    "area": "167.00",
    "rooms": "5室2厅",
    "direction": "南",
    "floor": "",
    "price": "25000",
    "tags": "",
    "source": "",
    "url": "https://sz.lianjia.com/zufang/SZ2152751230080778240.html",
    "rent_type": "整租",
    "location": "福田区-新洲-绿景中城天邑花园",
    "scraped_at": "2026-05-03 05:56:22",
    "region": "xinzhou1",
    "unit_price": 149.7,
    "lat": 22.524445,
    "lng": 114.037901
  },
  {
    "title": "整租·朗晴馨洲 2室1厅 北",
    "community": "朗晴馨洲",
    "area": "65.00",
    "rooms": "2室1厅",
    "direction": "北",
    "floor": "",
    "price": "6200",
    "tags": "",
    "source": "",
    "url": "https://sz.lianjia.com/zufang/SZ2155674172443852800.html",
    "rent_type": "整租",
    "location": "福田区-新洲-朗晴馨洲",
    "scraped_at": "2026-05-03 05:56:46",
    "region": "xinzhou1",
    "unit_price": 95.4,
    "lat": 22.527513,
    "lng": 114.045613
  },
  {
    "title": "整租·祥云天都世纪大厦 1室1厅 南/北",
    "community": "祥云天都世纪大厦",
    "area": "50.00",
    "rooms": "1室1厅",
    "direction": "南/北",
    "floor": "",
    "price": "5500",
    "tags": "",
    "source": "",
    "url": "https://sz.lianjia.com/zufang/SZ2156710351452766208.html",
    "rent_type": "整租",
    "location": "福田区-新洲-祥云天都世纪大厦",
    "scraped_at": "2026-05-03 05:56:46",
    "region": "xinzhou1",
    "unit_price": 110.0,
    "lat": 22.523737,
    "lng": 114.038792
  },
  {
    "title": "整租·蜜园 2室2厅 东北",
    "community": "蜜园",
    "area": "60.00",
    "rooms": "2室2厅",
    "direction": "东北",
    "floor": "",
    "price": "6300",
    "tags": "",
    "source": "",
    "url": "https://sz.lianjia.com/zufang/SZ2145397028845256704.html",
    "rent_type": "整租",
    "location": "福田区-新洲-蜜园",
    "scraped_at": "2026-05-03 05:56:22",
    "region": "xinzhou1",
    "unit_price": 105.0,
    "lat": 22.523938,
    "lng": 114.043177
  },
  {
    "title": "整租·星河雅居 3室1厅 西南",
    "community": "星河雅居",
    "area": "95.00",
    "rooms": "3室1厅",
    "direction": "西南",
    "floor": "",
    "price": "6400",
    "tags": "",
    "source": "",
    "url": "https://sz.lianjia.com/zufang/SZ2158076965242798080.html",
    "rent_type": "整租",
    "location": "福田区-新洲-星河雅居",
    "scraped_at": "2026-05-03 05:56:22",
    "region": "xinzhou1",
    "unit_price": 67.4,
    "lat": 22.524019,
    "lng": 114.044668
  },
  {
    "title": "整租·绿景中城天邑花园 2室1厅 东南",
    "community": "绿景中城天邑花园",
    "area": "48.00",
    "rooms": "2室1厅",
    "direction": "东南",
    "floor": "",
    "price": "6500",
    "tags": "",
    "source": "",
    "url": "https://sz.lianjia.com/zufang/SZ2154951083112267776.html",
    "rent_type": "整租",
    "location": "福田区-新洲-绿景中城天邑花园",
    "scraped_at": "2026-05-03 05:56:46",
    "region": "xinzhou1",
    "unit_price": 135.4,
    "lat": 22.524445,
    "lng": 114.037901
  },
  {
    "title": "整租·嘉洲富苑 2室1厅 东",
    "community": "嘉洲富苑",
    "area": "41.74",
    "rooms": "2室1厅",
    "direction": "东",
    "floor": "",
    "price": "5700",
    "tags": "",
    "source": "",
    "url": "https://sz.lianjia.com/zufang/SZ2140510090266935296.html",
    "rent_type": "整租",
    "location": "福田区-新洲-嘉洲富苑",
    "scraped_at": "2026-05-03 05:56:22",
    "region": "xinzhou1",
    "unit_price": 136.6,
    "lat": 22.526283,
    "lng": 114.045858
  },
  {
    "title": "整租·嘉洲豪园 1室1厅 错层 东",
    "community": "嘉洲豪园",
    "area": "96.00",
    "rooms": "1室1厅",
    "direction": "",
    "floor": "",
    "price": "2300",
    "tags": "",
    "source": "",
    "url": "https://sz.lianjia.com/zufang/SZ2153699949127139328.html",
    "rent_type": "整租",
    "location": "福田区-新洲-嘉洲豪园",
    "scraped_at": "2026-05-03 05:56:22",
    "region": "xinzhou1",
    "unit_price": 24.0,
    "lat": 22.527269,
    "lng": 114.044418
  },
  {
    "title": "整租·韵动家园 1室1厅 东南",
    "community": "韵动家园",
    "area": "43.00",
    "rooms": "1室1厅",
    "direction": "东南",
    "floor": "",
    "price": "4600",
    "tags": "",
    "source": "",
    "url": "https://sz.lianjia.com/zufang/SZ2158824598219522048.html",
    "rent_type": "整租",
    "location": "福田区-新洲-韵动家园",
    "scraped_at": "2026-05-03 05:56:22",
    "region": "xinzhou1",
    "unit_price": 107.0,
    "lat": 22.52645,
    "lng": 114.038225
  },
  {
    "title": "整租·祥云天都世纪大厦 1室0厅 东北",
    "community": "祥云天都世纪大厦",
    "area": "34.00",
    "rooms": "1室0厅",
    "direction": "东北",
    "floor": "",
    "price": "4300",
    "tags": "",
    "source": "",
    "url": "https://sz.lianjia.com/zufang/SZ2155882541884637184.html",
    "rent_type": "整租",
    "location": "福田区-新洲-祥云天都世纪大厦",
    "scraped_at": "2026-05-03 05:56:46",
    "region": "xinzhou1",
    "unit_price": 126.5,
    "lat": 22.523737,
    "lng": 114.038792
  },
  {
    "title": "整租·嘉洲豪园 3室2厅 西南",
    "community": "嘉洲豪园",
    "area": "98.00",
    "rooms": "3室2厅",
    "direction": "西南",
    "floor": "",
    "price": "8000",
    "tags": "",
    "source": "",
    "url": "https://sz.lianjia.com/zufang/SZ2158425409597734912.html",
    "rent_type": "整租",
    "location": "福田区-新洲-嘉洲豪园",
    "scraped_at": "2026-05-03 05:56:22",
    "region": "xinzhou1",
    "unit_price": 81.6,
    "lat": 22.527269,
    "lng": 114.044418
  },
  {
    "title": "整租·嘉葆润金座 2室1厅 南",
    "community": "嘉葆润金座",
    "area": "35.00",
    "rooms": "2室1厅",
    "direction": "南",
    "floor": "",
    "price": "6200",
    "tags": "",
    "source": "",
    "url": "https://sz.lianjia.com/zufang/SZ2157793912947736576.html",
    "rent_type": "整租",
    "location": "福田区-新洲-嘉葆润金座",
    "scraped_at": "2026-05-03 05:56:22",
    "region": "xinzhou1",
    "unit_price": 177.1,
    "lat": 22.523965,
    "lng": 114.047707
  },
  {
    "title": "整租·嘉葆润金座 4室1厅 南",
    "community": "嘉葆润金座",
    "area": "61.00",
    "rooms": "4室1厅",
    "direction": "南",
    "floor": "",
    "price": "9000",
    "tags": "",
    "source": "",
    "url": "https://sz.lianjia.com/zufang/SZ2155671747074981888.html",
    "rent_type": "整租",
    "location": "福田区-新洲-嘉葆润金座",
    "scraped_at": "2026-05-03 05:56:46",
    "region": "xinzhou1",
    "unit_price": 147.5,
    "lat": 22.523965,
    "lng": 114.047707
  },
  {
    "title": "整租·金沙花园 2室1厅 东北",
    "community": "金沙花园",
    "area": "50.00",
    "rooms": "2室1厅",
    "direction": "东北",
    "floor": "",
    "price": "5200",
    "tags": "",
    "source": "",
    "url": "https://sz.lianjia.com/zufang/SZ2141523348096548864.html",
    "rent_type": "整租",
    "location": "福田区-新洲-金沙花园",
    "scraped_at": "2026-05-03 05:56:22",
    "region": "xinzhou1",
    "unit_price": 104.0,
    "lat": 22.517066,
    "lng": 114.03885
  },
  {
    "title": "整租·蜜园 2室1厅 东南",
    "community": "蜜园",
    "area": "60.00",
    "rooms": "2室1厅",
    "direction": "东南",
    "floor": "",
    "price": "6000",
    "tags": "",
    "source": "",
    "url": "https://sz.lianjia.com/zufang/SZ2150535686640369664.html",
    "rent_type": "整租",
    "location": "福田区-新洲-蜜园",
    "scraped_at": "2026-05-03 05:56:22",
    "region": "xinzhou1",
    "unit_price": 100.0,
    "lat": 22.523938,
    "lng": 114.043177
  },
  {
    "title": "整租·韵动家园 1室1厅 南",
    "community": "韵动家园",
    "area": "44.57",
    "rooms": "1室1厅",
    "direction": "南",
    "floor": "",
    "price": "5200",
    "tags": "",
    "source": "",
    "url": "https://sz.lianjia.com/zufang/SZ2148258486734028800.html",
    "rent_type": "整租",
    "location": "福田区-新洲-韵动家园",
    "scraped_at": "2026-05-03 05:56:22",
    "region": "xinzhou1",
    "unit_price": 116.7,
    "lat": 22.52645,
    "lng": 114.038225
  },
  {
    "title": "整租·绿景花园 3室2厅 南",
    "community": "绿景花园",
    "area": "116.34",
    "rooms": "3室2厅",
    "direction": "南",
    "floor": "",
    "price": "8500",
    "tags": "",
    "source": "",
    "url": "https://sz.lianjia.com/zufang/SZ2158157061270011904.html",
    "rent_type": "整租",
    "location": "福田区-新洲-绿景花园",
    "scraped_at": "2026-05-03 05:56:22",
    "region": "xinzhou1",
    "unit_price": 73.1,
    "lat": 22.52421,
    "lng": 114.03826
  },
  {
    "title": "整租·荔树人家 1室1厅 南",
    "community": "荔树人家",
    "area": "40.00",
    "rooms": "1室1厅",
    "direction": "南",
    "floor": "",
    "price": "4200",
    "tags": "",
    "source": "",
    "url": "https://sz.lianjia.com/zufang/SZ2146263172896522240.html",
    "rent_type": "整租",
    "location": "福田区-新洲-荔树人家",
    "scraped_at": "2026-05-03 05:56:22",
    "region": "xinzhou1",
    "unit_price": 105.0,
    "lat": 22.549799,
    "lng": 114.043286
  },
  {
    "title": "整租·祥云天都世纪大厦 2室1厅 南",
    "community": "祥云天都世纪大厦",
    "area": "48.49",
    "rooms": "2室1厅",
    "direction": "南",
    "floor": "",
    "price": "5500",
    "tags": "",
    "source": "",
    "url": "https://sz.lianjia.com/zufang/SZ2123366611124486144.html",
    "rent_type": "整租",
    "location": "福田区-新洲-祥云天都世纪大厦",
    "scraped_at": "2026-05-03 05:56:25",
    "region": "xinzhou1",
    "unit_price": 113.4,
    "lat": 22.523737,
    "lng": 114.038792
  },
  {
    "title": "整租·新洲大厦 3室2厅 东南",
    "community": "新洲大厦",
    "area": "108.81",
    "rooms": "3室2厅",
    "direction": "东南",
    "floor": "",
    "price": "7500",
    "tags": "",
    "source": "",
    "url": "https://sz.lianjia.com/zufang/SZ2160004133266915328.html",
    "rent_type": "整租",
    "location": "福田区-新洲-新洲大厦",
    "scraped_at": "2026-05-03 05:56:25",
    "region": "xinzhou1",
    "unit_price": 68.9,
    "lat": 22.529157,
    "lng": 114.04392
  },
  {
    "title": "整租·新洲大厦 3室1厅 南",
    "community": "新洲大厦",
    "area": "92.00",
    "rooms": "3室1厅",
    "direction": "南",
    "floor": "",
    "price": "5800",
    "tags": "",
    "source": "",
    "url": "https://sz.lianjia.com/zufang/SZ2158429118536876032.html",
    "rent_type": "整租",
    "location": "福田区-新洲-新洲大厦",
    "scraped_at": "2026-05-03 05:56:25",
    "region": "xinzhou1",
    "unit_price": 63.0,
    "lat": 22.529157,
    "lng": 114.04392
  },
  {
    "title": "整租·嘉葆润金座 2室2厅 东南",
    "community": "嘉葆润金座",
    "area": "35.00",
    "rooms": "2室2厅",
    "direction": "东南",
    "floor": "",
    "price": "6200",
    "tags": "",
    "source": "",
    "url": "https://sz.lianjia.com/zufang/SZ2141439934735581184.html",
    "rent_type": "整租",
    "location": "福田区-新洲-嘉葆润金座",
    "scraped_at": "2026-05-03 05:56:25",
    "region": "xinzhou1",
    "unit_price": 177.1,
    "lat": 22.523965,
    "lng": 114.047707
  },
  {
    "title": "整租·祥云天都世纪大厦 3室2厅 东南",
    "community": "祥云天都世纪大厦",
    "area": "89.81",
    "rooms": "3室2厅",
    "direction": "东南",
    "floor": "",
    "price": "8000",
    "tags": "",
    "source": "",
    "url": "https://sz.lianjia.com/zufang/SZ2158514345275817984.html",
    "rent_type": "整租",
    "location": "福田区-新洲-祥云天都世纪大厦",
    "scraped_at": "2026-05-03 05:56:25",
    "region": "xinzhou1",
    "unit_price": 89.1,
    "lat": 22.523737,
    "lng": 114.038792
  },
  {
    "title": "整租·蜜园 2室1厅 东南",
    "community": "蜜园",
    "area": "57.65",
    "rooms": "2室1厅",
    "direction": "东南",
    "floor": "",
    "price": "6300",
    "tags": "",
    "source": "",
    "url": "https://sz.lianjia.com/zufang/SZ2063461631299420160.html",
    "rent_type": "整租",
    "location": "福田区-新洲-蜜园",
    "scraped_at": "2026-05-03 05:56:25",
    "region": "xinzhou1",
    "unit_price": 109.3,
    "lat": 22.523938,
    "lng": 114.043177
  },
  {
    "title": "合租·新洲花园 4居室 南卧",
    "community": "新洲花园 4居室 南卧",
    "area": "12.00",
    "rooms": "",
    "direction": "",
    "floor": "",
    "price": "1500",
    "tags": "",
    "source": "",
    "url": "https://sz.lianjia.com/zufang/SZ2064957914623246336.html",
    "rent_type": "合租",
    "location": "福田区-新洲-新洲花园",
    "scraped_at": "2026-05-03 05:56:25",
    "region": "xinzhou1",
    "unit_price": 125.0,
    "lat": 22.526362,
    "lng": 114.048471
  },
  {
    "title": "整租·怡和楼 3室2厅 东南/南",
    "community": "怡和楼",
    "area": "89.00",
    "rooms": "3室2厅",
    "direction": "东南/南",
    "floor": "",
    "price": "7300",
    "tags": "",
    "source": "",
    "url": "https://sz.lianjia.com/zufang/SZ2064553940313178112.html",
    "rent_type": "整租",
    "location": "福田区-新洲-怡和楼",
    "scraped_at": "2026-05-03 05:56:25",
    "region": "xinzhou1",
    "unit_price": 82.0,
    "lat": 22.524394,
    "lng": 114.037456
  },
  {
    "title": "整租·福昌苑 4室2厅 南/北",
    "community": "福昌苑",
    "area": "145.00",
    "rooms": "4室2厅",
    "direction": "南/北",
    "floor": "",
    "price": "11000",
    "tags": "",
    "source": "",
    "url": "https://sz.lianjia.com/zufang/SZ2047609082684112896.html",
    "rent_type": "整租",
    "location": "福田区-新洲-福昌苑",
    "scraped_at": "2026-05-03 05:56:38",
    "region": "xinzhou1",
    "unit_price": 75.9,
    "lat": 22.513508,
    "lng": 114.044693
  },
  {
    "title": "整租·祥云天都世纪大厦 2室2厅 南",
    "community": "祥云天都世纪大厦",
    "area": "84.08",
    "rooms": "2室2厅",
    "direction": "南",
    "floor": "",
    "price": "7500",
    "tags": "",
    "source": "",
    "url": "https://sz.lianjia.com/zufang/SZ2049416215952097280.html",
    "rent_type": "整租",
    "location": "福田区-新洲-祥云天都世纪大厦",
    "scraped_at": "2026-05-03 05:56:38",
    "region": "xinzhou1",
    "unit_price": 89.2,
    "lat": 22.523737,
    "lng": 114.038792
  },
  {
    "title": "合租·金沙花园 3居室 南卧",
    "community": "金沙花园 3居室 南卧",
    "area": "20.00",
    "rooms": "",
    "direction": "",
    "floor": "",
    "price": "2200",
    "tags": "",
    "source": "",
    "url": "https://sz.lianjia.com/zufang/SZ2074037176722522112.html",
    "rent_type": "合租",
    "location": "福田区-新洲-金沙花园",
    "scraped_at": "2026-05-03 05:56:42",
    "region": "xinzhou1",
    "unit_price": 110.0,
    "lat": 22.524763,
    "lng": 114.038889
  },
  {
    "title": "整租·嘉葆润金座 2室1厅 东",
    "community": "嘉葆润金座",
    "area": "35.76",
    "rooms": "2室1厅",
    "direction": "东",
    "floor": "",
    "price": "9000",
    "tags": "",
    "source": "",
    "url": "https://sz.lianjia.com/zufang/SZ2074089413092048896.html",
    "rent_type": "整租",
    "location": "福田区-新洲-嘉葆润金座",
    "scraped_at": "2026-05-03 05:56:42",
    "region": "xinzhou1",
    "unit_price": 251.7,
    "lat": 22.523965,
    "lng": 114.047707
  },
  {
    "title": "合租·金沙花园 7居室 南卧",
    "community": "金沙花园 7居室 南卧",
    "area": "13.00",
    "rooms": "",
    "direction": "",
    "floor": "",
    "price": "1600",
    "tags": "",
    "source": "",
    "url": "https://sz.lianjia.com/zufang/SZ2074878291025592320.html",
    "rent_type": "合租",
    "location": "福田区-新洲-金沙花园",
    "scraped_at": "2026-05-03 05:56:42",
    "region": "xinzhou1",
    "unit_price": 123.1,
    "lat": 22.524763,
    "lng": 114.038889
  },
  {
    "title": "整租·金沙花园 2室1厅 南",
    "community": "金沙花园",
    "area": "60.00",
    "rooms": "2室1厅",
    "direction": "南",
    "floor": "",
    "price": "4500",
    "tags": "",
    "source": "",
    "url": "https://sz.lianjia.com/zufang/SZ2075502291292520448.html",
    "rent_type": "整租",
    "location": "福田区-新洲-金沙花园",
    "scraped_at": "2026-05-03 05:56:42",
    "region": "xinzhou1",
    "unit_price": 75.0,
    "lat": 22.517066,
    "lng": 114.03885
  },
  {
    "title": "整租·金沙花园 1室1厅 复式 南",
    "community": "金沙花园",
    "area": "45.00",
    "rooms": "1室1厅",
    "direction": "",
    "floor": "",
    "price": "6800",
    "tags": "",
    "source": "",
    "url": "https://sz.lianjia.com/zufang/SZ2027237705246572544.html",
    "rent_type": "整租",
    "location": "福田区-新洲-金沙花园",
    "scraped_at": "2026-05-03 05:56:42",
    "region": "xinzhou1",
    "unit_price": 151.1,
    "lat": 22.517066,
    "lng": 114.03885
  },
  {
    "title": "整租·金沙花园 5室2厅 复式 南",
    "community": "金沙花园",
    "area": "210.77",
    "rooms": "5室2厅",
    "direction": "",
    "floor": "",
    "price": "16000",
    "tags": "",
    "source": "",
    "url": "https://sz.lianjia.com/zufang/SZ2004043906634743808.html",
    "rent_type": "整租",
    "location": "福田区-新洲-金沙花园",
    "scraped_at": "2026-05-03 05:56:25",
    "region": "xinzhou1",
    "unit_price": 75.9,
    "lat": 22.517066,
    "lng": 114.03885
  },
  {
    "title": "整租·嘉葆润金座 2室1厅 复式 北",
    "community": "嘉葆润金座",
    "area": "35.00",
    "rooms": "2室1厅",
    "direction": "",
    "floor": "",
    "price": "6500",
    "tags": "",
    "source": "",
    "url": "https://sz.lianjia.com/zufang/SZ2008888675546431488.html",
    "rent_type": "整租",
    "location": "福田区-新洲-嘉葆润金座",
    "scraped_at": "2026-05-03 05:56:42",
    "region": "xinzhou1",
    "unit_price": 185.7,
    "lat": 22.523965,
    "lng": 114.047707
  },
  {
    "title": "整租·湖北大厦 1室1厅 南",
    "community": "湖北大厦",
    "area": "115.00",
    "rooms": "1室1厅",
    "direction": "南",
    "floor": "",
    "price": "8625",
    "tags": "",
    "source": "",
    "url": "https://sz.lianjia.com/zufang/SZ2009575627312594944.html",
    "rent_type": "整租",
    "location": "福田区-新洲-湖北大厦",
    "scraped_at": "2026-05-03 05:56:42",
    "region": "xinzhou1",
    "unit_price": 75.0,
    "lat": 22.530236,
    "lng": 114.042551
  },
  {
    "title": "整租·绿景花园二期 4室2厅 南",
    "community": "绿景花园二期",
    "area": "135.00",
    "rooms": "4室2厅",
    "direction": "南",
    "floor": "",
    "price": "13000",
    "tags": "",
    "source": "",
    "url": "https://sz.lianjia.com/zufang/SZ2021817670428524544.html",
    "rent_type": "整租",
    "location": "福田区-新洲-绿景花园二期",
    "scraped_at": "2026-05-03 05:56:42",
    "region": "xinzhou1",
    "unit_price": 96.3,
    "lat": 22.52421,
    "lng": 114.03826
  },
  {
    "title": "整租·湖北大厦 3室1厅 东",
    "community": "湖北大厦",
    "area": "156.00",
    "rooms": "3室1厅",
    "direction": "东",
    "floor": "",
    "price": "9900",
    "tags": "",
    "source": "",
    "url": "https://sz.lianjia.com/zufang/SZ2023248737635139584.html",
    "rent_type": "整租",
    "location": "福田区-新洲-湖北大厦",
    "scraped_at": "2026-05-03 05:56:42",
    "region": "xinzhou1",
    "unit_price": 63.5,
    "lat": 22.530236,
    "lng": 114.042551
  },
  {
    "title": "整租·湖北大厦 3室1厅 南",
    "community": "湖北大厦",
    "area": "146.00",
    "rooms": "3室1厅",
    "direction": "南",
    "floor": "",
    "price": "9000",
    "tags": "",
    "source": "",
    "url": "https://sz.lianjia.com/zufang/SZ2023246348408586240.html",
    "rent_type": "整租",
    "location": "福田区-新洲-湖北大厦",
    "scraped_at": "2026-05-03 05:56:42",
    "region": "xinzhou1",
    "unit_price": 61.6,
    "lat": 22.530236,
    "lng": 114.042551
  },
  {
    "title": "整租·湖北大厦 2室1厅 南",
    "community": "湖北大厦",
    "area": "118.00",
    "rooms": "2室1厅",
    "direction": "南",
    "floor": "",
    "price": "8300",
    "tags": "",
    "source": "",
    "url": "https://sz.lianjia.com/zufang/SZ2023247683078062080.html",
    "rent_type": "整租",
    "location": "福田区-新洲-湖北大厦",
    "scraped_at": "2026-05-03 05:56:42",
    "region": "xinzhou1",
    "unit_price": 70.3,
    "lat": 22.530236,
    "lng": 114.042551
  },
  {
    "title": "整租·湖北大厦 6室2厅 南",
    "community": "湖北大厦",
    "area": "377.00",
    "rooms": "6室2厅",
    "direction": "南",
    "floor": "",
    "price": "25000",
    "tags": "",
    "source": "",
    "url": "https://sz.lianjia.com/zufang/SZ2077689612762873856.html",
    "rent_type": "整租",
    "location": "福田区-新洲-湖北大厦",
    "scraped_at": "2026-05-03 05:56:42",
    "region": "xinzhou1",
    "unit_price": 66.3,
    "lat": 22.530236,
    "lng": 114.042551
  },
  {
    "title": "整租·嘉葆润金座 2室2厅 南",
    "community": "嘉葆润金座",
    "area": "40.00",
    "rooms": "2室2厅",
    "direction": "南",
    "floor": "",
    "price": "8500",
    "tags": "",
    "source": "",
    "url": "https://sz.lianjia.com/zufang/SZ2090407096129421312.html",
    "rent_type": "整租",
    "location": "福田区-新洲-嘉葆润金座",
    "scraped_at": "2026-05-03 05:56:38",
    "region": "xinzhou1",
    "unit_price": 212.5,
    "lat": 22.523965,
    "lng": 114.047707
  },
  {
    "title": "合租·锦洲花园 5居室 南卧",
    "community": "锦洲花园 5居室 南卧",
    "area": "20.00",
    "rooms": "",
    "direction": "",
    "floor": "",
    "price": "2400",
    "tags": "",
    "source": "",
    "url": "https://sz.lianjia.com/zufang/SZ2091108183304044544.html",
    "rent_type": "合租",
    "location": "福田区-新洲-锦洲花园",
    "scraped_at": "2026-05-03 05:56:38",
    "region": "xinzhou1",
    "unit_price": 120.0,
    "lat": 22.525902,
    "lng": 114.044485
  },
  {
    "title": "合租·锦洲花园 5居室 南卧",
    "community": "锦洲花园 5居室 南卧",
    "area": "18.00",
    "rooms": "",
    "direction": "",
    "floor": "",
    "price": "1900",
    "tags": "",
    "source": "",
    "url": "https://sz.lianjia.com/zufang/SZ2091109132919635968.html",
    "rent_type": "合租",
    "location": "福田区-新洲-锦洲花园",
    "scraped_at": "2026-05-03 05:56:42",
    "region": "xinzhou1",
    "unit_price": 105.6,
    "lat": 22.525902,
    "lng": 114.044485
  },
  {
    "title": "整租·椰树花园 3室2厅 东南",
    "community": "椰树花园",
    "area": "80.00",
    "rooms": "3室2厅",
    "direction": "东南",
    "floor": "",
    "price": "5000",
    "tags": "",
    "source": "",
    "url": "https://sz.lianjia.com/zufang/SZ2091423406095335424.html",
    "rent_type": "整租",
    "location": "福田区-新洲-椰树花园",
    "scraped_at": "2026-05-03 05:56:42",
    "region": "xinzhou1",
    "unit_price": 62.5,
    "lat": 22.525217,
    "lng": 114.038177
  },
  {
    "title": "整租·蜜园 2室2厅 南",
    "community": "蜜园",
    "area": "59.84",
    "rooms": "2室2厅",
    "direction": "南",
    "floor": "",
    "price": "5800",
    "tags": "",
    "source": "",
    "url": "https://sz.lianjia.com/zufang/SZ2092246631796703232.html",
    "rent_type": "整租",
    "location": "福田区-新洲-蜜园",
    "scraped_at": "2026-05-03 05:56:42",
    "region": "xinzhou1",
    "unit_price": 96.9,
    "lat": 22.523938,
    "lng": 114.043177
  },
  {
    "title": "整租·星河雅居 2室1厅 南",
    "community": "星河雅居",
    "area": "84.00",
    "rooms": "2室1厅",
    "direction": "南",
    "floor": "",
    "price": "6800",
    "tags": "",
    "source": "",
    "url": "https://sz.lianjia.com/zufang/SZ2087749356571590656.html",
    "rent_type": "整租",
    "location": "福田区-新洲-星河雅居",
    "scraped_at": "2026-05-03 05:56:42",
    "region": "xinzhou1",
    "unit_price": 81.0,
    "lat": 22.524019,
    "lng": 114.044668
  },
  {
    "title": "整租·嘉葆润金座二期 4室2厅 南/北",
    "community": "嘉葆润金座二期",
    "area": "87.00",
    "rooms": "4室2厅",
    "direction": "南/北",
    "floor": "",
    "price": "13000",
    "tags": "",
    "source": "",
    "url": "https://sz.lianjia.com/zufang/SZ2079497354892804096.html",
    "rent_type": "整租",
    "location": "福田区-新洲-嘉葆润金座二期",
    "scraped_at": "2026-05-03 05:56:42",
    "region": "xinzhou1",
    "unit_price": 149.4,
    "lat": 22.526386,
    "lng": 114.043321
  },
  {
    "title": "整租·朗晴馨洲 3室2厅 东南",
    "community": "朗晴馨洲",
    "area": "84.66",
    "rooms": "3室2厅",
    "direction": "东南",
    "floor": "",
    "price": "7000",
    "tags": "",
    "source": "",
    "url": "https://sz.lianjia.com/zufang/SZ2161754564703813632.html",
    "rent_type": "整租",
    "location": "福田区-新洲-朗晴馨洲",
    "scraped_at": "2026-05-03 05:56:46",
    "region": "xinzhou1",
    "unit_price": 82.7,
    "lat": 22.527513,
    "lng": 114.045613
  },
  {
    "title": "整租·嘉葆润金座二期 4室2厅 东南",
    "community": "嘉葆润金座二期",
    "area": "81.00",
    "rooms": "4室2厅",
    "direction": "东南",
    "floor": "",
    "price": "11000",
    "tags": "",
    "source": "",
    "url": "https://sz.lianjia.com/zufang/SZ2159569305329467392.html",
    "rent_type": "整租",
    "location": "福田区-新洲-嘉葆润金座二期",
    "scraped_at": "2026-05-03 05:56:28",
    "region": "xinzhou1",
    "unit_price": 135.8,
    "lat": 22.526386,
    "lng": 114.043321
  },
  {
    "title": "整租·嘉葆润金座二期 4室2厅 北",
    "community": "嘉葆润金座二期",
    "area": "81.00",
    "rooms": "4室2厅",
    "direction": "北",
    "floor": "",
    "price": "9800",
    "tags": "",
    "source": "",
    "url": "https://sz.lianjia.com/zufang/SZ2159213092980916224.html",
    "rent_type": "整租",
    "location": "福田区-新洲-嘉葆润金座二期",
    "scraped_at": "2026-05-03 05:56:28",
    "region": "xinzhou1",
    "unit_price": 121.0,
    "lat": 22.526386,
    "lng": 114.043321
  },
  {
    "title": "整租·嘉葆润金座 2室1厅 复式 南",
    "community": "嘉葆润金座",
    "area": "27.00",
    "rooms": "2室1厅",
    "direction": "",
    "floor": "",
    "price": "6000",
    "tags": "",
    "source": "",
    "url": "https://sz.lianjia.com/zufang/SZ2159247257520570368.html",
    "rent_type": "整租",
    "location": "福田区-新洲-嘉葆润金座",
    "scraped_at": "2026-05-03 05:56:28",
    "region": "xinzhou1",
    "unit_price": 222.2,
    "lat": 22.523965,
    "lng": 114.047707
  },
  {
    "title": "整租·新洲花园 3室2厅 南",
    "community": "新洲花园",
    "area": "76.46",
    "rooms": "3室2厅",
    "direction": "南",
    "floor": "",
    "price": "6800",
    "tags": "",
    "source": "",
    "url": "https://sz.lianjia.com/zufang/SZ2159261050661240832.html",
    "rent_type": "整租",
    "location": "福田区-新洲-新洲花园",
    "scraped_at": "2026-05-03 05:56:28",
    "region": "xinzhou1",
    "unit_price": 88.9,
    "lat": 22.52878,
    "lng": 114.04387
  },
  {
    "title": "整租·绿景花园二期 2室1厅 南",
    "community": "绿景花园二期",
    "area": "73.00",
    "rooms": "2室1厅",
    "direction": "南",
    "floor": "",
    "price": "7800",
    "tags": "",
    "source": "",
    "url": "https://sz.lianjia.com/zufang/SZ2159310986413080576.html",
    "rent_type": "整租",
    "location": "福田区-新洲-绿景花园二期",
    "scraped_at": "2026-05-03 05:56:28",
    "region": "xinzhou1",
    "unit_price": 106.8,
    "lat": 22.52421,
    "lng": 114.03826
  },
  {
    "title": "整租·祥云天都世纪大厦 1室0厅 南/北",
    "community": "祥云天都世纪大厦",
    "area": "35.00",
    "rooms": "1室0厅",
    "direction": "南/北",
    "floor": "",
    "price": "4200",
    "tags": "",
    "source": "",
    "url": "https://sz.lianjia.com/zufang/SZ2161070757625462784.html",
    "rent_type": "整租",
    "location": "福田区-新洲-祥云天都世纪大厦",
    "scraped_at": "2026-05-03 05:56:28",
    "region": "xinzhou1",
    "unit_price": 120.0,
    "lat": 22.523737,
    "lng": 114.038792
  },
  {
    "title": "整租·绿景中城天邑花园 3室1厅 西南",
    "community": "绿景中城天邑花园",
    "area": "97.00",
    "rooms": "3室1厅",
    "direction": "西南",
    "floor": "",
    "price": "12000",
    "tags": "",
    "source": "",
    "url": "https://sz.lianjia.com/zufang/SZ2161117524370915328.html",
    "rent_type": "整租",
    "location": "福田区-新洲-绿景中城天邑花园",
    "scraped_at": "2026-05-03 05:56:28",
    "region": "xinzhou1",
    "unit_price": 123.7,
    "lat": 22.524445,
    "lng": 114.037901
  },
  {
    "title": "整租·祥云天都世纪大厦 1室1厅 东北",
    "community": "祥云天都世纪大厦",
    "area": "50.00",
    "rooms": "1室1厅",
    "direction": "东北",
    "floor": "",
    "price": "5700",
    "tags": "",
    "source": "",
    "url": "https://sz.lianjia.com/zufang/SZ2161125656509808640.html",
    "rent_type": "整租",
    "location": "福田区-新洲-祥云天都世纪大厦",
    "scraped_at": "2026-05-03 05:56:28",
    "region": "xinzhou1",
    "unit_price": 114.0,
    "lat": 22.523737,
    "lng": 114.038792
  },
  {
    "title": "整租·嘉葆润金座 2室2厅 西北",
    "community": "嘉葆润金座",
    "area": "35.00",
    "rooms": "2室2厅",
    "direction": "西北",
    "floor": "",
    "price": "6800",
    "tags": "",
    "source": "",
    "url": "https://sz.lianjia.com/zufang/SZ2161705963382374400.html",
    "rent_type": "整租",
    "location": "福田区-新洲-嘉葆润金座",
    "scraped_at": "2026-05-03 05:56:46",
    "region": "xinzhou1",
    "unit_price": 194.3,
    "lat": 22.523965,
    "lng": 114.047707
  },
  {
    "title": "整租·祥云天都世纪大厦 2室1厅 东北",
    "community": "祥云天都世纪大厦",
    "area": "57.00",
    "rooms": "2室1厅",
    "direction": "东北",
    "floor": "",
    "price": "5800",
    "tags": "",
    "source": "",
    "url": "https://sz.lianjia.com/zufang/SZ2147692770934915072.html",
    "rent_type": "整租",
    "location": "福田区-新洲-祥云天都世纪大厦",
    "scraped_at": "2026-05-03 05:56:28",
    "region": "xinzhou1",
    "unit_price": 101.8,
    "lat": 22.523737,
    "lng": 114.038792
  },
  {
    "title": "整租·嘉洲豪园 1室1厅 北",
    "community": "嘉洲豪园",
    "area": "80.67",
    "rooms": "1室1厅",
    "direction": "北",
    "floor": "",
    "price": "8500",
    "tags": "",
    "source": "",
    "url": "https://sz.lianjia.com/zufang/SZ2145934655516311552.html",
    "rent_type": "整租",
    "location": "福田区-新洲-嘉洲豪园",
    "scraped_at": "2026-05-03 05:56:35",
    "region": "xinzhou1",
    "unit_price": 105.4,
    "lat": 22.527269,
    "lng": 114.044418
  },
  {
    "title": "整租·蜜园 3室1厅 东南",
    "community": "蜜园",
    "area": "75.00",
    "rooms": "3室1厅",
    "direction": "东南",
    "floor": "",
    "price": "7800",
    "tags": "",
    "source": "",
    "url": "https://sz.lianjia.com/zufang/SZ2146078047571279872.html",
    "rent_type": "整租",
    "location": "福田区-新洲-蜜园",
    "scraped_at": "2026-05-03 05:56:28",
    "region": "xinzhou1",
    "unit_price": 104.0,
    "lat": 22.523938,
    "lng": 114.043177
  },
  {
    "title": "整租·朗晴馨洲 2室1厅 东北",
    "community": "朗晴馨洲",
    "area": "65.00",
    "rooms": "2室1厅",
    "direction": "东北",
    "floor": "",
    "price": "6500",
    "tags": "",
    "source": "",
    "url": "https://sz.lianjia.com/zufang/SZ2149760384792264704.html",
    "rent_type": "整租",
    "location": "福田区-新洲-朗晴馨洲",
    "scraped_at": "2026-05-03 05:56:35",
    "region": "xinzhou1",
    "unit_price": 100.0,
    "lat": 22.527513,
    "lng": 114.045613
  },
  {
    "title": "整租·绿景中城天邑花园 2室2厅 南",
    "community": "绿景中城天邑花园",
    "area": "68.00",
    "rooms": "2室2厅",
    "direction": "南",
    "floor": "",
    "price": "8000",
    "tags": "",
    "source": "",
    "url": "https://sz.lianjia.com/zufang/SZ2149852191400132608.html",
    "rent_type": "整租",
    "location": "福田区-新洲-绿景中城天邑花园",
    "scraped_at": "2026-05-03 05:56:35",
    "region": "xinzhou1",
    "unit_price": 117.6,
    "lat": 22.524445,
    "lng": 114.037901
  },
  {
    "title": "整租·嘉洲富苑 3室1厅 东",
    "community": "嘉洲富苑",
    "area": "85.00",
    "rooms": "3室1厅",
    "direction": "东",
    "floor": "",
    "price": "8800",
    "tags": "",
    "source": "",
    "url": "https://sz.lianjia.com/zufang/SZ2150855276775866368.html",
    "rent_type": "整租",
    "location": "福田区-新洲-嘉洲富苑",
    "scraped_at": "2026-05-03 05:56:31",
    "region": "xinzhou1",
    "unit_price": 103.5,
    "lat": 22.526283,
    "lng": 114.045858
  },
  {
    "title": "整租·金沙花园 3室2厅 南",
    "community": "金沙花园",
    "area": "120.00",
    "rooms": "3室2厅",
    "direction": "南",
    "floor": "",
    "price": "8000",
    "tags": "",
    "source": "",
    "url": "https://sz.lianjia.com/zufang/SZ2150942460602220544.html",
    "rent_type": "整租",
    "location": "福田区-新洲-金沙花园",
    "scraped_at": "2026-05-03 05:56:28",
    "region": "xinzhou1",
    "unit_price": 66.7,
    "lat": 22.517066,
    "lng": 114.03885
  },
  {
    "title": "整租·蜜园 2室2厅 南",
    "community": "蜜园",
    "area": "60.00",
    "rooms": "2室2厅",
    "direction": "南",
    "floor": "",
    "price": "6800",
    "tags": "",
    "source": "",
    "url": "https://sz.lianjia.com/zufang/SZ2150957949906845696.html",
    "rent_type": "整租",
    "location": "福田区-新洲-蜜园",
    "scraped_at": "2026-05-03 05:56:28",
    "region": "xinzhou1",
    "unit_price": 113.3,
    "lat": 22.523938,
    "lng": 114.043177
  },
  {
    "title": "整租·嘉葆润金座 2室2厅 北",
    "community": "嘉葆润金座",
    "area": "35.00",
    "rooms": "2室2厅",
    "direction": "北",
    "floor": "",
    "price": "6000",
    "tags": "",
    "source": "",
    "url": "https://sz.lianjia.com/zufang/SZ2150988494606958592.html",
    "rent_type": "整租",
    "location": "福田区-新洲-嘉葆润金座",
    "scraped_at": "2026-05-03 05:56:28",
    "region": "xinzhou1",
    "unit_price": 171.4,
    "lat": 22.523965,
    "lng": 114.047707
  },
  {
    "title": "整租·嘉洲富苑 1室1厅 南",
    "community": "嘉洲富苑",
    "area": "35.00",
    "rooms": "1室1厅",
    "direction": "南",
    "floor": "",
    "price": "6200",
    "tags": "",
    "source": "",
    "url": "https://sz.lianjia.com/zufang/SZ2151192399882223616.html",
    "rent_type": "整租",
    "location": "福田区-新洲-嘉洲富苑",
    "scraped_at": "2026-05-03 05:56:28",
    "region": "xinzhou1",
    "unit_price": 177.1,
    "lat": 22.526283,
    "lng": 114.045858
  },
  {
    "title": "整租·星河雅居 4室2厅 东南",
    "community": "星河雅居",
    "area": "112.00",
    "rooms": "4室2厅",
    "direction": "东南",
    "floor": "",
    "price": "8200",
    "tags": "",
    "source": "",
    "url": "https://sz.lianjia.com/zufang/SZ2151691553951711232.html",
    "rent_type": "整租",
    "location": "福田区-新洲-星河雅居",
    "scraped_at": "2026-05-03 05:56:28",
    "region": "xinzhou1",
    "unit_price": 73.2,
    "lat": 22.524019,
    "lng": 114.044668
  },
  {
    "title": "整租·绿景花园二期 4室1厅 东南",
    "community": "绿景花园二期",
    "area": "92.99",
    "rooms": "4室1厅",
    "direction": "东南",
    "floor": "",
    "price": "11000",
    "tags": "",
    "source": "",
    "url": "https://sz.lianjia.com/zufang/SZ2151717757605904384.html",
    "rent_type": "整租",
    "location": "福田区-新洲-绿景花园二期",
    "scraped_at": "2026-05-03 05:56:28",
    "region": "xinzhou1",
    "unit_price": 118.3,
    "lat": 22.52421,
    "lng": 114.03826
  },
  {
    "title": "合租·椰树花园 3居室 东/西卧",
    "community": "椰树花园 3居室 东/西卧",
    "area": "25.00",
    "rooms": "",
    "direction": "",
    "floor": "",
    "price": "2300",
    "tags": "",
    "source": "",
    "url": "https://sz.lianjia.com/zufang/SZ2151918244850565120.html",
    "rent_type": "合租",
    "location": "福田区-新洲-椰树花园",
    "scraped_at": "2026-05-03 05:56:28",
    "region": "xinzhou1",
    "unit_price": 92.0,
    "lat": 22.525217,
    "lng": 114.038177
  },
  {
    "title": "整租·祥云天都世纪大厦 1室0厅 东北",
    "community": "祥云天都世纪大厦",
    "area": "39.00",
    "rooms": "1室0厅",
    "direction": "东北",
    "floor": "",
    "price": "4500",
    "tags": "",
    "source": "",
    "url": "https://sz.lianjia.com/zufang/SZ2161347671510482944.html",
    "rent_type": "整租",
    "location": "福田区-新洲-祥云天都世纪大厦",
    "scraped_at": "2026-05-03 05:56:46",
    "region": "xinzhou1",
    "unit_price": 115.4,
    "lat": 22.523737,
    "lng": 114.038792
  },
  {
    "title": "整租·嘉洲富苑 1室1厅 北",
    "community": "嘉洲富苑",
    "area": "35.00",
    "rooms": "1室1厅",
    "direction": "北",
    "floor": "",
    "price": "5900",
    "tags": "",
    "source": "",
    "url": "https://sz.lianjia.com/zufang/SZ2150549212054421504.html",
    "rent_type": "整租",
    "location": "福田区-新洲-嘉洲富苑",
    "scraped_at": "2026-05-03 05:56:35",
    "region": "xinzhou1",
    "unit_price": 168.6,
    "lat": 22.526283,
    "lng": 114.045858
  },
  {
    "title": "整租·新洲花园 3室2厅 南",
    "community": "新洲花园",
    "area": "100.00",
    "rooms": "3室2厅",
    "direction": "南",
    "floor": "",
    "price": "7200",
    "tags": "",
    "source": "",
    "url": "https://sz.lianjia.com/zufang/SZ2153786596283908096.html",
    "rent_type": "整租",
    "location": "福田区-新洲-新洲花园",
    "scraped_at": "2026-05-03 05:56:31",
    "region": "xinzhou1",
    "unit_price": 72.0,
    "lat": 22.52878,
    "lng": 114.04387
  },
  {
    "title": "整租·嘉葆润金座 1室1厅 南",
    "community": "嘉葆润金座",
    "area": "22.00",
    "rooms": "1室1厅",
    "direction": "南",
    "floor": "",
    "price": "5500",
    "tags": "",
    "source": "",
    "url": "https://sz.lianjia.com/zufang/SZ2154238939194458112.html",
    "rent_type": "整租",
    "location": "福田区-新洲-嘉葆润金座",
    "scraped_at": "2026-05-03 05:56:31",
    "region": "xinzhou1",
    "unit_price": 250.0,
    "lat": 22.523965,
    "lng": 114.047707
  },
  {
    "title": "整租·湖北宝丰花园 2室2厅 南/北",
    "community": "湖北宝丰花园",
    "area": "89.00",
    "rooms": "2室2厅",
    "direction": "南/北",
    "floor": "",
    "price": "5500",
    "tags": "",
    "source": "",
    "url": "https://sz.lianjia.com/zufang/SZ2154262532687134720.html",
    "rent_type": "整租",
    "location": "福田区-新洲-湖北宝丰花园",
    "scraped_at": "2026-05-03 05:56:31",
    "region": "xinzhou1",
    "unit_price": 61.8,
    "lat": 22.530236,
    "lng": 114.042551
  },
  {
    "title": "整租·嘉葆润金座 2室1厅 复式 东",
    "community": "嘉葆润金座",
    "area": "35.00",
    "rooms": "2室1厅",
    "direction": "",
    "floor": "",
    "price": "5800",
    "tags": "",
    "source": "",
    "url": "https://sz.lianjia.com/zufang/SZ2153463049950855168.html",
    "rent_type": "整租",
    "location": "福田区-新洲-嘉葆润金座",
    "scraped_at": "2026-05-03 05:56:31",
    "region": "xinzhou1",
    "unit_price": 165.7,
    "lat": 22.523965,
    "lng": 114.047707
  },
  {
    "title": "整租·绿景中城天邑花园 3室2厅 南",
    "community": "绿景中城天邑花园",
    "area": "99.00",
    "rooms": "3室2厅",
    "direction": "南",
    "floor": "",
    "price": "11000",
    "tags": "",
    "source": "",
    "url": "https://sz.lianjia.com/zufang/SZ2154126962669387776.html",
    "rent_type": "整租",
    "location": "福田区-新洲-绿景中城天邑花园",
    "scraped_at": "2026-05-03 05:56:31",
    "region": "xinzhou1",
    "unit_price": 111.1,
    "lat": 22.524445,
    "lng": 114.037901
  },
  {
    "title": "整租·嘉葆润金座二期 4室2厅 南",
    "community": "嘉葆润金座二期",
    "area": "80.96",
    "rooms": "4室2厅",
    "direction": "南",
    "floor": "",
    "price": "9500",
    "tags": "",
    "source": "",
    "url": "https://sz.lianjia.com/zufang/SZ2098379554363015168.html",
    "rent_type": "整租",
    "location": "福田区-新洲-嘉葆润金座二期",
    "scraped_at": "2026-05-03 05:56:38",
    "region": "xinzhou1",
    "unit_price": 117.3,
    "lat": 22.526386,
    "lng": 114.043321
  },
  {
    "title": "合租·祥云天都世纪大厦 1居室 南卧",
    "community": "祥云天都世纪大厦 1居室 南卧",
    "area": "20.00",
    "rooms": "",
    "direction": "",
    "floor": "",
    "price": "2700",
    "tags": "",
    "source": "",
    "url": "https://sz.lianjia.com/zufang/SZ2131711481996115968.html",
    "rent_type": "合租",
    "location": "福田区-新洲-祥云天都世纪大厦",
    "scraped_at": "2026-05-03 05:56:31",
    "region": "xinzhou1",
    "unit_price": 135.0,
    "lat": 22.52109,
    "lng": 114.043961
  },
  {
    "title": "合租·椰树花园 3居室 东卧",
    "community": "椰树花园 3居室 东卧",
    "area": "30.00",
    "rooms": "",
    "direction": "",
    "floor": "",
    "price": "2600",
    "tags": "",
    "source": "",
    "url": "https://sz.lianjia.com/zufang/SZ2131425685384724480.html",
    "rent_type": "合租",
    "location": "福田区-新洲-椰树花园",
    "scraped_at": "2026-05-03 05:56:31",
    "region": "xinzhou1",
    "unit_price": 86.7,
    "lat": 22.525217,
    "lng": 114.038177
  },
  {
    "title": "整租·祥云天都世纪大厦 2室1厅 东北",
    "community": "祥云天都世纪大厦",
    "area": "57.00",
    "rooms": "2室1厅",
    "direction": "东北",
    "floor": "",
    "price": "6000",
    "tags": "",
    "source": "",
    "url": "https://sz.lianjia.com/zufang/SZ2136460888650022912.html",
    "rent_type": "整租",
    "location": "福田区-新洲-祥云天都世纪大厦",
    "scraped_at": "2026-05-03 05:56:31",
    "region": "xinzhou1",
    "unit_price": 105.3,
    "lat": 22.523737,
    "lng": 114.038792
  },
  {
    "title": "整租·绿景中城天邑花园 3室2厅 南",
    "community": "绿景中城天邑花园",
    "area": "105.20",
    "rooms": "3室2厅",
    "direction": "南",
    "floor": "",
    "price": "12000",
    "tags": "",
    "source": "",
    "url": "https://sz.lianjia.com/zufang/SZ2137096793572245504.html",
    "rent_type": "整租",
    "location": "福田区-新洲-绿景中城天邑花园",
    "scraped_at": "2026-05-03 05:56:31",
    "region": "xinzhou1",
    "unit_price": 114.1,
    "lat": 22.524445,
    "lng": 114.037901
  },
  {
    "title": "整租·朗晴馨洲 3室2厅 北",
    "community": "朗晴馨洲",
    "area": "80.40",
    "rooms": "3室2厅",
    "direction": "北",
    "floor": "",
    "price": "7200",
    "tags": "",
    "source": "",
    "url": "https://sz.lianjia.com/zufang/SZ2137437012993507328.html",
    "rent_type": "整租",
    "location": "福田区-新洲-朗晴馨洲",
    "scraped_at": "2026-05-03 05:56:31",
    "region": "xinzhou1",
    "unit_price": 89.6,
    "lat": 22.527513,
    "lng": 114.045613
  },
  {
    "title": "整租·韵动家园 3室2厅 南",
    "community": "韵动家园",
    "area": "116.00",
    "rooms": "3室2厅",
    "direction": "南",
    "floor": "",
    "price": "11500",
    "tags": "",
    "source": "",
    "url": "https://sz.lianjia.com/zufang/SZ2123748237692108800.html",
    "rent_type": "整租",
    "location": "福田区-新洲-韵动家园",
    "scraped_at": "2026-05-03 05:56:31",
    "region": "xinzhou1",
    "unit_price": 99.1,
    "lat": 22.52645,
    "lng": 114.038225
  },
  {
    "title": "整租·金沙花园 3室1厅 南",
    "community": "金沙花园",
    "area": "80.00",
    "rooms": "3室1厅",
    "direction": "南",
    "floor": "",
    "price": "6000",
    "tags": "",
    "source": "",
    "url": "https://sz.lianjia.com/zufang/SZ2124093573623185408.html",
    "rent_type": "整租",
    "location": "福田区-新洲-金沙花园",
    "scraped_at": "2026-05-03 05:56:31",
    "region": "xinzhou1",
    "unit_price": 75.0,
    "lat": 22.517066,
    "lng": 114.03885
  },
  {
    "title": "整租·嘉葆润金座 4室1厅 南",
    "community": "嘉葆润金座",
    "area": "67.83",
    "rooms": "4室1厅",
    "direction": "南",
    "floor": "",
    "price": "10500",
    "tags": "",
    "source": "",
    "url": "https://sz.lianjia.com/zufang/SZ2153118820758192128.html",
    "rent_type": "整租",
    "location": "福田区-新洲-嘉葆润金座",
    "scraped_at": "2026-05-03 05:56:31",
    "region": "xinzhou1",
    "unit_price": 154.8,
    "lat": 22.523965,
    "lng": 114.047707
  },
  {
    "title": "整租·祥云天都世纪大厦 1室0厅 西南",
    "community": "祥云天都世纪大厦",
    "area": "38.94",
    "rooms": "1室0厅",
    "direction": "西南",
    "floor": "",
    "price": "5000",
    "tags": "",
    "source": "",
    "url": "https://sz.lianjia.com/zufang/SZ2153101549356711936.html",
    "rent_type": "整租",
    "location": "福田区-新洲-祥云天都世纪大厦",
    "scraped_at": "2026-05-03 05:56:31",
    "region": "xinzhou1",
    "unit_price": 128.4,
    "lat": 22.523737,
    "lng": 114.038792
  },
  {
    "title": "整租·绿景新苑 3室1厅 西南",
    "community": "绿景新苑",
    "area": "95.84",
    "rooms": "3室1厅",
    "direction": "西南",
    "floor": "",
    "price": "8200",
    "tags": "",
    "source": "",
    "url": "https://sz.lianjia.com/zufang/SZ2153144780660408320.html",
    "rent_type": "整租",
    "location": "福田区-新洲-绿景新苑",
    "scraped_at": "2026-05-03 05:56:31",
    "region": "xinzhou1",
    "unit_price": 85.6,
    "lat": 22.524445,
    "lng": 114.037901
  },
  {
    "title": "整租·绿景中城天邑花园 5室2厅 南",
    "community": "绿景中城天邑花园",
    "area": "167.00",
    "rooms": "5室2厅",
    "direction": "南",
    "floor": "",
    "price": "25000",
    "tags": "",
    "source": "",
    "url": "https://sz.lianjia.com/zufang/SZ2152751686593019904.html",
    "rent_type": "整租",
    "location": "福田区-新洲-绿景中城天邑花园",
    "scraped_at": "2026-05-03 05:56:31",
    "region": "xinzhou1",
    "unit_price": 149.7,
    "lat": 22.524445,
    "lng": 114.037901
  },
  {
    "title": "整租·嘉葆润金座 2室1厅 复式 北/东北",
    "community": "嘉葆润金座",
    "area": "35.00",
    "rooms": "2室1厅",
    "direction": "",
    "floor": "",
    "price": "7300",
    "tags": "",
    "source": "",
    "url": "https://sz.lianjia.com/zufang/SZ2153152774324355072.html",
    "rent_type": "整租",
    "location": "福田区-新洲-嘉葆润金座",
    "scraped_at": "2026-05-03 05:56:31",
    "region": "xinzhou1",
    "unit_price": 208.6,
    "lat": 22.523965,
    "lng": 114.047707
  },
  {
    "title": "整租·骏皇嘉园 1室0厅 西南",
    "community": "骏皇嘉园",
    "area": "32.00",
    "rooms": "1室0厅",
    "direction": "西南",
    "floor": "",
    "price": "4500",
    "tags": "",
    "source": "",
    "url": "https://sz.lianjia.com/zufang/SZ2128421405849550848.html",
    "rent_type": "整租",
    "location": "福田区-新洲-骏皇嘉园",
    "scraped_at": "2026-05-03 05:56:31",
    "region": "xinzhou1",
    "unit_price": 140.6,
    "lat": 22.52697,
    "lng": 114.04054
  },
  {
    "title": "整租·祥云天都世纪大厦 3室2厅 东北",
    "community": "祥云天都世纪大厦",
    "area": "91.00",
    "rooms": "3室2厅",
    "direction": "东北",
    "floor": "",
    "price": "9000",
    "tags": "",
    "source": "",
    "url": "https://sz.lianjia.com/zufang/SZ2129825431795269632.html",
    "rent_type": "整租",
    "location": "福田区-新洲-祥云天都世纪大厦",
    "scraped_at": "2026-05-03 05:56:31",
    "region": "xinzhou1",
    "unit_price": 98.9,
    "lat": 22.523737,
    "lng": 114.038792
  },
  {
    "title": "整租·椰树花园 4室2厅 南",
    "community": "椰树花园",
    "area": "83.00",
    "rooms": "4室2厅",
    "direction": "南",
    "floor": "",
    "price": "7000",
    "tags": "",
    "source": "",
    "url": "https://sz.lianjia.com/zufang/SZ2129829914818379776.html",
    "rent_type": "整租",
    "location": "福田区-新洲-椰树花园",
    "scraped_at": "2026-05-03 05:56:31",
    "region": "xinzhou1",
    "unit_price": 84.3,
    "lat": 22.525217,
    "lng": 114.038177
  },
  {
    "title": "整租·祥云天都世纪大厦 2室2厅 东南",
    "community": "祥云天都世纪大厦",
    "area": "80.00",
    "rooms": "2室2厅",
    "direction": "东南",
    "floor": "",
    "price": "7600",
    "tags": "",
    "source": "",
    "url": "https://sz.lianjia.com/zufang/SZ2129874356598210560.html",
    "rent_type": "整租",
    "location": "福田区-新洲-祥云天都世纪大厦",
    "scraped_at": "2026-05-03 05:56:31",
    "region": "xinzhou1",
    "unit_price": 95.0,
    "lat": 22.523737,
    "lng": 114.038792
  },
  {
    "title": "整租·祥云天都世纪大厦 2室1厅 南",
    "community": "祥云天都世纪大厦",
    "area": "72.00",
    "rooms": "2室1厅",
    "direction": "南",
    "floor": "",
    "price": "7200",
    "tags": "",
    "source": "",
    "url": "https://sz.lianjia.com/zufang/SZ2130224986101645312.html",
    "rent_type": "整租",
    "location": "福田区-新洲-祥云天都世纪大厦",
    "scraped_at": "2026-05-03 05:56:31",
    "region": "xinzhou1",
    "unit_price": 100.0,
    "lat": 22.523737,
    "lng": 114.038792
  },
  {
    "title": "整租·韵动家园 3室2厅 错层 南",
    "community": "韵动家园",
    "area": "90.00",
    "rooms": "3室2厅",
    "direction": "",
    "floor": "",
    "price": "7500",
    "tags": "",
    "source": "",
    "url": "https://sz.lianjia.com/zufang/SZ2127231151574614016.html",
    "rent_type": "整租",
    "location": "福田区-新洲-韵动家园",
    "scraped_at": "2026-05-03 05:56:31",
    "region": "xinzhou1",
    "unit_price": 83.3,
    "lat": 22.52645,
    "lng": 114.038225
  },
  {
    "title": "整租·朗晴馨洲 2室1厅 西南",
    "community": "朗晴馨洲",
    "area": "65.00",
    "rooms": "2室1厅",
    "direction": "西南",
    "floor": "",
    "price": "6000",
    "tags": "",
    "source": "",
    "url": "https://sz.lianjia.com/zufang/SZ2127394116198203392.html",
    "rent_type": "整租",
    "location": "福田区-新洲-朗晴馨洲",
    "scraped_at": "2026-05-03 05:56:31",
    "region": "xinzhou1",
    "unit_price": 92.3,
    "lat": 22.527513,
    "lng": 114.045613
  },
  {
    "title": "整租·蜜园 2室2厅 东南",
    "community": "蜜园",
    "area": "60.00",
    "rooms": "2室2厅",
    "direction": "东南",
    "floor": "",
    "price": "6200",
    "tags": "",
    "source": "",
    "url": "https://sz.lianjia.com/zufang/SZ2139782997430239232.html",
    "rent_type": "整租",
    "location": "福田区-新洲-蜜园",
    "scraped_at": "2026-05-03 05:56:31",
    "region": "xinzhou1",
    "unit_price": 103.3,
    "lat": 22.523938,
    "lng": 114.043177
  },
  {
    "title": "整租·金沙花园 2室1厅 南",
    "community": "金沙花园",
    "area": "60.00",
    "rooms": "2室1厅",
    "direction": "南",
    "floor": "",
    "price": "5500",
    "tags": "",
    "source": "",
    "url": "https://sz.lianjia.com/zufang/SZ2139040748417318912.html",
    "rent_type": "整租",
    "location": "福田区-新洲-金沙花园",
    "scraped_at": "2026-05-03 05:56:31",
    "region": "xinzhou1",
    "unit_price": 91.7,
    "lat": 22.517066,
    "lng": 114.03885
  },
  {
    "title": "整租·绿景新苑 3室2厅 南",
    "community": "绿景新苑",
    "area": "110.00",
    "rooms": "3室2厅",
    "direction": "南",
    "floor": "",
    "price": "9500",
    "tags": "",
    "source": "",
    "url": "https://sz.lianjia.com/zufang/SZ2139339985235476480.html",
    "rent_type": "整租",
    "location": "福田区-新洲-绿景新苑",
    "scraped_at": "2026-05-03 05:56:31",
    "region": "xinzhou1",
    "unit_price": 86.4,
    "lat": 22.524445,
    "lng": 114.037901
  },
  {
    "title": "整租·金沙花园 4室2厅 东南/南",
    "community": "金沙花园",
    "area": "202.00",
    "rooms": "4室2厅",
    "direction": "东南/南",
    "floor": "",
    "price": "14000",
    "tags": "",
    "source": "",
    "url": "https://sz.lianjia.com/zufang/SZ2139314929184800768.html",
    "rent_type": "整租",
    "location": "福田区-新洲-金沙花园",
    "scraped_at": "2026-05-03 05:56:31",
    "region": "xinzhou1",
    "unit_price": 69.3,
    "lat": 22.517066,
    "lng": 114.03885
  },
  {
    "title": "合租·绿景花园 4居室 南卧",
    "community": "绿景花园 4居室 南卧",
    "area": "15.00",
    "rooms": "",
    "direction": "",
    "floor": "",
    "price": "1900",
    "tags": "",
    "source": "",
    "url": "https://sz.lianjia.com/zufang/SZ2141151172092755968.html",
    "rent_type": "合租",
    "location": "福田区-新洲-绿景花园",
    "scraped_at": "2026-05-03 05:56:35",
    "region": "xinzhou1",
    "unit_price": 126.7,
    "lat": 22.52205,
    "lng": 114.04241
  },
  {
    "title": "整租·新洲大厦 3室2厅 南",
    "community": "新洲大厦",
    "area": "92.00",
    "rooms": "3室2厅",
    "direction": "南",
    "floor": "",
    "price": "7500",
    "tags": "",
    "source": "",
    "url": "https://sz.lianjia.com/zufang/SZ2141152164133732352.html",
    "rent_type": "整租",
    "location": "福田区-新洲-新洲大厦",
    "scraped_at": "2026-05-03 05:56:35",
    "region": "xinzhou1",
    "unit_price": 81.5,
    "lat": 22.529157,
    "lng": 114.04392
  },
  {
    "title": "整租·绿景中城天邑花园 2室2厅 南",
    "community": "绿景中城天邑花园",
    "area": "67.00",
    "rooms": "2室2厅",
    "direction": "南",
    "floor": "",
    "price": "8000",
    "tags": "",
    "source": "",
    "url": "https://sz.lianjia.com/zufang/SZ2141197400214077440.html",
    "rent_type": "整租",
    "location": "福田区-新洲-绿景中城天邑花园",
    "scraped_at": "2026-05-03 05:56:35",
    "region": "xinzhou1",
    "unit_price": 119.4,
    "lat": 22.524445,
    "lng": 114.037901
  },
  {
    "title": "整租·蜜园 1室1厅 南",
    "community": "蜜园",
    "area": "42.00",
    "rooms": "1室1厅",
    "direction": "南",
    "floor": "",
    "price": "5200",
    "tags": "",
    "source": "",
    "url": "https://sz.lianjia.com/zufang/SZ2150267631981035520.html",
    "rent_type": "整租",
    "location": "福田区-新洲-蜜园",
    "scraped_at": "2026-05-03 05:56:35",
    "region": "xinzhou1",
    "unit_price": 123.8,
    "lat": 22.523938,
    "lng": 114.043177
  },
  {
    "title": "整租·祥云天都世纪大厦 2室1厅 西",
    "community": "祥云天都世纪大厦",
    "area": "57.00",
    "rooms": "2室1厅",
    "direction": "西",
    "floor": "",
    "price": "5800",
    "tags": "",
    "source": "",
    "url": "https://sz.lianjia.com/zufang/SZ2150434967111335936.html",
    "rent_type": "整租",
    "location": "福田区-新洲-祥云天都世纪大厦",
    "scraped_at": "2026-05-03 05:56:35",
    "region": "xinzhou1",
    "unit_price": 101.8,
    "lat": 22.523737,
    "lng": 114.038792
  },
  {
    "title": "整租·韵动家园 1室1厅 东",
    "community": "韵动家园",
    "area": "41.00",
    "rooms": "1室1厅",
    "direction": "东",
    "floor": "",
    "price": "5300",
    "tags": "",
    "source": "",
    "url": "https://sz.lianjia.com/zufang/SZ2150532338751111168.html",
    "rent_type": "整租",
    "location": "福田区-新洲-韵动家园",
    "scraped_at": "2026-05-03 05:56:35",
    "region": "xinzhou1",
    "unit_price": 129.3,
    "lat": 22.52645,
    "lng": 114.038225
  },
  {
    "title": "整租·蜜园 3室1厅 东南",
    "community": "蜜园",
    "area": "80.00",
    "rooms": "3室1厅",
    "direction": "东南",
    "floor": "",
    "price": "7500",
    "tags": "",
    "source": "",
    "url": "https://sz.lianjia.com/zufang/SZ2147209045587525632.html",
    "rent_type": "整租",
    "location": "福田区-新洲-蜜园",
    "scraped_at": "2026-05-03 05:56:35",
    "region": "xinzhou1",
    "unit_price": 93.8,
    "lat": 22.523938,
    "lng": 114.043177
  },
  {
    "title": "整租·嘉葆润金座 2室1厅 复式 北",
    "community": "嘉葆润金座",
    "area": "35.00",
    "rooms": "2室1厅",
    "direction": "",
    "floor": "",
    "price": "6400",
    "tags": "",
    "source": "",
    "url": "https://sz.lianjia.com/zufang/SZ2147288258562752512.html",
    "rent_type": "整租",
    "location": "福田区-新洲-嘉葆润金座",
    "scraped_at": "2026-05-03 05:56:35",
    "region": "xinzhou1",
    "unit_price": 182.9,
    "lat": 22.523965,
    "lng": 114.047707
  },
  {
    "title": "整租·祥云天都世纪大厦 3室2厅 西南",
    "community": "祥云天都世纪大厦",
    "area": "89.00",
    "rooms": "3室2厅",
    "direction": "西南",
    "floor": "",
    "price": "8600",
    "tags": "",
    "source": "",
    "url": "https://sz.lianjia.com/zufang/SZ2147282499347152896.html",
    "rent_type": "整租",
    "location": "福田区-新洲-祥云天都世纪大厦",
    "scraped_at": "2026-05-03 05:56:35",
    "region": "xinzhou1",
    "unit_price": 96.6,
    "lat": 22.523737,
    "lng": 114.038792
  },
  {
    "title": "整租·新洲苑 3室2厅 南/北",
    "community": "新洲苑",
    "area": "105.11",
    "rooms": "3室2厅",
    "direction": "南/北",
    "floor": "",
    "price": "8000",
    "tags": "",
    "source": "",
    "url": "https://sz.lianjia.com/zufang/SZ2147590286581170176.html",
    "rent_type": "整租",
    "location": "福田区-新洲-新洲苑",
    "scraped_at": "2026-05-03 05:56:35",
    "region": "xinzhou1",
    "unit_price": 76.1,
    "lat": 22.53319,
    "lng": 114.0407
  },
  {
    "title": "整租·朗晴馨洲 3室1厅 南",
    "community": "朗晴馨洲",
    "area": "85.00",
    "rooms": "3室1厅",
    "direction": "南",
    "floor": "",
    "price": "6600",
    "tags": "",
    "source": "",
    "url": "https://sz.lianjia.com/zufang/SZ2150218709510127616.html",
    "rent_type": "整租",
    "location": "福田区-新洲-朗晴馨洲",
    "scraped_at": "2026-05-03 05:56:35",
    "region": "xinzhou1",
    "unit_price": 77.6,
    "lat": 22.527513,
    "lng": 114.045613
  },
  {
    "title": "整租·嘉葆润金座 2室1厅 复式 北",
    "community": "嘉葆润金座",
    "area": "35.00",
    "rooms": "2室1厅",
    "direction": "",
    "floor": "",
    "price": "6600",
    "tags": "",
    "source": "",
    "url": "https://sz.lianjia.com/zufang/SZ2148658362626080768.html",
    "rent_type": "整租",
    "location": "福田区-新洲-嘉葆润金座",
    "scraped_at": "2026-05-03 05:56:35",
    "region": "xinzhou1",
    "unit_price": 188.6,
    "lat": 22.523965,
    "lng": 114.047707
  },
  {
    "title": "整租·绿景中城天邑花园 2室1厅 东北",
    "community": "绿景中城天邑花园",
    "area": "47.00",
    "rooms": "2室1厅",
    "direction": "东北",
    "floor": "",
    "price": "6800",
    "tags": "",
    "source": "",
    "url": "https://sz.lianjia.com/zufang/SZ2145465863199784960.html",
    "rent_type": "整租",
    "location": "福田区-新洲-绿景中城天邑花园",
    "scraped_at": "2026-05-03 05:56:35",
    "region": "xinzhou1",
    "unit_price": 144.7,
    "lat": 22.524445,
    "lng": 114.037901
  },
  {
    "title": "整租·嘉葆润金座 3室1厅 西南/西",
    "community": "嘉葆润金座",
    "area": "44.00",
    "rooms": "3室1厅",
    "direction": "西南/西",
    "floor": "",
    "price": "7300",
    "tags": "",
    "source": "",
    "url": "https://sz.lianjia.com/zufang/SZ2145467305373466624.html",
    "rent_type": "整租",
    "location": "福田区-新洲-嘉葆润金座",
    "scraped_at": "2026-05-03 05:56:35",
    "region": "xinzhou1",
    "unit_price": 165.9,
    "lat": 22.523965,
    "lng": 114.047707
  },
  {
    "title": "整租·福昌苑 3室2厅 东",
    "community": "福昌苑",
    "area": "109.00",
    "rooms": "3室2厅",
    "direction": "东",
    "floor": "",
    "price": "8600",
    "tags": "",
    "source": "",
    "url": "https://sz.lianjia.com/zufang/SZ2145779448270553088.html",
    "rent_type": "整租",
    "location": "福田区-新洲-福昌苑",
    "scraped_at": "2026-05-03 05:56:35",
    "region": "xinzhou1",
    "unit_price": 78.9,
    "lat": 22.513508,
    "lng": 114.044693
  },
  {
    "title": "整租·新洲花园综合楼 3室2厅 南",
    "community": "新洲花园综合楼",
    "area": "90.00",
    "rooms": "3室2厅",
    "direction": "南",
    "floor": "",
    "price": "6000",
    "tags": "",
    "source": "",
    "url": "https://sz.lianjia.com/zufang/SZ2056284169067036672.html",
    "rent_type": "整租",
    "location": "福田区-新洲-新洲花园综合楼",
    "scraped_at": "2026-05-03 05:56:35",
    "region": "xinzhou1",
    "unit_price": 66.7,
    "lat": 22.52878,
    "lng": 114.04387
  },
  {
    "title": "整租·锦洲花园 3室2厅 南",
    "community": "锦洲花园",
    "area": "95.00",
    "rooms": "3室2厅",
    "direction": "南",
    "floor": "",
    "price": "6500",
    "tags": "",
    "source": "",
    "url": "https://sz.lianjia.com/zufang/SZ2006958175386861568.html",
    "rent_type": "整租",
    "location": "福田区-新洲-锦洲花园",
    "scraped_at": "2026-05-03 05:56:42",
    "region": "xinzhou1",
    "unit_price": 68.4,
    "lat": 22.525902,
    "lng": 114.044485
  },
  {
    "title": "整租·韵动家园 1室1厅 东",
    "community": "韵动家园",
    "area": "41.00",
    "rooms": "1室1厅",
    "direction": "东",
    "floor": "",
    "price": "5800",
    "tags": "",
    "source": "",
    "url": "https://sz.lianjia.com/zufang/SZ2087499915600068608.html",
    "rent_type": "整租",
    "location": "福田区-新洲-韵动家园",
    "scraped_at": "2026-05-03 05:56:42",
    "region": "xinzhou1",
    "unit_price": 141.5,
    "lat": 22.52645,
    "lng": 114.038225
  },
  {
    "title": "整租·祥云天都世纪大厦 1室1厅 东北",
    "community": "祥云天都世纪大厦",
    "area": "50.00",
    "rooms": "1室1厅",
    "direction": "东北",
    "floor": "",
    "price": "5600",
    "tags": "",
    "source": "",
    "url": "https://sz.lianjia.com/zufang/SZ2161354873143033856.html",
    "rent_type": "整租",
    "location": "福田区-新洲-祥云天都世纪大厦",
    "scraped_at": "2026-05-03 05:56:46",
    "region": "xinzhou1",
    "unit_price": 112.0,
    "lat": 22.523737,
    "lng": 114.038792
  },
  {
    "title": "整租·祥云天都世纪大厦 2室1厅 南/北",
    "community": "祥云天都世纪大厦",
    "area": "72.00",
    "rooms": "2室1厅",
    "direction": "南/北",
    "floor": "",
    "price": "7200",
    "tags": "",
    "source": "",
    "url": "https://sz.lianjia.com/zufang/SZ2161069468837478400.html",
    "rent_type": "整租",
    "location": "福田区-新洲-祥云天都世纪大厦",
    "scraped_at": "2026-05-03 05:56:35",
    "region": "xinzhou1",
    "unit_price": 100.0,
    "lat": 22.523737,
    "lng": 114.038792
  },
  {
    "title": "整租·祥云天都世纪大厦 1室1厅 南/北",
    "community": "祥云天都世纪大厦",
    "area": "50.00",
    "rooms": "1室1厅",
    "direction": "南/北",
    "floor": "",
    "price": "5800",
    "tags": "",
    "source": "",
    "url": "https://sz.lianjia.com/zufang/SZ2161069179317256192.html",
    "rent_type": "整租",
    "location": "福田区-新洲-祥云天都世纪大厦",
    "scraped_at": "2026-05-03 05:56:35",
    "region": "xinzhou1",
    "unit_price": 116.0,
    "lat": 22.523737,
    "lng": 114.038792
  },
  {
    "title": "整租·祥云天都世纪大厦 1室1厅 西北",
    "community": "祥云天都世纪大厦",
    "area": "49.00",
    "rooms": "1室1厅",
    "direction": "西北",
    "floor": "",
    "price": "5200",
    "tags": "",
    "source": "",
    "url": "https://sz.lianjia.com/zufang/SZ2158899410119950336.html",
    "rent_type": "整租",
    "location": "福田区-新洲-祥云天都世纪大厦",
    "scraped_at": "2026-05-03 05:56:35",
    "region": "xinzhou1",
    "unit_price": 106.1,
    "lat": 22.523737,
    "lng": 114.038792
  },
  {
    "title": "整租·韵动家园 3室2厅 南",
    "community": "韵动家园",
    "area": "88.00",
    "rooms": "3室2厅",
    "direction": "南",
    "floor": "",
    "price": "7200",
    "tags": "",
    "source": "",
    "url": "https://sz.lianjia.com/zufang/SZ2158520896501841920.html",
    "rent_type": "整租",
    "location": "福田区-新洲-韵动家园",
    "scraped_at": "2026-05-03 05:56:35",
    "region": "xinzhou1",
    "unit_price": 81.8,
    "lat": 22.52645,
    "lng": 114.038225
  },
  {
    "title": "合租·新中苑 2居室 南卧",
    "community": "新中苑 2居室 南卧",
    "area": "12.00",
    "rooms": "",
    "direction": "",
    "floor": "",
    "price": "1800",
    "tags": "",
    "source": "",
    "url": "https://sz.lianjia.com/zufang/SZ2158884114348900352.html",
    "rent_type": "合租",
    "location": "福田区-新洲-新中苑",
    "scraped_at": "2026-05-03 05:56:46",
    "region": "xinzhou1",
    "unit_price": 150.0,
    "lat": 22.524258,
    "lng": 114.042582
  },
  {
    "title": "合租·新中苑 2居室 南卧",
    "community": "新中苑 2居室 南卧",
    "area": "30.00",
    "rooms": "",
    "direction": "",
    "floor": "",
    "price": "2300",
    "tags": "",
    "source": "",
    "url": "https://sz.lianjia.com/zufang/SZ2158884091427028992.html",
    "rent_type": "合租",
    "location": "福田区-新洲-新中苑",
    "scraped_at": "2026-05-03 05:56:35",
    "region": "xinzhou1",
    "unit_price": 76.7,
    "lat": 22.524258,
    "lng": 114.042582
  },
  {
    "title": "整租·湖北大厦 1室4厅 西北",
    "community": "湖北大厦",
    "area": "135.00",
    "rooms": "1室4厅",
    "direction": "西北",
    "floor": "",
    "price": "6750",
    "tags": "",
    "source": "",
    "url": "https://sz.lianjia.com/zufang/SZ2145510361833406464.html",
    "rent_type": "整租",
    "location": "福田区-新洲-湖北大厦",
    "scraped_at": "2026-05-03 05:56:35",
    "region": "xinzhou1",
    "unit_price": 50.0,
    "lat": 22.530236,
    "lng": 114.042551
  },
  {
    "title": "整租·金沙花园 3室1厅 南",
    "community": "金沙花园",
    "area": "97.83",
    "rooms": "3室1厅",
    "direction": "南",
    "floor": "",
    "price": "7500",
    "tags": "",
    "source": "",
    "url": "https://sz.lianjia.com/zufang/SZ2144039276059295744.html",
    "rent_type": "整租",
    "location": "福田区-新洲-金沙花园",
    "scraped_at": "2026-05-03 05:56:38",
    "region": "xinzhou1",
    "unit_price": 76.7,
    "lat": 22.517066,
    "lng": 114.03885
  },
  {
    "title": "整租·韵动家园 1室1厅 南",
    "community": "韵动家园",
    "area": "42.00",
    "rooms": "1室1厅",
    "direction": "南",
    "floor": "",
    "price": "4000",
    "tags": "",
    "source": "",
    "url": "https://sz.lianjia.com/zufang/SZ2142516190398906368.html",
    "rent_type": "整租",
    "location": "福田区-新洲-韵动家园",
    "scraped_at": "2026-05-03 05:56:38",
    "region": "xinzhou1",
    "unit_price": 95.2,
    "lat": 22.52645,
    "lng": 114.038225
  },
  {
    "title": "整租·沙尾电话机楼 3室2厅 南",
    "community": "沙尾电话机楼",
    "area": "90.00",
    "rooms": "3室2厅",
    "direction": "南",
    "floor": "",
    "price": "7200",
    "tags": "",
    "source": "",
    "url": "https://sz.lianjia.com/zufang/SZ2142852971518492672.html",
    "rent_type": "整租",
    "location": "福田区-新洲-沙尾电话机楼",
    "scraped_at": "2026-05-03 05:56:38",
    "region": "xinzhou1",
    "unit_price": 80.0,
    "lat": 22.5211,
    "lng": 114.03637
  },
  {
    "title": "整租·嘉葆润金座 2室2厅 北",
    "community": "嘉葆润金座",
    "area": "35.00",
    "rooms": "2室2厅",
    "direction": "北",
    "floor": "",
    "price": "6700",
    "tags": "",
    "source": "",
    "url": "https://sz.lianjia.com/zufang/SZ2142906010375815168.html",
    "rent_type": "整租",
    "location": "福田区-新洲-嘉葆润金座",
    "scraped_at": "2026-05-03 05:56:38",
    "region": "xinzhou1",
    "unit_price": 191.4,
    "lat": 22.523965,
    "lng": 114.047707
  },
  {
    "title": "合租·福昌苑 8居室 南卧",
    "community": "福昌苑 8居室 南卧",
    "area": "15.00",
    "rooms": "",
    "direction": "",
    "floor": "",
    "price": "2500",
    "tags": "",
    "source": "",
    "url": "https://sz.lianjia.com/zufang/SZ2143555950651375616.html",
    "rent_type": "合租",
    "location": "福田区-新洲-福昌苑",
    "scraped_at": "2026-05-03 05:56:38",
    "region": "xinzhou1",
    "unit_price": 166.7,
    "lat": 22.525246,
    "lng": 114.043063
  },
  {
    "title": "合租·福昌苑 8居室 南卧",
    "community": "福昌苑 8居室 南卧",
    "area": "30.00",
    "rooms": "",
    "direction": "",
    "floor": "",
    "price": "6000",
    "tags": "",
    "source": "",
    "url": "https://sz.lianjia.com/zufang/SZ2143550631053361152.html",
    "rent_type": "合租",
    "location": "福田区-新洲-福昌苑",
    "scraped_at": "2026-05-03 05:56:38",
    "region": "xinzhou1",
    "unit_price": 200.0,
    "lat": 22.525246,
    "lng": 114.043063
  },
  {
    "title": "合租·福昌苑 8居室 南卧",
    "community": "福昌苑 8居室 南卧",
    "area": "30.00",
    "rooms": "",
    "direction": "",
    "floor": "",
    "price": "6000",
    "tags": "",
    "source": "",
    "url": "https://sz.lianjia.com/zufang/SZ2143549382975291392.html",
    "rent_type": "合租",
    "location": "福田区-新洲-福昌苑",
    "scraped_at": "2026-05-03 05:56:38",
    "region": "xinzhou1",
    "unit_price": 200.0,
    "lat": 22.525246,
    "lng": 114.043063
  },
  {
    "title": "合租·福昌苑 8居室 南卧",
    "community": "福昌苑 8居室 南卧",
    "area": "13.00",
    "rooms": "",
    "direction": "",
    "floor": "",
    "price": "2200",
    "tags": "",
    "source": "",
    "url": "https://sz.lianjia.com/zufang/SZ2143554714652901376.html",
    "rent_type": "合租",
    "location": "福田区-新洲-福昌苑",
    "scraped_at": "2026-05-03 05:56:38",
    "region": "xinzhou1",
    "unit_price": 169.2,
    "lat": 22.525246,
    "lng": 114.043063
  },
  {
    "title": "合租·福昌苑 8居室 北卧",
    "community": "福昌苑 8居室 北卧",
    "area": "9.00",
    "rooms": "",
    "direction": "",
    "floor": "",
    "price": "1500",
    "tags": "",
    "source": "",
    "url": "https://sz.lianjia.com/zufang/SZ2143553272382750720.html",
    "rent_type": "合租",
    "location": "福田区-新洲-福昌苑",
    "scraped_at": "2026-05-03 05:56:46",
    "region": "xinzhou1",
    "unit_price": 166.7,
    "lat": 22.525246,
    "lng": 114.043063
  },
  {
    "title": "合租·福昌苑 8居室 南卧",
    "community": "福昌苑 8居室 南卧",
    "area": "30.00",
    "rooms": "",
    "direction": "",
    "floor": "",
    "price": "6000",
    "tags": "",
    "source": "",
    "url": "https://sz.lianjia.com/zufang/SZ2143551887096414208.html",
    "rent_type": "合租",
    "location": "福田区-新洲-福昌苑",
    "scraped_at": "2026-05-03 05:56:46",
    "region": "xinzhou1",
    "unit_price": 200.0,
    "lat": 22.525246,
    "lng": 114.043063
  },
  {
    "title": "合租·福昌苑 8居室 南卧",
    "community": "福昌苑 8居室 南卧",
    "area": "30.00",
    "rooms": "",
    "direction": "",
    "floor": "",
    "price": "4200",
    "tags": "",
    "source": "",
    "url": "https://sz.lianjia.com/zufang/SZ2143554256685236224.html",
    "rent_type": "合租",
    "location": "福田区-新洲-福昌苑",
    "scraped_at": "2026-05-03 05:56:46",
    "region": "xinzhou1",
    "unit_price": 140.0,
    "lat": 22.525246,
    "lng": 114.043063
  },
  {
    "title": "整租·嘉洲富苑 1室1厅 西北",
    "community": "嘉洲富苑",
    "area": "40.23",
    "rooms": "1室1厅",
    "direction": "西北",
    "floor": "",
    "price": "5200",
    "tags": "",
    "source": "",
    "url": "https://sz.lianjia.com/zufang/SZ2143578262880649216.html",
    "rent_type": "整租",
    "location": "福田区-新洲-嘉洲富苑",
    "scraped_at": "2026-05-03 05:56:38",
    "region": "xinzhou1",
    "unit_price": 129.3,
    "lat": 22.526283,
    "lng": 114.045858
  },
  {
    "title": "整租·祥云天都世纪大厦 1室2厅 东北",
    "community": "祥云天都世纪大厦",
    "area": "50.00",
    "rooms": "1室2厅",
    "direction": "东北",
    "floor": "",
    "price": "5600",
    "tags": "",
    "source": "",
    "url": "https://sz.lianjia.com/zufang/SZ2142480436603912192.html",
    "rent_type": "整租",
    "location": "福田区-新洲-祥云天都世纪大厦",
    "scraped_at": "2026-05-03 05:56:38",
    "region": "xinzhou1",
    "unit_price": 112.0,
    "lat": 22.523737,
    "lng": 114.038792
  },
  {
    "title": "整租·荔树人家 3室2厅 南/北",
    "community": "荔树人家",
    "area": "89.00",
    "rooms": "3室2厅",
    "direction": "南/北",
    "floor": "",
    "price": "7100",
    "tags": "",
    "source": "",
    "url": "https://sz.lianjia.com/zufang/SZ2142998104939429888.html",
    "rent_type": "整租",
    "location": "福田区-新洲-荔树人家",
    "scraped_at": "2026-05-03 05:56:38",
    "region": "xinzhou1",
    "unit_price": 79.8,
    "lat": 22.549799,
    "lng": 114.043286
  },
  {
    "title": "整租·嘉洲富苑 2室1厅 西南",
    "community": "嘉洲富苑",
    "area": "41.00",
    "rooms": "2室1厅",
    "direction": "西南",
    "floor": "",
    "price": "6500",
    "tags": "",
    "source": "",
    "url": "https://sz.lianjia.com/zufang/SZ2143321134622310400.html",
    "rent_type": "整租",
    "location": "福田区-新洲-嘉洲富苑",
    "scraped_at": "2026-05-03 05:56:38",
    "region": "xinzhou1",
    "unit_price": 158.5,
    "lat": 22.526283,
    "lng": 114.045858
  },
  {
    "title": "整租·骏皇嘉园 1室0厅 东南",
    "community": "骏皇嘉园",
    "area": "32.00",
    "rooms": "1室0厅",
    "direction": "东南",
    "floor": "",
    "price": "4500",
    "tags": "",
    "source": "",
    "url": "https://sz.lianjia.com/zufang/SZ2142204064518111232.html",
    "rent_type": "整租",
    "location": "福田区-新洲-骏皇嘉园",
    "scraped_at": "2026-05-03 05:56:38",
    "region": "xinzhou1",
    "unit_price": 140.6,
    "lat": 22.52697,
    "lng": 114.04054
  },
  {
    "title": "合租·锦河苑 4居室 东北卧",
    "community": "锦河苑 4居室 东北卧",
    "area": "121.77",
    "rooms": "",
    "direction": "",
    "floor": "",
    "price": "2200",
    "tags": "",
    "source": "",
    "url": "https://sz.lianjia.com/zufang/SZ2079919832442077184.html",
    "rent_type": "合租",
    "location": "福田区-新洲-锦河苑",
    "scraped_at": "2026-05-03 05:56:38",
    "region": "xinzhou1",
    "unit_price": 18.1,
    "lat": 22.524301,
    "lng": 114.040521
  },
  {
    "title": "整租·祥云天都世纪大厦 2室2厅 东南",
    "community": "祥云天都世纪大厦",
    "area": "86.00",
    "rooms": "2室2厅",
    "direction": "东南",
    "floor": "",
    "price": "8000",
    "tags": "",
    "source": "",
    "url": "https://sz.lianjia.com/zufang/SZ2080620193469431808.html",
    "rent_type": "整租",
    "location": "福田区-新洲-祥云天都世纪大厦",
    "scraped_at": "2026-05-03 05:56:38",
    "region": "xinzhou1",
    "unit_price": 93.0,
    "lat": 22.523737,
    "lng": 114.038792
  },
  {
    "title": "整租·绿景中城天邑花园 4室1厅 南",
    "community": "绿景中城天邑花园",
    "area": "108.00",
    "rooms": "4室1厅",
    "direction": "南",
    "floor": "",
    "price": "12000",
    "tags": "",
    "source": "",
    "url": "https://sz.lianjia.com/zufang/SZ2080292474823114752.html",
    "rent_type": "整租",
    "location": "福田区-新洲-绿景中城天邑花园",
    "scraped_at": "2026-05-03 05:56:38",
    "region": "xinzhou1",
    "unit_price": 111.1,
    "lat": 22.524445,
    "lng": 114.037901
  },
  {
    "title": "整租·嘉洲豪园 3室1厅 北",
    "community": "嘉洲豪园",
    "area": "100.00",
    "rooms": "3室1厅",
    "direction": "北",
    "floor": "",
    "price": "7375",
    "tags": "",
    "source": "",
    "url": "https://sz.lianjia.com/zufang/SZ2080958473977200640.html",
    "rent_type": "整租",
    "location": "福田区-新洲-嘉洲豪园",
    "scraped_at": "2026-05-03 05:56:38",
    "region": "xinzhou1",
    "unit_price": 73.8,
    "lat": 22.527269,
    "lng": 114.044418
  },
  {
    "title": "整租·南溪新苑 3室1厅 北",
    "community": "南溪新苑",
    "area": "79.00",
    "rooms": "3室1厅",
    "direction": "北",
    "floor": "",
    "price": "6800",
    "tags": "",
    "source": "",
    "url": "https://sz.lianjia.com/zufang/SZ2098020286120067072.html",
    "rent_type": "整租",
    "location": "福田区-新洲-南溪新苑",
    "scraped_at": "2026-05-03 05:56:38",
    "region": "xinzhou1",
    "unit_price": 86.1,
    "lat": 22.525322,
    "lng": 114.041266
  },
  {
    "title": "整租·绿景中城天邑花园 4室2厅 南/北",
    "community": "绿景中城天邑花园",
    "area": "138.20",
    "rooms": "4室2厅",
    "direction": "南/北",
    "floor": "",
    "price": "14000",
    "tags": "",
    "source": "",
    "url": "https://sz.lianjia.com/zufang/SZ2098005996176670720.html",
    "rent_type": "整租",
    "location": "福田区-新洲-绿景中城天邑花园",
    "scraped_at": "2026-05-03 05:56:38",
    "region": "xinzhou1",
    "unit_price": 101.3,
    "lat": 22.524445,
    "lng": 114.037901
  },
  {
    "title": "整租·骏皇嘉园 1室0厅 南",
    "community": "骏皇嘉园",
    "area": "32.00",
    "rooms": "1室0厅",
    "direction": "南",
    "floor": "",
    "price": "4100",
    "tags": "",
    "source": "",
    "url": "https://sz.lianjia.com/zufang/SZ2100070755101310976.html",
    "rent_type": "整租",
    "location": "福田区-新洲-骏皇嘉园",
    "scraped_at": "2026-05-03 05:56:38",
    "region": "xinzhou1",
    "unit_price": 128.1,
    "lat": 22.52697,
    "lng": 114.04054
  },
  {
    "title": "整租·嘉葆润金座 2室1厅 南",
    "community": "嘉葆润金座",
    "area": "28.47",
    "rooms": "2室1厅",
    "direction": "南",
    "floor": "",
    "price": "5500",
    "tags": "",
    "source": "",
    "url": "https://sz.lianjia.com/zufang/SZ2105173444638277632.html",
    "rent_type": "整租",
    "location": "福田区-新洲-嘉葆润金座",
    "scraped_at": "2026-05-03 05:56:38",
    "region": "xinzhou1",
    "unit_price": 193.2,
    "lat": 22.523965,
    "lng": 114.047707
  },
  {
    "title": "整租·绿景中城天邑花园 3室2厅 南",
    "community": "绿景中城天邑花园",
    "area": "100.08",
    "rooms": "3室2厅",
    "direction": "南",
    "floor": "",
    "price": "9500",
    "tags": "",
    "source": "",
    "url": "https://sz.lianjia.com/zufang/SZ2145385742023524352.html",
    "rent_type": "整租",
    "location": "福田区-新洲-绿景中城天邑花园",
    "scraped_at": "2026-05-03 05:56:42",
    "region": "xinzhou1",
    "unit_price": 94.9,
    "lat": 22.524445,
    "lng": 114.037901
  },
  {
    "title": "整租·福昌苑 3室2厅 南",
    "community": "福昌苑",
    "area": "118.00",
    "rooms": "3室2厅",
    "direction": "南",
    "floor": "",
    "price": "12500",
    "tags": "",
    "source": "",
    "url": "https://sz.lianjia.com/zufang/SZ2095145423948742656.html",
    "rent_type": "整租",
    "location": "福田区-新洲-福昌苑",
    "scraped_at": "2026-05-03 05:56:42",
    "region": "xinzhou1",
    "unit_price": 105.9,
    "lat": 22.513508,
    "lng": 114.044693
  },
  {
    "title": "整租·荔树人家 1室1厅 东南",
    "community": "荔树人家",
    "area": "35.18",
    "rooms": "1室1厅",
    "direction": "东南",
    "floor": "",
    "price": "5000",
    "tags": "",
    "source": "",
    "url": "https://sz.lianjia.com/zufang/SZ2096546373187928064.html",
    "rent_type": "整租",
    "location": "福田区-新洲-荔树人家",
    "scraped_at": "2026-05-03 05:56:42",
    "region": "xinzhou1",
    "unit_price": 142.1,
    "lat": 22.549799,
    "lng": 114.043286
  },
  {
    "title": "整租·新洲花园 3室2厅 西北",
    "community": "新洲花园",
    "area": "84.00",
    "rooms": "3室2厅",
    "direction": "西北",
    "floor": "",
    "price": "5800",
    "tags": "",
    "source": "",
    "url": "https://sz.lianjia.com/zufang/SZ2096952208619732992.html",
    "rent_type": "整租",
    "location": "福田区-新洲-新洲花园",
    "scraped_at": "2026-05-03 05:56:42",
    "region": "xinzhou1",
    "unit_price": 69.0,
    "lat": 22.52878,
    "lng": 114.04387
  },
  {
    "title": "整租·锦洲花园 3室2厅 南/北",
    "community": "锦洲花园",
    "area": "80.00",
    "rooms": "3室2厅",
    "direction": "南/北",
    "floor": "",
    "price": "5900",
    "tags": "",
    "source": "",
    "url": "https://sz.lianjia.com/zufang/SZ2097893918069751808.html",
    "rent_type": "整租",
    "location": "福田区-新洲-锦洲花园",
    "scraped_at": "2026-05-03 05:56:42",
    "region": "xinzhou1",
    "unit_price": 73.8,
    "lat": 22.525902,
    "lng": 114.044485
  },
  {
    "title": "整租·新洲大厦 3室2厅 东南",
    "community": "新洲大厦",
    "area": "108.81",
    "rooms": "3室2厅",
    "direction": "东南",
    "floor": "",
    "price": "7400",
    "tags": "",
    "source": "",
    "url": "https://sz.lianjia.com/zufang/SZ2095938433749876736.html",
    "rent_type": "整租",
    "location": "福田区-新洲-新洲大厦",
    "scraped_at": "2026-05-03 05:56:42",
    "region": "xinzhou1",
    "unit_price": 68.0,
    "lat": 22.529157,
    "lng": 114.04392
  },
  {
    "title": "整租·祥云天都世纪大厦 2室2厅 东北",
    "community": "祥云天都世纪大厦",
    "area": "57.00",
    "rooms": "2室2厅",
    "direction": "东北",
    "floor": "",
    "price": "5800",
    "tags": "",
    "source": "",
    "url": "https://sz.lianjia.com/zufang/SZ2087781464333615104.html",
    "rent_type": "整租",
    "location": "福田区-新洲-祥云天都世纪大厦",
    "scraped_at": "2026-05-03 05:56:42",
    "region": "xinzhou1",
    "unit_price": 101.8,
    "lat": 22.523737,
    "lng": 114.038792
  },
  {
    "title": "整租·蜜园 2室1厅 西北",
    "community": "蜜园",
    "area": "46.00",
    "rooms": "2室1厅",
    "direction": "西北",
    "floor": "",
    "price": "5000",
    "tags": "",
    "source": "",
    "url": "https://sz.lianjia.com/zufang/SZ2072568294631538688.html",
    "rent_type": "整租",
    "location": "福田区-新洲-蜜园",
    "scraped_at": "2026-05-03 05:56:42",
    "region": "xinzhou1",
    "unit_price": 108.7,
    "lat": 22.523938,
    "lng": 114.043177
  },
  {
    "title": "整租·嘉葆润金座 2室1厅 南",
    "community": "嘉葆润金座",
    "area": "39.97",
    "rooms": "2室1厅",
    "direction": "南",
    "floor": "",
    "price": "7300",
    "tags": "",
    "source": "",
    "url": "https://sz.lianjia.com/zufang/SZ2155262400171868160.html",
    "rent_type": "整租",
    "location": "福田区-新洲-嘉葆润金座",
    "scraped_at": "2026-05-03 05:56:46",
    "region": "xinzhou1",
    "unit_price": 182.6,
    "lat": 22.523965,
    "lng": 114.047707
  },
  {
    "title": "整租·祥云天都世纪大厦 1室1厅 南",
    "community": "祥云天都世纪大厦",
    "area": "50.00",
    "rooms": "1室1厅",
    "direction": "南",
    "floor": "",
    "price": "6000",
    "tags": "",
    "source": "",
    "url": "https://sz.lianjia.com/zufang/SZ2155265780214661120.html",
    "rent_type": "整租",
    "location": "福田区-新洲-祥云天都世纪大厦",
    "scraped_at": "2026-05-03 05:56:46",
    "region": "xinzhou1",
    "unit_price": 120.0,
    "lat": 22.523737,
    "lng": 114.038792
  },
  {
    "title": "整租·祥云天都世纪大厦 2室1厅 南",
    "community": "祥云天都世纪大厦",
    "area": "86.66",
    "rooms": "2室1厅",
    "direction": "南",
    "floor": "",
    "price": "6500",
    "tags": "",
    "source": "",
    "url": "https://sz.lianjia.com/zufang/SZ2154526433391673344.html",
    "rent_type": "整租",
    "location": "福田区-新洲-祥云天都世纪大厦",
    "scraped_at": "2026-05-03 05:56:46",
    "region": "xinzhou1",
    "unit_price": 75.0,
    "lat": 22.523737,
    "lng": 114.038792
  },
  {
    "title": "整租·祥云天都世纪大厦 2室1厅 南",
    "community": "祥云天都世纪大厦",
    "area": "72.00",
    "rooms": "2室1厅",
    "direction": "南",
    "floor": "",
    "price": "7300",
    "tags": "",
    "source": "",
    "url": "https://sz.lianjia.com/zufang/SZ2154547909931040768.html",
    "rent_type": "整租",
    "location": "福田区-新洲-祥云天都世纪大厦",
    "scraped_at": "2026-05-03 05:56:46",
    "region": "xinzhou1",
    "unit_price": 101.4,
    "lat": 22.523737,
    "lng": 114.038792
  },
  {
    "title": "整租·蜜园 1室0厅 东南",
    "community": "蜜园",
    "area": "34.23",
    "rooms": "1室0厅",
    "direction": "东南",
    "floor": "",
    "price": "4000",
    "tags": "",
    "source": "",
    "url": "https://sz.lianjia.com/zufang/SZ2154847156131856384.html",
    "rent_type": "整租",
    "location": "福田区-新洲-蜜园",
    "scraped_at": "2026-05-03 05:56:46",
    "region": "xinzhou1",
    "unit_price": 116.9,
    "lat": 22.523938,
    "lng": 114.043177
  },
  {
    "title": "整租·新洲大厦 3室2厅 东南",
    "community": "新洲大厦",
    "area": "108.00",
    "rooms": "3室2厅",
    "direction": "东南",
    "floor": "",
    "price": "7500",
    "tags": "",
    "source": "",
    "url": "https://sz.lianjia.com/zufang/SZ2154866866579832832.html",
    "rent_type": "整租",
    "location": "福田区-新洲-新洲大厦",
    "scraped_at": "2026-05-03 05:56:46",
    "region": "xinzhou1",
    "unit_price": 69.4,
    "lat": 22.529157,
    "lng": 114.04392
  },
  {
    "title": "整租·新洲大厦 3室2厅 东南",
    "community": "新洲大厦",
    "area": "92.00",
    "rooms": "3室2厅",
    "direction": "东南",
    "floor": "",
    "price": "6800",
    "tags": "",
    "source": "",
    "url": "https://sz.lianjia.com/zufang/SZ2155156558206468096.html",
    "rent_type": "整租",
    "location": "福田区-新洲-新洲大厦",
    "scraped_at": "2026-05-03 05:56:46",
    "region": "xinzhou1",
    "unit_price": 73.9,
    "lat": 22.529157,
    "lng": 114.04392
  },
  {
    "title": "整租·朗晴馨洲 1室1厅 北",
    "community": "朗晴馨洲",
    "area": "37.00",
    "rooms": "1室1厅",
    "direction": "北",
    "floor": "",
    "price": "4200",
    "tags": "",
    "source": "",
    "url": "https://sz.lianjia.com/zufang/SZ2155674152332165120.html",
    "rent_type": "整租",
    "location": "福田区-新洲-朗晴馨洲",
    "scraped_at": "2026-05-03 05:56:46",
    "region": "xinzhou1",
    "unit_price": 113.5,
    "lat": 22.527513,
    "lng": 114.045613
  },
  {
    "title": "整租·金沙花园 2室1厅 南",
    "community": "金沙花园",
    "area": "50.00",
    "rooms": "2室1厅",
    "direction": "南",
    "floor": "",
    "price": "4300",
    "tags": "",
    "source": "",
    "url": "https://sz.lianjia.com/zufang/SZ2155271449168838656.html",
    "rent_type": "整租",
    "location": "福田区-新洲-金沙花园",
    "scraped_at": "2026-05-03 05:56:46",
    "region": "xinzhou1",
    "unit_price": 86.0,
    "lat": 22.517066,
    "lng": 114.03885
  },
  {
    "title": "整租·嘉葆润金座 2室1厅 南",
    "community": "嘉葆润金座",
    "area": "39.00",
    "rooms": "2室1厅",
    "direction": "南",
    "floor": "",
    "price": "7200",
    "tags": "",
    "source": "",
    "url": "https://sz.lianjia.com/zufang/SZ2156437227792498688.html",
    "rent_type": "整租",
    "location": "福田区-新洲-嘉葆润金座",
    "scraped_at": "2026-05-03 05:56:46",
    "region": "xinzhou1",
    "unit_price": 184.6,
    "lat": 22.523965,
    "lng": 114.047707
  },
  {
    "title": "整租·朗晴馨洲 2室1厅 东北",
    "community": "朗晴馨洲",
    "area": "37.00",
    "rooms": "2室1厅",
    "direction": "东北",
    "floor": "",
    "price": "4500",
    "tags": "",
    "source": "",
    "url": "https://sz.lianjia.com/zufang/SZ2156714256110714880.html",
    "rent_type": "整租",
    "location": "福田区-新洲-朗晴馨洲",
    "scraped_at": "2026-05-03 05:56:46",
    "region": "xinzhou1",
    "unit_price": 121.6,
    "lat": 22.527513,
    "lng": 114.045613
  },
  {
    "title": "整租·蜜园 3室2厅 南",
    "community": "蜜园",
    "area": "75.00",
    "rooms": "3室2厅",
    "direction": "南",
    "floor": "",
    "price": "9000",
    "tags": "",
    "source": "",
    "url": "https://sz.lianjia.com/zufang/SZ2155969476871323648.html",
    "rent_type": "整租",
    "location": "福田区-新洲-蜜园",
    "scraped_at": "2026-05-03 05:56:46",
    "region": "xinzhou1",
    "unit_price": 120.0,
    "lat": 22.523938,
    "lng": 114.043177
  },
  {
    "title": "整租·南溪新苑 1室1厅 东",
    "community": "南溪新苑",
    "area": "42.00",
    "rooms": "1室1厅",
    "direction": "东",
    "floor": "",
    "price": "4880",
    "tags": "",
    "source": "",
    "url": "https://sz.lianjia.com/zufang/SZ2160267009844051968.html",
    "rent_type": "整租",
    "location": "福田区-新洲-南溪新苑",
    "scraped_at": "2026-05-03 05:56:46",
    "region": "xinzhou1",
    "unit_price": 116.2,
    "lat": 22.525322,
    "lng": 114.041266
  },
  {
    "title": "整租·南溪新苑 1室1厅 西南",
    "community": "南溪新苑",
    "area": "45.00",
    "rooms": "1室1厅",
    "direction": "西南",
    "floor": "",
    "price": "4980",
    "tags": "",
    "source": "",
    "url": "https://sz.lianjia.com/zufang/SZ2160266955452317696.html",
    "rent_type": "整租",
    "location": "福田区-新洲-南溪新苑",
    "scraped_at": "2026-05-03 05:56:46",
    "region": "xinzhou1",
    "unit_price": 110.7,
    "lat": 22.525322,
    "lng": 114.041266
  },
  {
    "title": "整租·祥云天都世纪大厦 1室0厅 西南",
    "community": "祥云天都世纪大厦",
    "area": "38.73",
    "rooms": "1室0厅",
    "direction": "西南",
    "floor": "",
    "price": "4300",
    "tags": "",
    "source": "",
    "url": "https://sz.lianjia.com/zufang/SZ2161426846757945344.html",
    "rent_type": "整租",
    "location": "福田区-新洲-祥云天都世纪大厦",
    "scraped_at": "2026-05-03 05:56:46",
    "region": "xinzhou1",
    "unit_price": 111.0,
    "lat": 22.523737,
    "lng": 114.038792
  },
  {
    "title": "整租·绿景花园二期 3室1厅 北",
    "community": "绿景花园二期",
    "area": "93.00",
    "rooms": "3室1厅",
    "direction": "北",
    "floor": "",
    "price": "9500",
    "tags": "",
    "source": "",
    "url": "https://sz.lianjia.com/zufang/SZ2160709869106102272.html",
    "rent_type": "整租",
    "location": "福田区-新洲-绿景花园二期",
    "scraped_at": "2026-05-03 05:56:46",
    "region": "xinzhou1",
    "unit_price": 102.2,
    "lat": 22.52421,
    "lng": 114.03826
  },
  {
    "title": "整租·韵动家园 1室1厅 南",
    "community": "韵动家园",
    "area": "41.00",
    "rooms": "1室1厅",
    "direction": "南",
    "floor": "",
    "price": "4600",
    "tags": "",
    "source": "",
    "url": "https://sz.lianjia.com/zufang/SZ2160715298527772672.html",
    "rent_type": "整租",
    "location": "福田区-新洲-韵动家园",
    "scraped_at": "2026-05-03 05:56:46",
    "region": "xinzhou1",
    "unit_price": 112.2,
    "lat": 22.52645,
    "lng": 114.038225
  }
]