[
  {
    "title": "龙湖冠寓·深圳平湖生态谷社区",
    "community": "深圳平湖生态谷社区",
    "area": "",
    "rooms": "",
    "direction": "",
    "floor": "",
    "price": "1565",
    "tags": "",
    "source": "20个热租房型 >",
    "url": "https://sz.lianjia.com/apartment/19406.html?ad_code=131491070123327824&ad_type=10",
    "rent_type": "龙湖冠寓",
    "location": "号线-华南城站",
    "scraped_at": "2026-05-03 07:34:52",
    "region": "pinghu",
    "unit_price": "",
    "lat": 22.610569,
    "lng": 114.354993
  },
  {
    "title": "整租·华侨城四海锦园 3室2厅 西",
    "community": "华侨城四海锦园",
    "area": "68.00",
    "rooms": "3室2厅",
    "direction": "西",
    "floor": "",
    "price": "3500",
    "tags": "",
    "source": "",
    "url": "https://sz.lianjia.com/zufang/SZ2140823164827992064.html",
    "rent_type": "整租",
    "location": "龙岗区-平湖-华侨城四海锦园",
    "scraped_at": "2026-05-03 07:34:52",
    "region": "pinghu",
    "unit_price": 51.5,
    "lat": 22.681673,
    "lng": 114.118498
  },
  {
    "title": "整租·融湖中心城三期 3室2厅 东南",
    "community": "融湖中心城三期",
    "area": "89.75",
    "rooms": "3室2厅",
    "direction": "东南",
    "floor": "",
    "price": "5460",
    "tags": "",
    "source": "",
    "url": "https://sz.lianjia.com/zufang/SZ2155280319379406848.html",
    "rent_type": "整租",
    "location": "龙岗区-平湖-融湖中心城三期",
    "scraped_at": "2026-05-03 07:34:52",
    "region": "pinghu",
    "unit_price": 60.8,
    "lat": 22.69562,
    "lng": 114.11292
  },
  {
    "title": "独栋·龙湖冠寓 平湖生态谷社区三店 【可短租】华南城地铁站小区房 无中介费 拎包入住 有停车场 开间",
    "community": "龙湖冠寓 平湖生态谷社区三店 【可短租】华南城地铁站小区房 无中介费 拎包入住 有停车场 开间",
    "area": "22.00",
    "rooms": "",
    "direction": "",
    "floor": "",
    "price": "1880",
    "tags": "",
    "source": "",
    "url": "https://sz.lianjia.com/apartment/31515.html",
    "rent_type": "独栋",
    "location": "",
    "scraped_at": "2026-05-03 07:34:57",
    "region": "pinghu",
    "unit_price": 85.5,
    "lat": 22.676739,
    "lng": 114.11996
  },
  {
    "title": "整租·卓越星源 3室2厅 东北",
    "community": "卓越星源",
    "area": "89.00",
    "rooms": "3室2厅",
    "direction": "东北",
    "floor": "",
    "price": "4300",
    "tags": "",
    "source": "",
    "url": "https://sz.lianjia.com/zufang/SZ1924052378403733504.html",
    "rent_type": "整租",
    "location": "龙岗区-平湖-卓越星源",
    "scraped_at": "2026-05-03 07:34:52",
    "region": "pinghu",
    "unit_price": 48.3,
    "lat": 22.687259,
    "lng": 114.11433
  },
  {
    "title": "整租·特发天鹅湖畔 3室2厅 东南",
    "community": "特发天鹅湖畔",
    "area": "105.00",
    "rooms": "3室2厅",
    "direction": "东南",
    "floor": "",
    "price": "5200",
    "tags": "",
    "source": "",
    "url": "https://sz.lianjia.com/zufang/SZ2141765002158145536.html",
    "rent_type": "整租",
    "location": "龙岗区-平湖-特发天鹅湖畔",
    "scraped_at": "2026-05-03 07:34:52",
    "region": "pinghu",
    "unit_price": 49.5,
    "lat": 22.671619,
    "lng": 114.160977
  },
  {
    "title": "整租·华侨城四海锦园 3室1厅 东南",
    "community": "华侨城四海锦园",
    "area": "96.00",
    "rooms": "3室1厅",
    "direction": "东南",
    "floor": "",
    "price": "3800",
    "tags": "",
    "source": "",
    "url": "https://sz.lianjia.com/zufang/SZ2150093734153289728.html",
    "rent_type": "整租",
    "location": "龙岗区-平湖-华侨城四海锦园",
    "scraped_at": "2026-05-03 07:36:17",
    "region": "pinghu",
    "unit_price": 39.6,
    "lat": 22.681673,
    "lng": 114.118498
  },
  {
    "title": "独栋·珊瑚派公寓 平湖地铁站店 【特惠品质房源】新凯来鹏芯微班车直达 公区健身房 采光好拎包入住 押一付一 开间",
    "community": "珊瑚派公寓 平湖地铁站店 【特惠品质房源】新凯来鹏芯微班车直达 公区健身房 采光好拎包入住 押一付一 开间",
    "area": "20.00",
    "rooms": "",
    "direction": "",
    "floor": "",
    "price": "1260",
    "tags": "",
    "source": "",
    "url": "https://sz.lianjia.com/apartment/105527.html",
    "rent_type": "独栋",
    "location": "",
    "scraped_at": "2026-05-03 07:34:55",
    "region": "pinghu",
    "unit_price": 63.0,
    "lat": 22.695291,
    "lng": 114.098078
  },
  {
    "title": "整租·金光华凤凰九里 2室2厅 东北",
    "community": "金光华凤凰九里",
    "area": "67.50",
    "rooms": "2室2厅",
    "direction": "东北",
    "floor": "",
    "price": "3500",
    "tags": "",
    "source": "",
    "url": "https://sz.lianjia.com/zufang/SZ2151935308361367552.html",
    "rent_type": "整租",
    "location": "龙岗区-平湖-金光华凤凰九里",
    "scraped_at": "2026-05-03 07:36:17",
    "region": "pinghu",
    "unit_price": 51.9,
    "lat": 22.67114,
    "lng": 114.12274
  },
  {
    "title": "整租·佳兆业茗萃园三期 5室2厅 复式 南",
    "community": "佳兆业茗萃园三期",
    "area": "88.00",
    "rooms": "5室2厅",
    "direction": "",
    "floor": "",
    "price": "4700",
    "tags": "",
    "source": "",
    "url": "https://sz.lianjia.com/zufang/SZ2112553424804380672.html",
    "rent_type": "整租",
    "location": "龙岗区-平湖-佳兆业茗萃园三期",
    "scraped_at": "2026-05-03 07:35:59",
    "region": "pinghu",
    "unit_price": 53.4,
    "lat": 22.666256,
    "lng": 114.144365
  },
  {
    "title": "整租·特发天鹅湖畔 4室2厅 东南",
    "community": "特发天鹅湖畔",
    "area": "124.76",
    "rooms": "4室2厅",
    "direction": "东南",
    "floor": "",
    "price": "6500",
    "tags": "",
    "source": "",
    "url": "https://sz.lianjia.com/zufang/SZ2120473303658266624.html",
    "rent_type": "整租",
    "location": "龙岗区-平湖-特发天鹅湖畔",
    "scraped_at": "2026-05-03 07:34:52",
    "region": "pinghu",
    "unit_price": 52.1,
    "lat": 22.671619,
    "lng": 114.160977
  },
  {
    "title": "整租·同创新作 3室2厅 北",
    "community": "同创新作",
    "area": "89.00",
    "rooms": "3室2厅",
    "direction": "北",
    "floor": "",
    "price": "4500",
    "tags": "",
    "source": "",
    "url": "https://sz.lianjia.com/zufang/SZ2144778323027296256.html",
    "rent_type": "整租",
    "location": "龙岗区-平湖-同创新作",
    "scraped_at": "2026-05-03 07:36:08",
    "region": "pinghu",
    "unit_price": 50.6,
    "lat": 22.692319,
    "lng": 114.123567
  },
  {
    "title": "整租·花半里欣悦广场 2室1厅 北",
    "community": "花半里欣悦广场",
    "area": "65.00",
    "rooms": "2室1厅",
    "direction": "北",
    "floor": "",
    "price": "3500",
    "tags": "",
    "source": "",
    "url": "https://sz.lianjia.com/zufang/SZ2150999896696553472.html",
    "rent_type": "整租",
    "location": "龙岗区-平湖-花半里欣悦广场",
    "scraped_at": "2026-05-03 07:36:17",
    "region": "pinghu",
    "unit_price": 53.8,
    "lat": 22.702983,
    "lng": 114.129448
  },
  {
    "title": "独栋·龙湖冠寓 深圳平湖生态谷社区 【特惠爆款】近新凯来龙岗万达10号线地铁口 押一付一 精装配齐家电家具 开间",
    "community": "龙湖冠寓 深圳平湖生态谷社区 【特惠爆款】近新凯来龙岗万达10号线地铁口 押一付一 精装配齐家电家具 开间",
    "area": "25.00",
    "rooms": "",
    "direction": "",
    "floor": "",
    "price": "1565-1777",
    "tags": "",
    "source": "",
    "url": "https://sz.lianjia.com/apartment/19406.html",
    "rent_type": "独栋",
    "location": "",
    "scraped_at": "2026-05-03 07:34:57",
    "region": "pinghu",
    "unit_price": "",
    "lat": 22.676739,
    "lng": 114.11996
  },
  {
    "title": "整租·融湖中心城二期 3室3厅 南",
    "community": "融湖中心城二期",
    "area": "89.00",
    "rooms": "3室3厅",
    "direction": "南",
    "floor": "",
    "price": "5000",
    "tags": "",
    "source": "",
    "url": "https://sz.lianjia.com/zufang/SZ2151642300562800640.html",
    "rent_type": "整租",
    "location": "龙岗区-平湖-融湖中心城二期",
    "scraped_at": "2026-05-03 07:36:17",
    "region": "pinghu",
    "unit_price": 56.2,
    "lat": 22.690654,
    "lng": 114.122964
  },
  {
    "title": "整租·佳兆业茗萃园一期 2室1厅 西北",
    "community": "佳兆业茗萃园一期",
    "area": "68.00",
    "rooms": "2室1厅",
    "direction": "西北",
    "floor": "",
    "price": "3300",
    "tags": "",
    "source": "",
    "url": "https://sz.lianjia.com/zufang/SZ2146883256799199232.html",
    "rent_type": "整租",
    "location": "龙岗区-平湖-佳兆业茗萃园一期",
    "scraped_at": "2026-05-03 07:36:08",
    "region": "pinghu",
    "unit_price": 48.5,
    "lat": 22.667965,
    "lng": 114.142846
  },
  {
    "title": "整租·华侨城四海锦园 3室2厅 复式 西",
    "community": "华侨城四海锦园",
    "area": "60.00",
    "rooms": "3室2厅",
    "direction": "",
    "floor": "",
    "price": "3550",
    "tags": "",
    "source": "",
    "url": "https://sz.lianjia.com/zufang/SZ2145773619354009600.html",
    "rent_type": "整租",
    "location": "龙岗区-平湖-华侨城四海锦园",
    "scraped_at": "2026-05-03 07:36:08",
    "region": "pinghu",
    "unit_price": 59.2,
    "lat": 22.681673,
    "lng": 114.118498
  },
  {
    "title": "整租·平吉上苑 3室2厅 南",
    "community": "平吉上苑",
    "area": "87.00",
    "rooms": "3室2厅",
    "direction": "南",
    "floor": "",
    "price": "5400",
    "tags": "",
    "source": "",
    "url": "https://sz.lianjia.com/zufang/SZ2147290909740367872.html",
    "rent_type": "整租",
    "location": "龙岗区-平湖-平吉上苑",
    "scraped_at": "2026-05-03 07:36:08",
    "region": "pinghu",
    "unit_price": 62.1,
    "lat": 22.673735,
    "lng": 114.136121
  },
  {
    "title": "独栋·创馨公寓 平湖禾花店 新凯来华南城私家花园大单间 开间",
    "community": "创馨公寓 平湖禾花店 新凯来华南城私家花园大单间 开间",
    "area": "30.00",
    "rooms": "",
    "direction": "",
    "floor": "",
    "price": "2380",
    "tags": "",
    "source": "",
    "url": "https://sz.lianjia.com/apartment/82785.html",
    "rent_type": "独栋",
    "location": "",
    "scraped_at": "2026-05-03 07:34:55",
    "region": "pinghu",
    "unit_price": 79.3,
    "lat": 22.695871,
    "lng": 114.112224
  },
  {
    "title": "整租·佳兆业君汇公馆 1室0厅 东南",
    "community": "佳兆业君汇公馆",
    "area": "39.00",
    "rooms": "1室0厅",
    "direction": "东南",
    "floor": "",
    "price": "2700",
    "tags": "",
    "source": "",
    "url": "https://sz.lianjia.com/zufang/SZ2153391643590393856.html",
    "rent_type": "整租",
    "location": "龙岗区-平湖-佳兆业君汇公馆",
    "scraped_at": "2026-05-03 07:34:55",
    "region": "pinghu",
    "unit_price": 69.2,
    "lat": 22.692326,
    "lng": 114.131029
  },
  {
    "title": "整租·熙璟城 3室2厅 东南",
    "community": "熙璟城",
    "area": "88.86",
    "rooms": "3室2厅",
    "direction": "东南",
    "floor": "",
    "price": "4600",
    "tags": "",
    "source": "",
    "url": "https://sz.lianjia.com/zufang/SZ2156331793584750592.html",
    "rent_type": "整租",
    "location": "龙岗区-平湖-熙璟城",
    "scraped_at": "2026-05-03 07:34:55",
    "region": "pinghu",
    "unit_price": 51.8,
    "lat": 22.68451,
    "lng": 114.13006
  },
  {
    "title": "整租·佳兆业君汇公馆 1室1厅 南",
    "community": "佳兆业君汇公馆",
    "area": "39.00",
    "rooms": "1室1厅",
    "direction": "南",
    "floor": "",
    "price": "2600",
    "tags": "",
    "source": "",
    "url": "https://sz.lianjia.com/zufang/SZ2158227528131543040.html",
    "rent_type": "整租",
    "location": "龙岗区-平湖-佳兆业君汇公馆",
    "scraped_at": "2026-05-03 07:34:55",
    "region": "pinghu",
    "unit_price": 66.7,
    "lat": 22.692326,
    "lng": 114.131029
  },
  {
    "title": "独栋·小七洋房 YIN+酒店公寓 禾花地铁 电梯大单间 包水费 押一付一 可办停车月卡 开间",
    "community": "小七洋房 YIN+酒店公寓 禾花地铁 电梯大单间 包水费 押一付一 可办停车月卡 开间",
    "area": "25.00",
    "rooms": "",
    "direction": "",
    "floor": "",
    "price": "1380",
    "tags": "",
    "source": "",
    "url": "https://sz.lianjia.com/apartment/107562.html",
    "rent_type": "独栋",
    "location": "",
    "scraped_at": "2026-05-03 07:34:57",
    "region": "pinghu",
    "unit_price": 55.2,
    "lat": 22.63214,
    "lng": 114.06948
  },
  {
    "title": "整租·广源大厦 2室1厅 东南",
    "community": "广源大厦",
    "area": "39.90",
    "rooms": "2室1厅",
    "direction": "东南",
    "floor": "",
    "price": "2800",
    "tags": "",
    "source": "",
    "url": "https://sz.lianjia.com/zufang/SZ2155659851735236608.html",
    "rent_type": "整租",
    "location": "龙岗区-平湖-广源大厦",
    "scraped_at": "2026-05-03 07:36:23",
    "region": "pinghu",
    "unit_price": 70.2,
    "lat": 22.695441,
    "lng": 114.116748
  },
  {
    "title": "整租·花半里欣悦广场 2室1厅 北",
    "community": "花半里欣悦广场",
    "area": "64.00",
    "rooms": "2室1厅",
    "direction": "北",
    "floor": "",
    "price": "3800",
    "tags": "",
    "source": "",
    "url": "https://sz.lianjia.com/zufang/SZ2156022389551398912.html",
    "rent_type": "整租",
    "location": "龙岗区-平湖-花半里欣悦广场",
    "scraped_at": "2026-05-03 07:34:55",
    "region": "pinghu",
    "unit_price": 59.4,
    "lat": 22.702983,
    "lng": 114.129448
  },
  {
    "title": "整租·金光华凤凰九里 2室2厅 东南/南",
    "community": "金光华凤凰九里",
    "area": "67.00",
    "rooms": "2室2厅",
    "direction": "东南/南",
    "floor": "",
    "price": "3500",
    "tags": "",
    "source": "",
    "url": "https://sz.lianjia.com/zufang/SZ2143702510714486784.html",
    "rent_type": "整租",
    "location": "龙岗区-平湖-金光华凤凰九里",
    "scraped_at": "2026-05-03 07:36:03",
    "region": "pinghu",
    "unit_price": 52.2,
    "lat": 22.67114,
    "lng": 114.12274
  },
  {
    "title": "整租·佳兆业金御佳园 4室2厅 南",
    "community": "佳兆业金御佳园",
    "area": "118.00",
    "rooms": "4室2厅",
    "direction": "南",
    "floor": "",
    "price": "6500",
    "tags": "",
    "source": "",
    "url": "https://sz.lianjia.com/zufang/SZ2156792935343980544.html",
    "rent_type": "整租",
    "location": "龙岗区-平湖-佳兆业金御佳园",
    "scraped_at": "2026-05-03 07:34:55",
    "region": "pinghu",
    "unit_price": 55.1,
    "lat": 22.690472,
    "lng": 114.127817
  },
  {
    "title": "整租·华侨城四海锦园 3室2厅 南/西",
    "community": "华侨城四海锦园",
    "area": "65.00",
    "rooms": "3室2厅",
    "direction": "南/西",
    "floor": "",
    "price": "3600",
    "tags": "",
    "source": "",
    "url": "https://sz.lianjia.com/zufang/SZ2154926388031782912.html",
    "rent_type": "整租",
    "location": "龙岗区-平湖-华侨城四海锦园",
    "scraped_at": "2026-05-03 07:36:12",
    "region": "pinghu",
    "unit_price": 55.4,
    "lat": 22.681673,
    "lng": 114.118498
  },
  {
    "title": "独栋·恒迪公寓 平湖店 地铁口停车方便一居室 开间",
    "community": "恒迪公寓 平湖店 地铁口停车方便一居室 开间",
    "area": "25.00",
    "rooms": "",
    "direction": "",
    "floor": "",
    "price": "1350",
    "tags": "",
    "source": "",
    "url": "https://sz.lianjia.com/apartment/1135.html",
    "rent_type": "独栋",
    "location": "",
    "scraped_at": "2026-05-03 07:34:55",
    "region": "pinghu",
    "unit_price": 54.0,
    "lat": 22.689639,
    "lng": 113.987576
  },
  {
    "title": "整租·华侨城四海锦园 4室2厅 东南/西北",
    "community": "华侨城四海锦园",
    "area": "59.36",
    "rooms": "4室2厅",
    "direction": "东南/西北",
    "floor": "",
    "price": "4200",
    "tags": "",
    "source": "",
    "url": "https://sz.lianjia.com/zufang/SZ2155224317992894464.html",
    "rent_type": "整租",
    "location": "龙岗区-平湖-华侨城四海锦园",
    "scraped_at": "2026-05-03 07:35:47",
    "region": "pinghu",
    "unit_price": 70.8,
    "lat": 22.681673,
    "lng": 114.118498
  },
  {
    "title": "独栋·瑞兹公寓 平湖欣悦广场店 史无前li 可月付押一 独立舒适阳光大单间 拎包入住 1室1厅",
    "community": "瑞兹公寓 平湖欣悦广场店 史无前li 可月付押一 独立舒适阳光大单间 拎包入住",
    "area": "35.00",
    "rooms": "1室1厅",
    "direction": "",
    "floor": "",
    "price": "1780",
    "tags": "",
    "source": "",
    "url": "https://sz.lianjia.com/apartment/1138.html",
    "rent_type": "独栋",
    "location": "",
    "scraped_at": "2026-05-03 07:34:55",
    "region": "pinghu",
    "unit_price": 50.9,
    "lat": 22.558113,
    "lng": 113.951158
  },
  {
    "title": "整租·御峰园 4室2厅 南",
    "community": "御峰园",
    "area": "158.00",
    "rooms": "4室2厅",
    "direction": "南",
    "floor": "",
    "price": "6500",
    "tags": "",
    "source": "",
    "url": "https://sz.lianjia.com/zufang/SZ2156304958842994688.html",
    "rent_type": "整租",
    "location": "龙岗区-平湖-御峰园",
    "scraped_at": "2026-05-03 07:35:47",
    "region": "pinghu",
    "unit_price": 41.1,
    "lat": 22.694415,
    "lng": 114.147655
  },
  {
    "title": "独栋·创馨公寓 中环店 独立阳光花园投影新凯来华南城大单间带车位 开间",
    "community": "创馨公寓 中环店 独立阳光花园投影新凯来华南城大单间带车位 开间",
    "area": "30.00",
    "rooms": "",
    "direction": "",
    "floor": "",
    "price": "2280",
    "tags": "",
    "source": "",
    "url": "https://sz.lianjia.com/apartment/93691.html",
    "rent_type": "独栋",
    "location": "",
    "scraped_at": "2026-05-03 07:34:57",
    "region": "pinghu",
    "unit_price": 76.0,
    "lat": 22.687313,
    "lng": 114.11203
  },
  {
    "title": "整租·昊龙华庭 4室2厅 东",
    "community": "昊龙华庭",
    "area": "138.00",
    "rooms": "4室2厅",
    "direction": "东",
    "floor": "",
    "price": "6000",
    "tags": "",
    "source": "",
    "url": "https://sz.lianjia.com/zufang/SZ2157002466032353280.html",
    "rent_type": "整租",
    "location": "龙岗区-平湖-昊龙华庭",
    "scraped_at": "2026-05-03 07:35:47",
    "region": "pinghu",
    "unit_price": 43.5,
    "lat": 22.701928,
    "lng": 114.121787
  },
  {
    "title": "整租·佳兆业君汇公馆 4室2厅 西北",
    "community": "佳兆业君汇公馆",
    "area": "130.00",
    "rooms": "4室2厅",
    "direction": "西北",
    "floor": "",
    "price": "6000",
    "tags": "",
    "source": "",
    "url": "https://sz.lianjia.com/zufang/SZ2157027028837072896.html",
    "rent_type": "整租",
    "location": "龙岗区-平湖-佳兆业君汇公馆",
    "scraped_at": "2026-05-03 07:35:47",
    "region": "pinghu",
    "unit_price": 46.2,
    "lat": 22.692326,
    "lng": 114.131029
  },
  {
    "title": "整租·佳兆业君汇公馆 2室2厅 西南",
    "community": "佳兆业君汇公馆",
    "area": "67.00",
    "rooms": "2室2厅",
    "direction": "西南",
    "floor": "",
    "price": "3800",
    "tags": "",
    "source": "",
    "url": "https://sz.lianjia.com/zufang/SZ2157048642953805824.html",
    "rent_type": "整租",
    "location": "龙岗区-平湖-佳兆业君汇公馆",
    "scraped_at": "2026-05-03 07:35:47",
    "region": "pinghu",
    "unit_price": 56.7,
    "lat": 22.692326,
    "lng": 114.131029
  },
  {
    "title": "整租·御峰园 4室1厅 北",
    "community": "御峰园",
    "area": "118.00",
    "rooms": "4室1厅",
    "direction": "北",
    "floor": "",
    "price": "5000",
    "tags": "",
    "source": "",
    "url": "https://sz.lianjia.com/zufang/SZ2157783268794040320.html",
    "rent_type": "整租",
    "location": "龙岗区-平湖-御峰园",
    "scraped_at": "2026-05-03 07:34:55",
    "region": "pinghu",
    "unit_price": 42.4,
    "lat": 22.694415,
    "lng": 114.147655
  },
  {
    "title": "整租·同创新作 3室2厅 东",
    "community": "同创新作",
    "area": "39.31",
    "rooms": "3室2厅",
    "direction": "东",
    "floor": "",
    "price": "2500",
    "tags": "",
    "source": "",
    "url": "https://sz.lianjia.com/zufang/SZ2146572160854917120.html",
    "rent_type": "整租",
    "location": "龙岗区-平湖-同创新作",
    "scraped_at": "2026-05-03 07:36:08",
    "region": "pinghu",
    "unit_price": 63.6,
    "lat": 22.692319,
    "lng": 114.123567
  },
  {
    "title": "整租·同创新作 2室2厅 南",
    "community": "同创新作",
    "area": "72.00",
    "rooms": "2室2厅",
    "direction": "南",
    "floor": "",
    "price": "3700",
    "tags": "",
    "source": "",
    "url": "https://sz.lianjia.com/zufang/SZ1946520983305191424.html",
    "rent_type": "整租",
    "location": "龙岗区-平湖-同创新作",
    "scraped_at": "2026-05-03 07:34:57",
    "region": "pinghu",
    "unit_price": 51.4,
    "lat": 22.692319,
    "lng": 114.123567
  },
  {
    "title": "整租·佳兆业茗萃园二期 3室2厅 东南",
    "community": "佳兆业茗萃园二期",
    "area": "50.00",
    "rooms": "3室2厅",
    "direction": "东南",
    "floor": "",
    "price": "3200",
    "tags": "",
    "source": "",
    "url": "https://sz.lianjia.com/zufang/SZ2033416417419722752.html",
    "rent_type": "整租",
    "location": "龙岗区-平湖-佳兆业茗萃园二期",
    "scraped_at": "2026-05-03 07:35:59",
    "region": "pinghu",
    "unit_price": 64.0,
    "lat": 22.669713,
    "lng": 114.142994
  },
  {
    "title": "整租·特发天鹅湖畔 4室2厅 东南",
    "community": "特发天鹅湖畔",
    "area": "124.00",
    "rooms": "4室2厅",
    "direction": "东南",
    "floor": "",
    "price": "6000",
    "tags": "",
    "source": "",
    "url": "https://sz.lianjia.com/zufang/SZ2144505343298764800.html",
    "rent_type": "整租",
    "location": "龙岗区-平湖-特发天鹅湖畔",
    "scraped_at": "2026-05-03 07:36:08",
    "region": "pinghu",
    "unit_price": 48.4,
    "lat": 22.671619,
    "lng": 114.160977
  },
  {
    "title": "整租·特发天鹅湖畔 4室2厅 东南",
    "community": "特发天鹅湖畔",
    "area": "141.00",
    "rooms": "4室2厅",
    "direction": "东南",
    "floor": "",
    "price": "7000",
    "tags": "",
    "source": "",
    "url": "https://sz.lianjia.com/zufang/SZ2138579674966523904.html",
    "rent_type": "整租",
    "location": "龙岗区-平湖-特发天鹅湖畔",
    "scraped_at": "2026-05-03 07:34:57",
    "region": "pinghu",
    "unit_price": 49.6,
    "lat": 22.671619,
    "lng": 114.160977
  },
  {
    "title": "独栋·朗华公寓 朗华家园店 平湖上李朗地铁大单间， 押一付一民水民电拎包入住康利城万国城 开间",
    "community": "朗华公寓 朗华家园店 平湖上李朗地铁大单间， 押一付一民水民电拎包入住康利城万国城 开间",
    "area": "28.00",
    "rooms": "",
    "direction": "",
    "floor": "",
    "price": "1537-1672",
    "tags": "",
    "source": "",
    "url": "https://sz.lianjia.com/apartment/77730.html",
    "rent_type": "独栋",
    "location": "",
    "scraped_at": "2026-05-03 07:34:57",
    "region": "pinghu",
    "unit_price": "",
    "lat": 22.65275,
    "lng": 114.130671
  },
  {
    "title": "整租·华侨城四海锦园 3室2厅 南",
    "community": "华侨城四海锦园",
    "area": "53.78",
    "rooms": "3室2厅",
    "direction": "南",
    "floor": "",
    "price": "3100",
    "tags": "",
    "source": "",
    "url": "https://sz.lianjia.com/zufang/SZ2032372688789438464.html",
    "rent_type": "整租",
    "location": "龙岗区-平湖-华侨城四海锦园",
    "scraped_at": "2026-05-03 07:35:59",
    "region": "pinghu",
    "unit_price": 57.6,
    "lat": 22.681673,
    "lng": 114.118498
  },
  {
    "title": "独栋·小七洋房 摩羯座 平湖华南城（整租独厨大单间）半年起租，水4.87电7毛，押一付一房间免费维修 近亚钢 海源城天虹 开间",
    "community": "小七洋房 摩羯座 平湖华南城（整租独厨大单间）半年起租，水4.87电7毛，押一付一房间免费维修 近亚钢 海源城天虹 开间",
    "area": "25.00",
    "rooms": "",
    "direction": "",
    "floor": "",
    "price": "1400-1480",
    "tags": "",
    "source": "",
    "url": "https://sz.lianjia.com/apartment/36618.html",
    "rent_type": "独栋",
    "location": "",
    "scraped_at": "2026-05-03 07:34:57",
    "region": "pinghu",
    "unit_price": "",
    "lat": 22.676984,
    "lng": 114.127366
  },
  {
    "title": "整租·华侨城四海锦园 3室2厅 南/西",
    "community": "华侨城四海锦园",
    "area": "88.00",
    "rooms": "3室2厅",
    "direction": "南/西",
    "floor": "",
    "price": "5200",
    "tags": "",
    "source": "",
    "url": "https://sz.lianjia.com/zufang/SZ2140022095675916288.html",
    "rent_type": "整租",
    "location": "龙岗区-平湖-华侨城四海锦园",
    "scraped_at": "2026-05-03 07:36:03",
    "region": "pinghu",
    "unit_price": 59.1,
    "lat": 22.681673,
    "lng": 114.118498
  },
  {
    "title": "整租·华侨城四海锦园 3室2厅 西",
    "community": "华侨城四海锦园",
    "area": "60.00",
    "rooms": "3室2厅",
    "direction": "西",
    "floor": "",
    "price": "4200",
    "tags": "",
    "source": "",
    "url": "https://sz.lianjia.com/zufang/SZ2141786218227040256.html",
    "rent_type": "整租",
    "location": "龙岗区-平湖-华侨城四海锦园",
    "scraped_at": "2026-05-03 07:34:57",
    "region": "pinghu",
    "unit_price": 70.0,
    "lat": 22.681673,
    "lng": 114.118498
  },
  {
    "title": "整租·昊龙华庭 3室2厅 东南",
    "community": "昊龙华庭",
    "area": "91.00",
    "rooms": "3室2厅",
    "direction": "东南",
    "floor": "",
    "price": "5200",
    "tags": "",
    "source": "",
    "url": "https://sz.lianjia.com/zufang/SZ2140054027759517696.html",
    "rent_type": "整租",
    "location": "龙岗区-平湖-昊龙华庭",
    "scraped_at": "2026-05-03 07:34:57",
    "region": "pinghu",
    "unit_price": 57.1,
    "lat": 22.701928,
    "lng": 114.121787
  },
  {
    "title": "整租·卓越星源 2室2厅 东南",
    "community": "卓越星源",
    "area": "62.88",
    "rooms": "2室2厅",
    "direction": "东南",
    "floor": "",
    "price": "3600",
    "tags": "",
    "source": "",
    "url": "https://sz.lianjia.com/zufang/SZ2153397706112892928.html",
    "rent_type": "整租",
    "location": "龙岗区-平湖-卓越星源",
    "scraped_at": "2026-05-03 07:34:57",
    "region": "pinghu",
    "unit_price": 57.3,
    "lat": 22.687259,
    "lng": 114.11433
  },
  {
    "title": "整租·御峰园 2室2厅 东",
    "community": "御峰园",
    "area": "77.00",
    "rooms": "2室2厅",
    "direction": "东",
    "floor": "",
    "price": "3800",
    "tags": "",
    "source": "",
    "url": "https://sz.lianjia.com/zufang/SZ2139030234983301120.html",
    "rent_type": "整租",
    "location": "龙岗区-平湖-御峰园",
    "scraped_at": "2026-05-03 07:36:03",
    "region": "pinghu",
    "unit_price": 49.4,
    "lat": 22.694415,
    "lng": 114.147655
  },
  {
    "title": "整租·华侨城四海锦园 3室2厅 东南",
    "community": "华侨城四海锦园",
    "area": "77.00",
    "rooms": "3室2厅",
    "direction": "东南",
    "floor": "",
    "price": "4300",
    "tags": "",
    "source": "",
    "url": "https://sz.lianjia.com/zufang/SZ2139952120663638016.html",
    "rent_type": "整租",
    "location": "龙岗区-平湖-华侨城四海锦园",
    "scraped_at": "2026-05-03 07:36:03",
    "region": "pinghu",
    "unit_price": 55.8,
    "lat": 22.681673,
    "lng": 114.118498
  },
  {
    "title": "整租·合正新悦润园 2室2厅 西南",
    "community": "合正新悦润园",
    "area": "78.00",
    "rooms": "2室2厅",
    "direction": "西南",
    "floor": "",
    "price": "4100",
    "tags": "",
    "source": "",
    "url": "https://sz.lianjia.com/zufang/SZ2145569686350200832.html",
    "rent_type": "整租",
    "location": "龙岗区-平湖-合正新悦润园",
    "scraped_at": "2026-05-03 07:36:08",
    "region": "pinghu",
    "unit_price": 52.6,
    "lat": 22.700556,
    "lng": 114.13211
  },
  {
    "title": "整租·佳兆业金御佳园 4室2厅 东南",
    "community": "佳兆业金御佳园",
    "area": "117.00",
    "rooms": "4室2厅",
    "direction": "东南",
    "floor": "",
    "price": "6500",
    "tags": "",
    "source": "",
    "url": "https://sz.lianjia.com/zufang/SZ2150136935820034048.html",
    "rent_type": "整租",
    "location": "龙岗区-平湖-佳兆业金御佳园",
    "scraped_at": "2026-05-03 07:36:17",
    "region": "pinghu",
    "unit_price": 55.6,
    "lat": 22.690472,
    "lng": 114.127817
  },
  {
    "title": "整租·佳兆业君汇公馆 2室2厅 西南",
    "community": "佳兆业君汇公馆",
    "area": "67.00",
    "rooms": "2室2厅",
    "direction": "西南",
    "floor": "",
    "price": "4000",
    "tags": "",
    "source": "",
    "url": "https://sz.lianjia.com/zufang/SZ2161096416871579648.html",
    "rent_type": "整租",
    "location": "龙岗区-平湖-佳兆业君汇公馆",
    "scraped_at": "2026-05-03 07:34:57",
    "region": "pinghu",
    "unit_price": 59.7,
    "lat": 22.692326,
    "lng": 114.131029
  },
  {
    "title": "整租·佳兆业茗萃园二期 4室2厅 复式 东南",
    "community": "佳兆业茗萃园二期",
    "area": "88.80",
    "rooms": "4室2厅",
    "direction": "",
    "floor": "",
    "price": "4300",
    "tags": "",
    "source": "",
    "url": "https://sz.lianjia.com/zufang/SZ2138235281386504192.html",
    "rent_type": "整租",
    "location": "龙岗区-平湖-佳兆业茗萃园二期",
    "scraped_at": "2026-05-03 07:34:57",
    "region": "pinghu",
    "unit_price": 48.4,
    "lat": 22.669713,
    "lng": 114.142994
  },
  {
    "title": "整租·融湖中心城一期 5室2厅 东南",
    "community": "融湖中心城一期",
    "area": "156.00",
    "rooms": "5室2厅",
    "direction": "东南",
    "floor": "",
    "price": "6600",
    "tags": "",
    "source": "",
    "url": "https://sz.lianjia.com/zufang/SZ2121117274390659072.html",
    "rent_type": "整租",
    "location": "龙岗区-平湖-融湖中心城一期",
    "scraped_at": "2026-05-03 07:34:57",
    "region": "pinghu",
    "unit_price": 42.3,
    "lat": 22.69386,
    "lng": 114.119731
  },
  {
    "title": "整租·特发天鹅湖畔 3室2厅 南/西南",
    "community": "特发天鹅湖畔",
    "area": "95.00",
    "rooms": "3室2厅",
    "direction": "南/西南",
    "floor": "",
    "price": "5000",
    "tags": "",
    "source": "",
    "url": "https://sz.lianjia.com/zufang/SZ2141935492164222976.html",
    "rent_type": "整租",
    "location": "龙岗区-平湖-特发天鹅湖畔",
    "scraped_at": "2026-05-03 07:34:57",
    "region": "pinghu",
    "unit_price": 52.6,
    "lat": 22.671619,
    "lng": 114.160977
  },
  {
    "title": "整租·华侨城四海锦园 4室2厅 西",
    "community": "华侨城四海锦园",
    "area": "56.00",
    "rooms": "4室2厅",
    "direction": "西",
    "floor": "",
    "price": "3800",
    "tags": "",
    "source": "",
    "url": "https://sz.lianjia.com/zufang/SZ2152246643599081472.html",
    "rent_type": "整租",
    "location": "龙岗区-平湖-华侨城四海锦园",
    "scraped_at": "2026-05-03 07:36:17",
    "region": "pinghu",
    "unit_price": 67.9,
    "lat": 22.681673,
    "lng": 114.118498
  },
  {
    "title": "整租·康利城 2室1厅 东南",
    "community": "康利城",
    "area": "63.11",
    "rooms": "2室1厅",
    "direction": "东南",
    "floor": "",
    "price": "3500",
    "tags": "",
    "source": "",
    "url": "https://sz.lianjia.com/zufang/SZ2129789181897998336.html",
    "rent_type": "整租",
    "location": "龙岗区-平湖-康利城",
    "scraped_at": "2026-05-03 07:34:57",
    "region": "pinghu",
    "unit_price": 55.5,
    "lat": 22.691445,
    "lng": 114.135877
  },
  {
    "title": "整租·花半里欣悦广场 3室2厅 南",
    "community": "花半里欣悦广场",
    "area": "75.00",
    "rooms": "3室2厅",
    "direction": "南",
    "floor": "",
    "price": "3000",
    "tags": "",
    "source": "",
    "url": "https://sz.lianjia.com/zufang/SZ2156677193839673344.html",
    "rent_type": "整租",
    "location": "龙岗区-平湖-花半里欣悦广场",
    "scraped_at": "2026-05-03 07:35:00",
    "region": "pinghu",
    "unit_price": 40.0,
    "lat": 22.702983,
    "lng": 114.129448
  },
  {
    "title": "整租·熙璟城 3室2厅 南",
    "community": "熙璟城",
    "area": "88.64",
    "rooms": "3室2厅",
    "direction": "南",
    "floor": "",
    "price": "5000",
    "tags": "",
    "source": "",
    "url": "https://sz.lianjia.com/zufang/SZ2119705898719903744.html",
    "rent_type": "整租",
    "location": "龙岗区-平湖-熙璟城",
    "scraped_at": "2026-05-03 07:35:00",
    "region": "pinghu",
    "unit_price": 56.4,
    "lat": 22.68451,
    "lng": 114.13006
  },
  {
    "title": "整租·金光华凤凰九里 3室2厅 东",
    "community": "金光华凤凰九里",
    "area": "73.00",
    "rooms": "3室2厅",
    "direction": "东",
    "floor": "",
    "price": "4500",
    "tags": "",
    "source": "",
    "url": "https://sz.lianjia.com/zufang/SZ2146981206632169472.html",
    "rent_type": "整租",
    "location": "龙岗区-平湖-金光华凤凰九里",
    "scraped_at": "2026-05-03 07:36:08",
    "region": "pinghu",
    "unit_price": 61.6,
    "lat": 22.67114,
    "lng": 114.12274
  },
  {
    "title": "整租·佳兆业君汇公馆 3室2厅 东南",
    "community": "佳兆业君汇公馆",
    "area": "118.00",
    "rooms": "3室2厅",
    "direction": "东南",
    "floor": "",
    "price": "5200",
    "tags": "",
    "source": "",
    "url": "https://sz.lianjia.com/zufang/SZ2160996123395751936.html",
    "rent_type": "整租",
    "location": "龙岗区-平湖-佳兆业君汇公馆",
    "scraped_at": "2026-05-03 07:35:00",
    "region": "pinghu",
    "unit_price": 44.1,
    "lat": 22.692326,
    "lng": 114.131029
  },
  {
    "title": "整租·佳兆业君汇公馆 1室0厅 南",
    "community": "佳兆业君汇公馆",
    "area": "39.00",
    "rooms": "1室0厅",
    "direction": "南",
    "floor": "",
    "price": "2700",
    "tags": "",
    "source": "",
    "url": "https://sz.lianjia.com/zufang/SZ2148465920584974336.html",
    "rent_type": "整租",
    "location": "龙岗区-平湖-佳兆业君汇公馆",
    "scraped_at": "2026-05-03 07:35:12",
    "region": "pinghu",
    "unit_price": 69.2,
    "lat": 22.692326,
    "lng": 114.131029
  },
  {
    "title": "整租·融湖中心城一期 4室2厅 南/北",
    "community": "融湖中心城一期",
    "area": "121.00",
    "rooms": "4室2厅",
    "direction": "南/北",
    "floor": "",
    "price": "6000",
    "tags": "",
    "source": "",
    "url": "https://sz.lianjia.com/zufang/SZ2155332014918598656.html",
    "rent_type": "整租",
    "location": "龙岗区-平湖-融湖中心城一期",
    "scraped_at": "2026-05-03 07:35:00",
    "region": "pinghu",
    "unit_price": 49.6,
    "lat": 22.69386,
    "lng": 114.119731
  },
  {
    "title": "整租·熙璟城 3室2厅 东北",
    "community": "熙璟城",
    "area": "88.86",
    "rooms": "3室2厅",
    "direction": "东北",
    "floor": "",
    "price": "4500",
    "tags": "",
    "source": "",
    "url": "https://sz.lianjia.com/zufang/SZ2149112902718586880.html",
    "rent_type": "整租",
    "location": "龙岗区-平湖-熙璟城",
    "scraped_at": "2026-05-03 07:35:12",
    "region": "pinghu",
    "unit_price": 50.6,
    "lat": 22.68451,
    "lng": 114.13006
  },
  {
    "title": "整租·平吉上苑 3室2厅 东南",
    "community": "平吉上苑",
    "area": "87.00",
    "rooms": "3室2厅",
    "direction": "东南",
    "floor": "",
    "price": "5600",
    "tags": "",
    "source": "",
    "url": "https://sz.lianjia.com/zufang/SZ2152042689850245120.html",
    "rent_type": "整租",
    "location": "龙岗区-平湖-平吉上苑",
    "scraped_at": "2026-05-03 07:36:17",
    "region": "pinghu",
    "unit_price": 64.4,
    "lat": 22.673735,
    "lng": 114.136121
  },
  {
    "title": "整租·御峰园 7室2厅 东南",
    "community": "御峰园",
    "area": "178.00",
    "rooms": "7室2厅",
    "direction": "东南",
    "floor": "",
    "price": "18000",
    "tags": "",
    "source": "",
    "url": "https://sz.lianjia.com/zufang/SZ2150782859558780928.html",
    "rent_type": "整租",
    "location": "龙岗区-平湖-御峰园",
    "scraped_at": "2026-05-03 07:36:12",
    "region": "pinghu",
    "unit_price": 101.1,
    "lat": 22.694415,
    "lng": 114.147655
  },
  {
    "title": "整租·卓越星源 3室2厅 东北",
    "community": "卓越星源",
    "area": "87.13",
    "rooms": "3室2厅",
    "direction": "东北",
    "floor": "",
    "price": "5000",
    "tags": "",
    "source": "",
    "url": "https://sz.lianjia.com/zufang/SZ2031240812955697152.html",
    "rent_type": "整租",
    "location": "龙岗区-平湖-卓越星源",
    "scraped_at": "2026-05-03 07:35:59",
    "region": "pinghu",
    "unit_price": 57.4,
    "lat": 22.687259,
    "lng": 114.11433
  },
  {
    "title": "整租·华南西苑 2室1厅 北",
    "community": "华南西苑",
    "area": "74.00",
    "rooms": "2室1厅",
    "direction": "北",
    "floor": "",
    "price": "3500",
    "tags": "",
    "source": "",
    "url": "https://sz.lianjia.com/zufang/SZ2089340268514902016.html",
    "rent_type": "整租",
    "location": "龙岗区-平湖-华南西苑",
    "scraped_at": "2026-05-03 07:35:59",
    "region": "pinghu",
    "unit_price": 47.3,
    "lat": 22.680493,
    "lng": 114.116336
  },
  {
    "title": "整租·华侨城四海锦园 3室2厅 东南",
    "community": "华侨城四海锦园",
    "area": "56.22",
    "rooms": "3室2厅",
    "direction": "东南",
    "floor": "",
    "price": "3000",
    "tags": "",
    "source": "",
    "url": "https://sz.lianjia.com/zufang/SZ2112144289168359424.html",
    "rent_type": "整租",
    "location": "龙岗区-平湖-华侨城四海锦园",
    "scraped_at": "2026-05-03 07:35:08",
    "region": "pinghu",
    "unit_price": 53.4,
    "lat": 22.681673,
    "lng": 114.118498
  },
  {
    "title": "整租·华侨城四海锦园 4室2厅 跃层 东南",
    "community": "华侨城四海锦园",
    "area": "66.00",
    "rooms": "4室2厅",
    "direction": "",
    "floor": "",
    "price": "4600",
    "tags": "",
    "source": "",
    "url": "https://sz.lianjia.com/zufang/SZ2111727218882248704.html",
    "rent_type": "整租",
    "location": "龙岗区-平湖-华侨城四海锦园",
    "scraped_at": "2026-05-03 07:35:08",
    "region": "pinghu",
    "unit_price": 69.7,
    "lat": 22.681673,
    "lng": 114.118498
  },
  {
    "title": "整租·熙璟城 4室2厅 南/北",
    "community": "熙璟城",
    "area": "140.77",
    "rooms": "4室2厅",
    "direction": "南/北",
    "floor": "",
    "price": "7000",
    "tags": "",
    "source": "",
    "url": "https://sz.lianjia.com/zufang/SZ2113652876856262656.html",
    "rent_type": "整租",
    "location": "龙岗区-平湖-熙璟城",
    "scraped_at": "2026-05-03 07:35:59",
    "region": "pinghu",
    "unit_price": 49.7,
    "lat": 22.68451,
    "lng": 114.13006
  },
  {
    "title": "整租·御峰园 3室2厅 东南",
    "community": "御峰园",
    "area": "107.00",
    "rooms": "3室2厅",
    "direction": "东南",
    "floor": "",
    "price": "6500",
    "tags": "",
    "source": "",
    "url": "https://sz.lianjia.com/zufang/SZ2112752688520232960.html",
    "rent_type": "整租",
    "location": "龙岗区-平湖-御峰园",
    "scraped_at": "2026-05-03 07:35:59",
    "region": "pinghu",
    "unit_price": 60.7,
    "lat": 22.694415,
    "lng": 114.147655
  },
  {
    "title": "整租·广源大厦 2室1厅 东南",
    "community": "广源大厦",
    "area": "37.29",
    "rooms": "2室1厅",
    "direction": "东南",
    "floor": "",
    "price": "2600",
    "tags": "",
    "source": "",
    "url": "https://sz.lianjia.com/zufang/SZ2118944360996274176.html",
    "rent_type": "整租",
    "location": "龙岗区-平湖-广源大厦",
    "scraped_at": "2026-05-03 07:35:08",
    "region": "pinghu",
    "unit_price": 69.7,
    "lat": 22.695441,
    "lng": 114.116748
  },
  {
    "title": "整租·华侨城四海锦园 3室2厅 南/西",
    "community": "华侨城四海锦园",
    "area": "88.00",
    "rooms": "3室2厅",
    "direction": "南/西",
    "floor": "",
    "price": "4400",
    "tags": "",
    "source": "",
    "url": "https://sz.lianjia.com/zufang/SZ2121918720434503680.html",
    "rent_type": "整租",
    "location": "龙岗区-平湖-华侨城四海锦园",
    "scraped_at": "2026-05-03 07:35:00",
    "region": "pinghu",
    "unit_price": 50.0,
    "lat": 22.681673,
    "lng": 114.118498
  },
  {
    "title": "整租·佳兆业茗萃园一期 3室2厅 南",
    "community": "佳兆业茗萃园一期",
    "area": "87.62",
    "rooms": "3室2厅",
    "direction": "南",
    "floor": "",
    "price": "4100",
    "tags": "",
    "source": "",
    "url": "https://sz.lianjia.com/zufang/SZ2130583034485800960.html",
    "rent_type": "整租",
    "location": "龙岗区-平湖-佳兆业茗萃园一期",
    "scraped_at": "2026-05-03 07:35:00",
    "region": "pinghu",
    "unit_price": 46.8,
    "lat": 22.667965,
    "lng": 114.142846
  },
  {
    "title": "整租·华侨城四海锦园 3室2厅 东南",
    "community": "华侨城四海锦园",
    "area": "76.20",
    "rooms": "3室2厅",
    "direction": "东南",
    "floor": "",
    "price": "4600",
    "tags": "",
    "source": "",
    "url": "https://sz.lianjia.com/zufang/SZ2127651745873002496.html",
    "rent_type": "整租",
    "location": "龙岗区-平湖-华侨城四海锦园",
    "scraped_at": "2026-05-03 07:35:00",
    "region": "pinghu",
    "unit_price": 60.4,
    "lat": 22.681673,
    "lng": 114.118498
  },
  {
    "title": "整租·御峰园 4室2厅 复式 南",
    "community": "御峰园",
    "area": "151.00",
    "rooms": "4室2厅",
    "direction": "",
    "floor": "",
    "price": "11000",
    "tags": "",
    "source": "",
    "url": "https://sz.lianjia.com/zufang/SZ2144365517698236416.html",
    "rent_type": "整租",
    "location": "龙岗区-平湖-御峰园",
    "scraped_at": "2026-05-03 07:35:17",
    "region": "pinghu",
    "unit_price": 72.8,
    "lat": 22.694415,
    "lng": 114.147655
  },
  {
    "title": "整租·卓越星源 5室2厅 南",
    "community": "卓越星源",
    "area": "182.00",
    "rooms": "5室2厅",
    "direction": "南",
    "floor": "",
    "price": "8200",
    "tags": "",
    "source": "",
    "url": "https://sz.lianjia.com/zufang/SZ2144366996882456576.html",
    "rent_type": "整租",
    "location": "龙岗区-平湖-卓越星源",
    "scraped_at": "2026-05-03 07:35:17",
    "region": "pinghu",
    "unit_price": 45.1,
    "lat": 22.687259,
    "lng": 114.11433
  },
  {
    "title": "整租·岗宏翰林汇 3室2厅 东南",
    "community": "岗宏翰林汇",
    "area": "90.00",
    "rooms": "3室2厅",
    "direction": "东南",
    "floor": "",
    "price": "5500",
    "tags": "",
    "source": "",
    "url": "https://sz.lianjia.com/zufang/SZ2144107701741813760.html",
    "rent_type": "整租",
    "location": "龙岗区-平湖-岗宏翰林汇",
    "scraped_at": "2026-05-03 07:35:17",
    "region": "pinghu",
    "unit_price": 61.1,
    "lat": 22.67765,
    "lng": 114.152277
  },
  {
    "title": "整租·岗宏翰林汇 2室1厅 东南",
    "community": "岗宏翰林汇",
    "area": "80.00",
    "rooms": "2室1厅",
    "direction": "东南",
    "floor": "",
    "price": "4600",
    "tags": "",
    "source": "",
    "url": "https://sz.lianjia.com/zufang/SZ2144111887413936128.html",
    "rent_type": "整租",
    "location": "龙岗区-平湖-岗宏翰林汇",
    "scraped_at": "2026-05-03 07:35:17",
    "region": "pinghu",
    "unit_price": 57.5,
    "lat": 22.67765,
    "lng": 114.152277
  },
  {
    "title": "整租·昊龙华庭 3室2厅 南",
    "community": "昊龙华庭",
    "area": "89.00",
    "rooms": "3室2厅",
    "direction": "南",
    "floor": "",
    "price": "5000",
    "tags": "",
    "source": "",
    "url": "https://sz.lianjia.com/zufang/SZ2144303450731577344.html",
    "rent_type": "整租",
    "location": "龙岗区-平湖-昊龙华庭",
    "scraped_at": "2026-05-03 07:36:08",
    "region": "pinghu",
    "unit_price": 56.2,
    "lat": 22.701928,
    "lng": 114.121787
  },
  {
    "title": "整租·融湖中心城二期 4室2厅 西南",
    "community": "融湖中心城二期",
    "area": "89.00",
    "rooms": "4室2厅",
    "direction": "西南",
    "floor": "",
    "price": "5500",
    "tags": "",
    "source": "",
    "url": "https://sz.lianjia.com/zufang/SZ2145450166075785216.html",
    "rent_type": "整租",
    "location": "龙岗区-平湖-融湖中心城二期",
    "scraped_at": "2026-05-03 07:35:17",
    "region": "pinghu",
    "unit_price": 61.8,
    "lat": 22.690654,
    "lng": 114.122964
  },
  {
    "title": "整租·康利城 3室1厅 南",
    "community": "康利城",
    "area": "65.00",
    "rooms": "3室1厅",
    "direction": "南",
    "floor": "",
    "price": "3500",
    "tags": "",
    "source": "",
    "url": "https://sz.lianjia.com/zufang/SZ2140432257389690880.html",
    "rent_type": "整租",
    "location": "龙岗区-平湖-康利城",
    "scraped_at": "2026-05-03 07:35:00",
    "region": "pinghu",
    "unit_price": 53.8,
    "lat": 22.691445,
    "lng": 114.135877
  },
  {
    "title": "整租·佳兆业金御佳园 4室2厅 南",
    "community": "佳兆业金御佳园",
    "area": "117.00",
    "rooms": "4室2厅",
    "direction": "南",
    "floor": "",
    "price": "6500",
    "tags": "",
    "source": "",
    "url": "https://sz.lianjia.com/zufang/SZ2140403876925276160.html",
    "rent_type": "整租",
    "location": "龙岗区-平湖-佳兆业金御佳园",
    "scraped_at": "2026-05-03 07:35:00",
    "region": "pinghu",
    "unit_price": 55.6,
    "lat": 22.690472,
    "lng": 114.127817
  },
  {
    "title": "整租·熙璟城 3室2厅 南",
    "community": "熙璟城",
    "area": "89.00",
    "rooms": "3室2厅",
    "direction": "南",
    "floor": "",
    "price": "4800",
    "tags": "",
    "source": "",
    "url": "https://sz.lianjia.com/zufang/SZ2145586371450896384.html",
    "rent_type": "整租",
    "location": "龙岗区-平湖-熙璟城",
    "scraped_at": "2026-05-03 07:36:08",
    "region": "pinghu",
    "unit_price": 53.9,
    "lat": 22.68451,
    "lng": 114.13006
  },
  {
    "title": "整租·御峰园 5室2厅 复式 南",
    "community": "御峰园",
    "area": "176.00",
    "rooms": "5室2厅",
    "direction": "",
    "floor": "",
    "price": "11500",
    "tags": "",
    "source": "",
    "url": "https://sz.lianjia.com/zufang/SZ2141045390370144256.html",
    "rent_type": "整租",
    "location": "龙岗区-平湖-御峰园",
    "scraped_at": "2026-05-03 07:35:00",
    "region": "pinghu",
    "unit_price": 65.3,
    "lat": 22.694415,
    "lng": 114.147655
  },
  {
    "title": "整租·御峰园 4室3厅 南",
    "community": "御峰园",
    "area": "242.00",
    "rooms": "4室3厅",
    "direction": "南",
    "floor": "",
    "price": "12000",
    "tags": "",
    "source": "",
    "url": "https://sz.lianjia.com/zufang/SZ2141441634473082880.html",
    "rent_type": "整租",
    "location": "龙岗区-平湖-御峰园",
    "scraped_at": "2026-05-03 07:35:02",
    "region": "pinghu",
    "unit_price": 49.6,
    "lat": 22.694415,
    "lng": 114.147655
  },
  {
    "title": "整租·御峰园 4室3厅 南",
    "community": "御峰园",
    "area": "242.00",
    "rooms": "4室3厅",
    "direction": "南",
    "floor": "",
    "price": "12000",
    "tags": "",
    "source": "",
    "url": "https://sz.lianjia.com/zufang/SZ2141440639131189248.html",
    "rent_type": "整租",
    "location": "龙岗区-平湖-御峰园",
    "scraped_at": "2026-05-03 07:35:02",
    "region": "pinghu",
    "unit_price": 49.6,
    "lat": 22.694415,
    "lng": 114.147655
  },
  {
    "title": "整租·佳兆业君汇公馆 4室2厅 南",
    "community": "佳兆业君汇公馆",
    "area": "120.00",
    "rooms": "4室2厅",
    "direction": "南",
    "floor": "",
    "price": "6500",
    "tags": "",
    "source": "",
    "url": "https://sz.lianjia.com/zufang/SZ2142571689597206528.html",
    "rent_type": "整租",
    "location": "龙岗区-平湖-佳兆业君汇公馆",
    "scraped_at": "2026-05-03 07:35:17",
    "region": "pinghu",
    "unit_price": 54.2,
    "lat": 22.692326,
    "lng": 114.131029
  },
  {
    "title": "整租·融湖中心城一期 3室2厅 东南",
    "community": "融湖中心城一期",
    "area": "88.00",
    "rooms": "3室2厅",
    "direction": "东南",
    "floor": "",
    "price": "5200",
    "tags": "",
    "source": "",
    "url": "https://sz.lianjia.com/zufang/SZ2143580075134550016.html",
    "rent_type": "整租",
    "location": "龙岗区-平湖-融湖中心城一期",
    "scraped_at": "2026-05-03 07:36:03",
    "region": "pinghu",
    "unit_price": 59.1,
    "lat": 22.69386,
    "lng": 114.119731
  },
  {
    "title": "整租·御峰园 3室2厅 东",
    "community": "御峰园",
    "area": "107.00",
    "rooms": "3室2厅",
    "direction": "东",
    "floor": "",
    "price": "6000",
    "tags": "",
    "source": "",
    "url": "https://sz.lianjia.com/zufang/SZ2147673704518123520.html",
    "rent_type": "整租",
    "location": "龙岗区-平湖-御峰园",
    "scraped_at": "2026-05-03 07:35:02",
    "region": "pinghu",
    "unit_price": 56.1,
    "lat": 22.694415,
    "lng": 114.147655
  },
  {
    "title": "整租·东都雅苑 6室2厅 东南",
    "community": "东都雅苑",
    "area": "175.13",
    "rooms": "6室2厅",
    "direction": "东南",
    "floor": "",
    "price": "9000",
    "tags": "",
    "source": "",
    "url": "https://sz.lianjia.com/zufang/SZ2147688464353591296.html",
    "rent_type": "整租",
    "location": "龙岗区-平湖-东都雅苑",
    "scraped_at": "2026-05-03 07:35:02",
    "region": "pinghu",
    "unit_price": 51.4,
    "lat": 22.675966,
    "lng": 114.149568
  },
  {
    "title": "整租·华侨城四海锦园 3室2厅 南/西",
    "community": "华侨城四海锦园",
    "area": "88.00",
    "rooms": "3室2厅",
    "direction": "南/西",
    "floor": "",
    "price": "4800",
    "tags": "",
    "source": "",
    "url": "https://sz.lianjia.com/zufang/SZ2148801572769890304.html",
    "rent_type": "整租",
    "location": "龙岗区-平湖-华侨城四海锦园",
    "scraped_at": "2026-05-03 07:35:02",
    "region": "pinghu",
    "unit_price": 54.5,
    "lat": 22.681673,
    "lng": 114.118498
  },
  {
    "title": "整租·佳兆业茗萃园三期 2室2厅 南",
    "community": "佳兆业茗萃园三期",
    "area": "82.21",
    "rooms": "2室2厅",
    "direction": "南",
    "floor": "",
    "price": "3600",
    "tags": "",
    "source": "",
    "url": "https://sz.lianjia.com/zufang/SZ2148012417521549312.html",
    "rent_type": "整租",
    "location": "龙岗区-平湖-佳兆业茗萃园三期",
    "scraped_at": "2026-05-03 07:36:08",
    "region": "pinghu",
    "unit_price": 43.8,
    "lat": 22.666256,
    "lng": 114.144365
  },
  {
    "title": "整租·融湖中心城三期 3室2厅 东南",
    "community": "融湖中心城三期",
    "area": "89.00",
    "rooms": "3室2厅",
    "direction": "东南",
    "floor": "",
    "price": "5400",
    "tags": "",
    "source": "",
    "url": "https://sz.lianjia.com/zufang/SZ2148454542935588864.html",
    "rent_type": "整租",
    "location": "龙岗区-平湖-融湖中心城三期",
    "scraped_at": "2026-05-03 07:35:02",
    "region": "pinghu",
    "unit_price": 60.7,
    "lat": 22.69562,
    "lng": 114.11292
  },
  {
    "title": "整租·融湖中心城二期 4室2厅 南",
    "community": "融湖中心城二期",
    "area": "89.00",
    "rooms": "4室2厅",
    "direction": "南",
    "floor": "",
    "price": "5500",
    "tags": "",
    "source": "",
    "url": "https://sz.lianjia.com/zufang/SZ2151533950336499712.html",
    "rent_type": "整租",
    "location": "龙岗区-平湖-融湖中心城二期",
    "scraped_at": "2026-05-03 07:36:17",
    "region": "pinghu",
    "unit_price": 61.8,
    "lat": 22.690654,
    "lng": 114.122964
  },
  {
    "title": "整租·御峰园 3室2厅 复式 东南",
    "community": "御峰园",
    "area": "121.85",
    "rooms": "3室2厅",
    "direction": "",
    "floor": "",
    "price": "6500",
    "tags": "",
    "source": "",
    "url": "https://sz.lianjia.com/zufang/SZ2151904684271468544.html",
    "rent_type": "整租",
    "location": "龙岗区-平湖-御峰园",
    "scraped_at": "2026-05-03 07:36:17",
    "region": "pinghu",
    "unit_price": 53.3,
    "lat": 22.694415,
    "lng": 114.147655
  },
  {
    "title": "整租·佳兆业金御佳园 2室2厅 南",
    "community": "佳兆业金御佳园",
    "area": "60.06",
    "rooms": "2室2厅",
    "direction": "南",
    "floor": "",
    "price": "4000",
    "tags": "",
    "source": "",
    "url": "https://sz.lianjia.com/zufang/SZ2153042237569630208.html",
    "rent_type": "整租",
    "location": "龙岗区-平湖-佳兆业金御佳园",
    "scraped_at": "2026-05-03 07:36:17",
    "region": "pinghu",
    "unit_price": 66.6,
    "lat": 22.690472,
    "lng": 114.127817
  },
  {
    "title": "整租·昊龙华庭 3室2厅 东南",
    "community": "昊龙华庭",
    "area": "88.65",
    "rooms": "3室2厅",
    "direction": "东南",
    "floor": "",
    "price": "5000",
    "tags": "",
    "source": "",
    "url": "https://sz.lianjia.com/zufang/SZ2150610852963680256.html",
    "rent_type": "整租",
    "location": "龙岗区-平湖-昊龙华庭",
    "scraped_at": "2026-05-03 07:36:12",
    "region": "pinghu",
    "unit_price": 56.4,
    "lat": 22.701928,
    "lng": 114.121787
  },
  {
    "title": "整租·特发天鹅湖畔 3室2厅 东南",
    "community": "特发天鹅湖畔",
    "area": "89.00",
    "rooms": "3室2厅",
    "direction": "东南",
    "floor": "",
    "price": "4700",
    "tags": "",
    "source": "",
    "url": "https://sz.lianjia.com/zufang/SZ2160703004817227776.html",
    "rent_type": "整租",
    "location": "龙岗区-平湖-特发天鹅湖畔",
    "scraped_at": "2026-05-03 07:35:02",
    "region": "pinghu",
    "unit_price": 52.8,
    "lat": 22.671619,
    "lng": 114.160977
  },
  {
    "title": "整租·同创新作 2室2厅 东",
    "community": "同创新作",
    "area": "39.00",
    "rooms": "2室2厅",
    "direction": "东",
    "floor": "",
    "price": "2500",
    "tags": "",
    "source": "",
    "url": "https://sz.lianjia.com/zufang/SZ2161485301980069888.html",
    "rent_type": "整租",
    "location": "龙岗区-平湖-同创新作",
    "scraped_at": "2026-05-03 07:35:02",
    "region": "pinghu",
    "unit_price": 64.1,
    "lat": 22.692319,
    "lng": 114.123567
  },
  {
    "title": "整租·融湖中心城一期 2室1厅 东南",
    "community": "融湖中心城一期",
    "area": "60.00",
    "rooms": "2室1厅",
    "direction": "东南",
    "floor": "",
    "price": "3000",
    "tags": "",
    "source": "",
    "url": "https://sz.lianjia.com/zufang/SZ2144743256871665664.html",
    "rent_type": "整租",
    "location": "龙岗区-平湖-融湖中心城一期",
    "scraped_at": "2026-05-03 07:36:08",
    "region": "pinghu",
    "unit_price": 50.0,
    "lat": 22.69386,
    "lng": 114.119731
  },
  {
    "title": "整租·佳兆业茗萃园二期 2室2厅 东南",
    "community": "佳兆业茗萃园二期",
    "area": "65.34",
    "rooms": "2室2厅",
    "direction": "东南",
    "floor": "",
    "price": "3300",
    "tags": "",
    "source": "",
    "url": "https://sz.lianjia.com/zufang/SZ2145105781781954560.html",
    "rent_type": "整租",
    "location": "龙岗区-平湖-佳兆业茗萃园二期",
    "scraped_at": "2026-05-03 07:36:08",
    "region": "pinghu",
    "unit_price": 50.5,
    "lat": 22.669713,
    "lng": 114.142994
  },
  {
    "title": "整租·同创新作 2室1厅 北",
    "community": "同创新作",
    "area": "39.00",
    "rooms": "2室1厅",
    "direction": "北",
    "floor": "",
    "price": "2600",
    "tags": "",
    "source": "",
    "url": "https://sz.lianjia.com/zufang/SZ2139994510766112768.html",
    "rent_type": "整租",
    "location": "龙岗区-平湖-同创新作",
    "scraped_at": "2026-05-03 07:36:03",
    "region": "pinghu",
    "unit_price": 66.7,
    "lat": 22.692319,
    "lng": 114.123567
  },
  {
    "title": "整租·卓越星源 2室2厅 西南",
    "community": "卓越星源",
    "area": "63.00",
    "rooms": "2室2厅",
    "direction": "西南",
    "floor": "",
    "price": "3600",
    "tags": "",
    "source": "",
    "url": "https://sz.lianjia.com/zufang/SZ2146540552554807296.html",
    "rent_type": "整租",
    "location": "龙岗区-平湖-卓越星源",
    "scraped_at": "2026-05-03 07:36:08",
    "region": "pinghu",
    "unit_price": 57.1,
    "lat": 22.687259,
    "lng": 114.11433
  },
  {
    "title": "整租·佳兆业金御雅园 2室2厅 东南",
    "community": "佳兆业金御雅园",
    "area": "76.00",
    "rooms": "2室2厅",
    "direction": "东南",
    "floor": "",
    "price": "4200",
    "tags": "",
    "source": "",
    "url": "https://sz.lianjia.com/zufang/SZ2144695289145982976.html",
    "rent_type": "整租",
    "location": "龙岗区-平湖-佳兆业金御雅园",
    "scraped_at": "2026-05-03 07:36:08",
    "region": "pinghu",
    "unit_price": 55.3,
    "lat": 22.69141,
    "lng": 114.129029
  },
  {
    "title": "整租·岗宏翰林汇 3室2厅 东南",
    "community": "岗宏翰林汇",
    "area": "93.00",
    "rooms": "3室2厅",
    "direction": "东南",
    "floor": "",
    "price": "5000",
    "tags": "",
    "source": "",
    "url": "https://sz.lianjia.com/zufang/SZ2145128427055742976.html",
    "rent_type": "整租",
    "location": "龙岗区-平湖-岗宏翰林汇",
    "scraped_at": "2026-05-03 07:36:08",
    "region": "pinghu",
    "unit_price": 53.8,
    "lat": 22.67765,
    "lng": 114.152277
  },
  {
    "title": "整租·佳兆业金御雅园 4室2厅 西北",
    "community": "佳兆业金御雅园",
    "area": "128.00",
    "rooms": "4室2厅",
    "direction": "西北",
    "floor": "",
    "price": "5700",
    "tags": "",
    "source": "",
    "url": "https://sz.lianjia.com/zufang/SZ2145134430803460096.html",
    "rent_type": "整租",
    "location": "龙岗区-平湖-佳兆业金御雅园",
    "scraped_at": "2026-05-03 07:35:12",
    "region": "pinghu",
    "unit_price": 44.5,
    "lat": 22.69141,
    "lng": 114.129029
  },
  {
    "title": "整租·金光华凤凰九里 2室1厅 东南",
    "community": "金光华凤凰九里",
    "area": "67.51",
    "rooms": "2室1厅",
    "direction": "东南",
    "floor": "",
    "price": "3600",
    "tags": "",
    "source": "",
    "url": "https://sz.lianjia.com/zufang/SZ2145835442988122112.html",
    "rent_type": "整租",
    "location": "龙岗区-平湖-金光华凤凰九里",
    "scraped_at": "2026-05-03 07:36:08",
    "region": "pinghu",
    "unit_price": 53.3,
    "lat": 22.67114,
    "lng": 114.12274
  },
  {
    "title": "整租·华侨城四海锦园 3室1厅 南",
    "community": "华侨城四海锦园",
    "area": "77.00",
    "rooms": "3室1厅",
    "direction": "南",
    "floor": "",
    "price": "5000",
    "tags": "",
    "source": "",
    "url": "https://sz.lianjia.com/zufang/SZ2146575893739339776.html",
    "rent_type": "整租",
    "location": "龙岗区-平湖-华侨城四海锦园",
    "scraped_at": "2026-05-03 07:35:12",
    "region": "pinghu",
    "unit_price": 64.9,
    "lat": 22.681673,
    "lng": 114.118498
  },
  {
    "title": "整租·佳兆业君汇公馆 2室2厅 西南",
    "community": "佳兆业君汇公馆",
    "area": "68.00",
    "rooms": "2室2厅",
    "direction": "西南",
    "floor": "",
    "price": "4200",
    "tags": "",
    "source": "",
    "url": "https://sz.lianjia.com/zufang/SZ2146653664536690688.html",
    "rent_type": "整租",
    "location": "龙岗区-平湖-佳兆业君汇公馆",
    "scraped_at": "2026-05-03 07:35:12",
    "region": "pinghu",
    "unit_price": 61.8,
    "lat": 22.692326,
    "lng": 114.131029
  },
  {
    "title": "整租·融湖中心城二期 4室2厅 西南",
    "community": "融湖中心城二期",
    "area": "89.00",
    "rooms": "4室2厅",
    "direction": "西南",
    "floor": "",
    "price": "5200",
    "tags": "",
    "source": "",
    "url": "https://sz.lianjia.com/zufang/SZ2148703053757284352.html",
    "rent_type": "整租",
    "location": "龙岗区-平湖-融湖中心城二期",
    "scraped_at": "2026-05-03 07:35:12",
    "region": "pinghu",
    "unit_price": 58.4,
    "lat": 22.690654,
    "lng": 114.122964
  },
  {
    "title": "整租·融湖中心城一期 2室2厅 南",
    "community": "融湖中心城一期",
    "area": "62.00",
    "rooms": "2室2厅",
    "direction": "南",
    "floor": "",
    "price": "4000",
    "tags": "",
    "source": "",
    "url": "https://sz.lianjia.com/zufang/SZ2149415814271336448.html",
    "rent_type": "整租",
    "location": "龙岗区-平湖-融湖中心城一期",
    "scraped_at": "2026-05-03 07:35:12",
    "region": "pinghu",
    "unit_price": 64.5,
    "lat": 22.69386,
    "lng": 114.119731
  },
  {
    "title": "整租·佳兆业金御雅园 2室2厅 东南",
    "community": "佳兆业金御雅园",
    "area": "68.00",
    "rooms": "2室2厅",
    "direction": "东南",
    "floor": "",
    "price": "4000",
    "tags": "",
    "source": "",
    "url": "https://sz.lianjia.com/zufang/SZ2150077973988900864.html",
    "rent_type": "整租",
    "location": "龙岗区-平湖-佳兆业金御雅园",
    "scraped_at": "2026-05-03 07:36:17",
    "region": "pinghu",
    "unit_price": 58.8,
    "lat": 22.69141,
    "lng": 114.129029
  },
  {
    "title": "整租·融湖中心城一期 1室1厅 南",
    "community": "融湖中心城一期",
    "area": "35.00",
    "rooms": "1室1厅",
    "direction": "南",
    "floor": "",
    "price": "2800",
    "tags": "",
    "source": "",
    "url": "https://sz.lianjia.com/zufang/SZ2150468989342449664.html",
    "rent_type": "整租",
    "location": "龙岗区-平湖-融湖中心城一期",
    "scraped_at": "2026-05-03 07:36:12",
    "region": "pinghu",
    "unit_price": 80.0,
    "lat": 22.69386,
    "lng": 114.119731
  },
  {
    "title": "整租·金光华凤凰九里 3室2厅 南/北",
    "community": "金光华凤凰九里",
    "area": "85.55",
    "rooms": "3室2厅",
    "direction": "南/北",
    "floor": "",
    "price": "4500",
    "tags": "",
    "source": "",
    "url": "https://sz.lianjia.com/zufang/SZ2150464066529787904.html",
    "rent_type": "整租",
    "location": "龙岗区-平湖-金光华凤凰九里",
    "scraped_at": "2026-05-03 07:36:12",
    "region": "pinghu",
    "unit_price": 52.6,
    "lat": 22.67114,
    "lng": 114.12274
  },
  {
    "title": "整租·岗宏翰林汇 4室2厅 东南",
    "community": "岗宏翰林汇",
    "area": "131.00",
    "rooms": "4室2厅",
    "direction": "东南",
    "floor": "",
    "price": "6200",
    "tags": "",
    "source": "",
    "url": "https://sz.lianjia.com/zufang/SZ2142935171068854272.html",
    "rent_type": "整租",
    "location": "龙岗区-平湖-岗宏翰林汇",
    "scraped_at": "2026-05-03 07:36:03",
    "region": "pinghu",
    "unit_price": 47.3,
    "lat": 22.67765,
    "lng": 114.152277
  },
  {
    "title": "整租·佳兆业茗萃园三期 5室4厅 东南",
    "community": "佳兆业茗萃园三期",
    "area": "86.00",
    "rooms": "5室4厅",
    "direction": "东南",
    "floor": "",
    "price": "5200",
    "tags": "",
    "source": "",
    "url": "https://sz.lianjia.com/zufang/SZ2144034883008200704.html",
    "rent_type": "整租",
    "location": "龙岗区-平湖-佳兆业茗萃园三期",
    "scraped_at": "2026-05-03 07:36:08",
    "region": "pinghu",
    "unit_price": 60.5,
    "lat": 22.666256,
    "lng": 114.144365
  },
  {
    "title": "整租·特发天鹅湖畔 3室2厅 东南",
    "community": "特发天鹅湖畔",
    "area": "89.00",
    "rooms": "3室2厅",
    "direction": "东南",
    "floor": "",
    "price": "5200",
    "tags": "",
    "source": "",
    "url": "https://sz.lianjia.com/zufang/SZ2143946776464326656.html",
    "rent_type": "整租",
    "location": "龙岗区-平湖-特发天鹅湖畔",
    "scraped_at": "2026-05-03 07:35:17",
    "region": "pinghu",
    "unit_price": 58.4,
    "lat": 22.671619,
    "lng": 114.160977
  },
  {
    "title": "整租·御峰园 3室2厅 东南",
    "community": "御峰园",
    "area": "107.00",
    "rooms": "3室2厅",
    "direction": "东南",
    "floor": "",
    "price": "4300",
    "tags": "",
    "source": "",
    "url": "https://sz.lianjia.com/zufang/SZ2116848693008138240.html",
    "rent_type": "整租",
    "location": "龙岗区-平湖-御峰园",
    "scraped_at": "2026-05-03 07:35:08",
    "region": "pinghu",
    "unit_price": 40.2,
    "lat": 22.694415,
    "lng": 114.147655
  },
  {
    "title": "整租·九号院馆 4室2厅 东南",
    "community": "九号院馆",
    "area": "144.50",
    "rooms": "4室2厅",
    "direction": "东南",
    "floor": "",
    "price": "7000",
    "tags": "",
    "source": "",
    "url": "https://sz.lianjia.com/zufang/SZ2122690179108962304.html",
    "rent_type": "整租",
    "location": "龙岗区-平湖-九号院馆",
    "scraped_at": "2026-05-03 07:35:05",
    "region": "pinghu",
    "unit_price": 48.4,
    "lat": 22.70114,
    "lng": 114.13436
  },
  {
    "title": "整租·特发天鹅湖畔 3室2厅 南",
    "community": "特发天鹅湖畔",
    "area": "105.00",
    "rooms": "3室2厅",
    "direction": "南",
    "floor": "",
    "price": "5300",
    "tags": "",
    "source": "",
    "url": "https://sz.lianjia.com/zufang/SZ2088547578231652352.html",
    "rent_type": "整租",
    "location": "龙岗区-平湖-特发天鹅湖畔",
    "scraped_at": "2026-05-03 07:35:59",
    "region": "pinghu",
    "unit_price": 50.5,
    "lat": 22.671619,
    "lng": 114.160977
  },
  {
    "title": "整租·佳兆业金御佳园 3室2厅 东",
    "community": "佳兆业金御佳园",
    "area": "87.00",
    "rooms": "3室2厅",
    "direction": "东",
    "floor": "",
    "price": "5500",
    "tags": "",
    "source": "",
    "url": "https://sz.lianjia.com/zufang/SZ2160299429574213632.html",
    "rent_type": "整租",
    "location": "龙岗区-平湖-佳兆业金御佳园",
    "scraped_at": "2026-05-03 07:35:05",
    "region": "pinghu",
    "unit_price": 63.2,
    "lat": 22.690472,
    "lng": 114.127817
  },
  {
    "title": "整租·佳兆业金御佳园 3室2厅 南",
    "community": "佳兆业金御佳园",
    "area": "89.00",
    "rooms": "3室2厅",
    "direction": "南",
    "floor": "",
    "price": "5200",
    "tags": "",
    "source": "",
    "url": "https://sz.lianjia.com/zufang/SZ2160962817283325952.html",
    "rent_type": "整租",
    "location": "龙岗区-平湖-佳兆业金御佳园",
    "scraped_at": "2026-05-03 07:35:05",
    "region": "pinghu",
    "unit_price": 58.4,
    "lat": 22.690472,
    "lng": 114.127817
  },
  {
    "title": "整租·佳兆业金御佳园 3室2厅 西南",
    "community": "佳兆业金御佳园",
    "area": "96.00",
    "rooms": "3室2厅",
    "direction": "西南",
    "floor": "",
    "price": "5300",
    "tags": "",
    "source": "",
    "url": "https://sz.lianjia.com/zufang/SZ2160697414955040768.html",
    "rent_type": "整租",
    "location": "龙岗区-平湖-佳兆业金御佳园",
    "scraped_at": "2026-05-03 07:35:05",
    "region": "pinghu",
    "unit_price": 55.2,
    "lat": 22.690472,
    "lng": 114.127817
  },
  {
    "title": "整租·佳兆业君汇公馆 1室1厅 南",
    "community": "佳兆业君汇公馆",
    "area": "39.00",
    "rooms": "1室1厅",
    "direction": "南",
    "floor": "",
    "price": "2800",
    "tags": "",
    "source": "",
    "url": "https://sz.lianjia.com/zufang/SZ2160744228466982912.html",
    "rent_type": "整租",
    "location": "龙岗区-平湖-佳兆业君汇公馆",
    "scraped_at": "2026-05-03 07:35:05",
    "region": "pinghu",
    "unit_price": 71.8,
    "lat": 22.692326,
    "lng": 114.131029
  },
  {
    "title": "整租·平吉上苑 3室2厅 南",
    "community": "平吉上苑",
    "area": "84.00",
    "rooms": "3室2厅",
    "direction": "南",
    "floor": "",
    "price": "5300",
    "tags": "",
    "source": "",
    "url": "https://sz.lianjia.com/zufang/SZ2160371013513117696.html",
    "rent_type": "整租",
    "location": "龙岗区-平湖-平吉上苑",
    "scraped_at": "2026-05-03 07:35:05",
    "region": "pinghu",
    "unit_price": 63.1,
    "lat": 22.673735,
    "lng": 114.136121
  },
  {
    "title": "整租·佳兆业金御佳园 2室2厅 东南",
    "community": "佳兆业金御佳园",
    "area": "60.00",
    "rooms": "2室2厅",
    "direction": "东南",
    "floor": "",
    "price": "3700",
    "tags": "",
    "source": "",
    "url": "https://sz.lianjia.com/zufang/SZ2160759901641506816.html",
    "rent_type": "整租",
    "location": "龙岗区-平湖-佳兆业金御佳园",
    "scraped_at": "2026-05-03 07:35:05",
    "region": "pinghu",
    "unit_price": 61.7,
    "lat": 22.690472,
    "lng": 114.127817
  },
  {
    "title": "整租·佳兆业茗萃园三期 3室2厅 东南",
    "community": "佳兆业茗萃园三期",
    "area": "87.00",
    "rooms": "3室2厅",
    "direction": "东南",
    "floor": "",
    "price": "4000",
    "tags": "",
    "source": "",
    "url": "https://sz.lianjia.com/zufang/SZ2160947424242171904.html",
    "rent_type": "整租",
    "location": "龙岗区-平湖-佳兆业茗萃园三期",
    "scraped_at": "2026-05-03 07:35:05",
    "region": "pinghu",
    "unit_price": 46.0,
    "lat": 22.666256,
    "lng": 114.144365
  },
  {
    "title": "整租·御峰园 4室2厅 东南",
    "community": "御峰园",
    "area": "107.00",
    "rooms": "4室2厅",
    "direction": "东南",
    "floor": "",
    "price": "6300",
    "tags": "",
    "source": "",
    "url": "https://sz.lianjia.com/zufang/SZ2160933600520830976.html",
    "rent_type": "整租",
    "location": "龙岗区-平湖-御峰园",
    "scraped_at": "2026-05-03 07:35:05",
    "region": "pinghu",
    "unit_price": 58.9,
    "lat": 22.694415,
    "lng": 114.147655
  },
  {
    "title": "整租·佳兆业金御佳园 3室2厅 东南",
    "community": "佳兆业金御佳园",
    "area": "89.00",
    "rooms": "3室2厅",
    "direction": "东南",
    "floor": "",
    "price": "5200",
    "tags": "",
    "source": "",
    "url": "https://sz.lianjia.com/zufang/SZ2161366391880417280.html",
    "rent_type": "整租",
    "location": "龙岗区-平湖-佳兆业金御佳园",
    "scraped_at": "2026-05-03 07:35:05",
    "region": "pinghu",
    "unit_price": 58.4,
    "lat": 22.690472,
    "lng": 114.127817
  },
  {
    "title": "整租·佳兆业茗萃园二期 1室1厅 东南",
    "community": "佳兆业茗萃园二期",
    "area": "51.00",
    "rooms": "1室1厅",
    "direction": "东南",
    "floor": "",
    "price": "2800",
    "tags": "",
    "source": "",
    "url": "https://sz.lianjia.com/zufang/SZ2161355910092423168.html",
    "rent_type": "整租",
    "location": "龙岗区-平湖-佳兆业茗萃园二期",
    "scraped_at": "2026-05-03 07:35:05",
    "region": "pinghu",
    "unit_price": 54.9,
    "lat": 22.669713,
    "lng": 114.142994
  },
  {
    "title": "整租·融湖中心城二期 3室2厅 东南",
    "community": "融湖中心城二期",
    "area": "89.00",
    "rooms": "3室2厅",
    "direction": "东南",
    "floor": "",
    "price": "5000",
    "tags": "",
    "source": "",
    "url": "https://sz.lianjia.com/zufang/SZ2146441832790228992.html",
    "rent_type": "整租",
    "location": "龙岗区-平湖-融湖中心城二期",
    "scraped_at": "2026-05-03 07:36:08",
    "region": "pinghu",
    "unit_price": 56.2,
    "lat": 22.690654,
    "lng": 114.122964
  },
  {
    "title": "整租·康利城 2室2厅 北",
    "community": "康利城",
    "area": "63.00",
    "rooms": "2室2厅",
    "direction": "北",
    "floor": "",
    "price": "3200",
    "tags": "",
    "source": "",
    "url": "https://sz.lianjia.com/zufang/SZ2149500718531215360.html",
    "rent_type": "整租",
    "location": "龙岗区-平湖-康利城",
    "scraped_at": "2026-05-03 07:35:12",
    "region": "pinghu",
    "unit_price": 50.8,
    "lat": 22.691445,
    "lng": 114.135877
  },
  {
    "title": "整租·特发天鹅湖畔 4室2厅 东南",
    "community": "特发天鹅湖畔",
    "area": "124.00",
    "rooms": "4室2厅",
    "direction": "东南",
    "floor": "",
    "price": "6500",
    "tags": "",
    "source": "",
    "url": "https://sz.lianjia.com/zufang/SZ2150113681273257984.html",
    "rent_type": "整租",
    "location": "龙岗区-平湖-特发天鹅湖畔",
    "scraped_at": "2026-05-03 07:36:17",
    "region": "pinghu",
    "unit_price": 52.4,
    "lat": 22.671619,
    "lng": 114.160977
  },
  {
    "title": "整租·御峰园 9室2厅 南/北",
    "community": "御峰园",
    "area": "179.00",
    "rooms": "9室2厅",
    "direction": "南/北",
    "floor": "",
    "price": "22000",
    "tags": "",
    "source": "",
    "url": "https://sz.lianjia.com/zufang/SZ2075437989902680064.html",
    "rent_type": "整租",
    "location": "龙岗区-平湖-御峰园",
    "scraped_at": "2026-05-03 07:35:08",
    "region": "pinghu",
    "unit_price": 122.9,
    "lat": 22.694415,
    "lng": 114.147655
  },
  {
    "title": "整租·华侨城四海锦园 3室2厅 南/北",
    "community": "华侨城四海锦园",
    "area": "88.00",
    "rooms": "3室2厅",
    "direction": "南/北",
    "floor": "",
    "price": "4700",
    "tags": "",
    "source": "",
    "url": "https://sz.lianjia.com/zufang/SZ2074741161817276416.html",
    "rent_type": "整租",
    "location": "龙岗区-平湖-华侨城四海锦园",
    "scraped_at": "2026-05-03 07:35:08",
    "region": "pinghu",
    "unit_price": 53.4,
    "lat": 22.681673,
    "lng": 114.118498
  },
  {
    "title": "整租·特发天鹅湖畔 4室2厅 东南",
    "community": "特发天鹅湖畔",
    "area": "140.00",
    "rooms": "4室2厅",
    "direction": "东南",
    "floor": "",
    "price": "6100",
    "tags": "",
    "source": "",
    "url": "https://sz.lianjia.com/zufang/SZ2082705194566549504.html",
    "rent_type": "整租",
    "location": "龙岗区-平湖-特发天鹅湖畔",
    "scraped_at": "2026-05-03 07:35:59",
    "region": "pinghu",
    "unit_price": 43.6,
    "lat": 22.671619,
    "lng": 114.160977
  },
  {
    "title": "整租·佳兆业茗萃园三期 5室2厅 东南",
    "community": "佳兆业茗萃园三期",
    "area": "115.00",
    "rooms": "5室2厅",
    "direction": "东南",
    "floor": "",
    "price": "5200",
    "tags": "",
    "source": "",
    "url": "https://sz.lianjia.com/zufang/SZ2090795677113122816.html",
    "rent_type": "整租",
    "location": "龙岗区-平湖-佳兆业茗萃园三期",
    "scraped_at": "2026-05-03 07:35:59",
    "region": "pinghu",
    "unit_price": 45.2,
    "lat": 22.666256,
    "lng": 114.144365
  },
  {
    "title": "整租·威凤山庄 8室2厅 东南",
    "community": "威凤山庄",
    "area": "217.75",
    "rooms": "8室2厅",
    "direction": "东南",
    "floor": "",
    "price": "11000",
    "tags": "",
    "source": "",
    "url": "https://sz.lianjia.com/zufang/SZ2085571997726670848.html",
    "rent_type": "整租",
    "location": "龙岗区-平湖-威凤山庄",
    "scraped_at": "2026-05-03 07:35:59",
    "region": "pinghu",
    "unit_price": 50.5,
    "lat": 22.698693,
    "lng": 114.139413
  },
  {
    "title": "整租·翠峰丽景 2室2厅 东南",
    "community": "翠峰丽景",
    "area": "86.00",
    "rooms": "2室2厅",
    "direction": "东南",
    "floor": "",
    "price": "3400",
    "tags": "",
    "source": "",
    "url": "https://sz.lianjia.com/zufang/SZ2089563538233229312.html",
    "rent_type": "整租",
    "location": "龙岗区-平湖-翠峰丽景",
    "scraped_at": "2026-05-03 07:35:59",
    "region": "pinghu",
    "unit_price": 39.5,
    "lat": 22.69509,
    "lng": 114.141716
  },
  {
    "title": "整租·凤冠华庭 3室2厅 东",
    "community": "凤冠华庭",
    "area": "89.00",
    "rooms": "3室2厅",
    "direction": "东",
    "floor": "",
    "price": "4500",
    "tags": "",
    "source": "",
    "url": "https://sz.lianjia.com/zufang/SZ2084933065183854592.html",
    "rent_type": "整租",
    "location": "龙岗区-平湖-凤冠华庭",
    "scraped_at": "2026-05-03 07:35:59",
    "region": "pinghu",
    "unit_price": 50.6,
    "lat": 22.684759,
    "lng": 114.155298
  },
  {
    "title": "整租·金光华凤凰九里 3室2厅 东南",
    "community": "金光华凤凰九里",
    "area": "85.00",
    "rooms": "3室2厅",
    "direction": "东南",
    "floor": "",
    "price": "4800",
    "tags": "",
    "source": "",
    "url": "https://sz.lianjia.com/zufang/SZ2111701342119526400.html",
    "rent_type": "整租",
    "location": "龙岗区-平湖-金光华凤凰九里",
    "scraped_at": "2026-05-03 07:35:08",
    "region": "pinghu",
    "unit_price": 56.5,
    "lat": 22.67114,
    "lng": 114.12274
  },
  {
    "title": "整租·金光华凤凰九里 3室2厅 东南",
    "community": "金光华凤凰九里",
    "area": "85.00",
    "rooms": "3室2厅",
    "direction": "东南",
    "floor": "",
    "price": "4800",
    "tags": "",
    "source": "",
    "url": "https://sz.lianjia.com/zufang/SZ2111705528353685504.html",
    "rent_type": "整租",
    "location": "龙岗区-平湖-金光华凤凰九里",
    "scraped_at": "2026-05-03 07:35:08",
    "region": "pinghu",
    "unit_price": 56.5,
    "lat": 22.67114,
    "lng": 114.12274
  },
  {
    "title": "整租·金光华凤凰九里 3室2厅 北",
    "community": "金光华凤凰九里",
    "area": "73.00",
    "rooms": "3室2厅",
    "direction": "北",
    "floor": "",
    "price": "4000",
    "tags": "",
    "source": "",
    "url": "https://sz.lianjia.com/zufang/SZ2112519845093310464.html",
    "rent_type": "整租",
    "location": "龙岗区-平湖-金光华凤凰九里",
    "scraped_at": "2026-05-03 07:35:59",
    "region": "pinghu",
    "unit_price": 54.8,
    "lat": 22.67114,
    "lng": 114.12274
  },
  {
    "title": "整租·金光华凤凰九里 3室2厅 东南",
    "community": "金光华凤凰九里",
    "area": "73.00",
    "rooms": "3室2厅",
    "direction": "东南",
    "floor": "",
    "price": "4200",
    "tags": "",
    "source": "",
    "url": "https://sz.lianjia.com/zufang/SZ2111760521777643520.html",
    "rent_type": "整租",
    "location": "龙岗区-平湖-金光华凤凰九里",
    "scraped_at": "2026-05-03 07:35:08",
    "region": "pinghu",
    "unit_price": 57.5,
    "lat": 22.67114,
    "lng": 114.12274
  },
  {
    "title": "整租·御峰园 5室2厅 南",
    "community": "御峰园",
    "area": "150.00",
    "rooms": "5室2厅",
    "direction": "南",
    "floor": "",
    "price": "5800",
    "tags": "",
    "source": "",
    "url": "https://sz.lianjia.com/zufang/SZ2115267766347890688.html",
    "rent_type": "整租",
    "location": "龙岗区-平湖-御峰园",
    "scraped_at": "2026-05-03 07:35:08",
    "region": "pinghu",
    "unit_price": 38.7,
    "lat": 22.694415,
    "lng": 114.147655
  },
  {
    "title": "整租·金光华凤凰九里 3室2厅 东南",
    "community": "金光华凤凰九里",
    "area": "86.00",
    "rooms": "3室2厅",
    "direction": "东南",
    "floor": "",
    "price": "5000",
    "tags": "",
    "source": "",
    "url": "https://sz.lianjia.com/zufang/SZ2115788444054585344.html",
    "rent_type": "整租",
    "location": "龙岗区-平湖-金光华凤凰九里",
    "scraped_at": "2026-05-03 07:35:08",
    "region": "pinghu",
    "unit_price": 58.1,
    "lat": 22.67114,
    "lng": 114.12274
  },
  {
    "title": "整租·金光华凤凰九里 3室2厅 东南",
    "community": "金光华凤凰九里",
    "area": "73.00",
    "rooms": "3室2厅",
    "direction": "东南",
    "floor": "",
    "price": "4500",
    "tags": "",
    "source": "",
    "url": "https://sz.lianjia.com/zufang/SZ2115729105956634624.html",
    "rent_type": "整租",
    "location": "龙岗区-平湖-金光华凤凰九里",
    "scraped_at": "2026-05-03 07:35:08",
    "region": "pinghu",
    "unit_price": 61.6,
    "lat": 22.67114,
    "lng": 114.12274
  },
  {
    "title": "整租·金光华凤凰九里 3室2厅 东南",
    "community": "金光华凤凰九里",
    "area": "85.00",
    "rooms": "3室2厅",
    "direction": "东南",
    "floor": "",
    "price": "5000",
    "tags": "",
    "source": "",
    "url": "https://sz.lianjia.com/zufang/SZ2116535551669567488.html",
    "rent_type": "整租",
    "location": "龙岗区-平湖-金光华凤凰九里",
    "scraped_at": "2026-05-03 07:35:08",
    "region": "pinghu",
    "unit_price": 58.8,
    "lat": 22.67114,
    "lng": 114.12274
  },
  {
    "title": "整租·九号院馆 3室2厅 东北",
    "community": "九号院馆",
    "area": "115.00",
    "rooms": "3室2厅",
    "direction": "东北",
    "floor": "",
    "price": "4800",
    "tags": "",
    "source": "",
    "url": "https://sz.lianjia.com/zufang/SZ2119019779871211520.html",
    "rent_type": "整租",
    "location": "龙岗区-平湖-九号院馆",
    "scraped_at": "2026-05-03 07:35:08",
    "region": "pinghu",
    "unit_price": 41.7,
    "lat": 22.70114,
    "lng": 114.13436
  },
  {
    "title": "整租·威凤山庄 4室2厅 东南",
    "community": "威凤山庄",
    "area": "125.00",
    "rooms": "4室2厅",
    "direction": "东南",
    "floor": "",
    "price": "5000",
    "tags": "",
    "source": "",
    "url": "https://sz.lianjia.com/zufang/SZ2116441306115866624.html",
    "rent_type": "整租",
    "location": "龙岗区-平湖-威凤山庄",
    "scraped_at": "2026-05-03 07:35:08",
    "region": "pinghu",
    "unit_price": 40.0,
    "lat": 22.698693,
    "lng": 114.139413
  },
  {
    "title": "整租·平吉上苑 3室2厅 东南",
    "community": "平吉上苑",
    "area": "82.88",
    "rooms": "3室2厅",
    "direction": "东南",
    "floor": "",
    "price": "6000",
    "tags": "",
    "source": "",
    "url": "https://sz.lianjia.com/zufang/SZ2159586322614845440.html",
    "rent_type": "整租",
    "location": "龙岗区-平湖-平吉上苑",
    "scraped_at": "2026-05-03 07:35:08",
    "region": "pinghu",
    "unit_price": 72.4,
    "lat": 22.673735,
    "lng": 114.136121
  },
  {
    "title": "整租·佳兆业金御佳园 3室2厅 东南",
    "community": "佳兆业金御佳园",
    "area": "109.00",
    "rooms": "3室2厅",
    "direction": "东南",
    "floor": "",
    "price": "5400",
    "tags": "",
    "source": "",
    "url": "https://sz.lianjia.com/zufang/SZ2159228016599760896.html",
    "rent_type": "整租",
    "location": "龙岗区-平湖-佳兆业金御佳园",
    "scraped_at": "2026-05-03 07:35:08",
    "region": "pinghu",
    "unit_price": 49.5,
    "lat": 22.690472,
    "lng": 114.127817
  },
  {
    "title": "整租·特发天鹅湖畔 4室3厅 东南",
    "community": "特发天鹅湖畔",
    "area": "113.37",
    "rooms": "4室3厅",
    "direction": "东南",
    "floor": "",
    "price": "5500",
    "tags": "",
    "source": "",
    "url": "https://sz.lianjia.com/zufang/SZ2160013538070888448.html",
    "rent_type": "整租",
    "location": "龙岗区-平湖-特发天鹅湖畔",
    "scraped_at": "2026-05-03 07:35:08",
    "region": "pinghu",
    "unit_price": 48.5,
    "lat": 22.671619,
    "lng": 114.160977
  },
  {
    "title": "整租·华侨城四海锦园 3室2厅 南/北",
    "community": "华侨城四海锦园",
    "area": "87.63",
    "rooms": "3室2厅",
    "direction": "南/北",
    "floor": "",
    "price": "5300",
    "tags": "",
    "source": "",
    "url": "https://sz.lianjia.com/zufang/SZ2160004557889863680.html",
    "rent_type": "整租",
    "location": "龙岗区-平湖-华侨城四海锦园",
    "scraped_at": "2026-05-03 07:35:08",
    "region": "pinghu",
    "unit_price": 60.5,
    "lat": 22.681673,
    "lng": 114.118498
  },
  {
    "title": "整租·特发天鹅湖畔 4室2厅 东南",
    "community": "特发天鹅湖畔",
    "area": "141.00",
    "rooms": "4室2厅",
    "direction": "东南",
    "floor": "",
    "price": "5500",
    "tags": "",
    "source": "",
    "url": "https://sz.lianjia.com/zufang/SZ2158475174813368320.html",
    "rent_type": "整租",
    "location": "龙岗区-平湖-特发天鹅湖畔",
    "scraped_at": "2026-05-03 07:35:08",
    "region": "pinghu",
    "unit_price": 39.0,
    "lat": 22.671619,
    "lng": 114.160977
  },
  {
    "title": "整租·金光华凤凰九里 3室2厅 西南",
    "community": "金光华凤凰九里",
    "area": "75.86",
    "rooms": "3室2厅",
    "direction": "西南",
    "floor": "",
    "price": "4000",
    "tags": "",
    "source": "",
    "url": "https://sz.lianjia.com/zufang/SZ2158612522012246016.html",
    "rent_type": "整租",
    "location": "龙岗区-平湖-金光华凤凰九里",
    "scraped_at": "2026-05-03 07:35:08",
    "region": "pinghu",
    "unit_price": 52.7,
    "lat": 22.67114,
    "lng": 114.12274
  },
  {
    "title": "整租·金光华凤凰九里 3室3厅 东南",
    "community": "金光华凤凰九里",
    "area": "84.00",
    "rooms": "3室3厅",
    "direction": "东南",
    "floor": "",
    "price": "4500",
    "tags": "",
    "source": "",
    "url": "https://sz.lianjia.com/zufang/SZ2158837115570356224.html",
    "rent_type": "整租",
    "location": "龙岗区-平湖-金光华凤凰九里",
    "scraped_at": "2026-05-03 07:35:08",
    "region": "pinghu",
    "unit_price": 53.6,
    "lat": 22.67114,
    "lng": 114.12274
  },
  {
    "title": "整租·佳兆业茗萃园一期 3室2厅 复式 北",
    "community": "佳兆业茗萃园一期",
    "area": "90.00",
    "rooms": "3室2厅",
    "direction": "",
    "floor": "",
    "price": "3500",
    "tags": "",
    "source": "",
    "url": "https://sz.lianjia.com/zufang/SZ2142245935109898240.html",
    "rent_type": "整租",
    "location": "龙岗区-平湖-佳兆业茗萃园一期",
    "scraped_at": "2026-05-03 07:35:17",
    "region": "pinghu",
    "unit_price": 38.9,
    "lat": 22.667965,
    "lng": 114.142846
  },
  {
    "title": "整租·佳兆业金御佳园 3室2厅 东南",
    "community": "佳兆业金御佳园",
    "area": "89.00",
    "rooms": "3室2厅",
    "direction": "东南",
    "floor": "",
    "price": "5500",
    "tags": "",
    "source": "",
    "url": "https://sz.lianjia.com/zufang/SZ2146883745527889920.html",
    "rent_type": "整租",
    "location": "龙岗区-平湖-佳兆业金御佳园",
    "scraped_at": "2026-05-03 07:36:08",
    "region": "pinghu",
    "unit_price": 61.8,
    "lat": 22.690472,
    "lng": 114.127817
  },
  {
    "title": "整租·卓越星源 2室2厅 南/西南",
    "community": "卓越星源",
    "area": "62.00",
    "rooms": "2室2厅",
    "direction": "南/西南",
    "floor": "",
    "price": "3600",
    "tags": "",
    "source": "",
    "url": "https://sz.lianjia.com/zufang/SZ2144718108965732352.html",
    "rent_type": "整租",
    "location": "龙岗区-平湖-卓越星源",
    "scraped_at": "2026-05-03 07:36:08",
    "region": "pinghu",
    "unit_price": 58.1,
    "lat": 22.687259,
    "lng": 114.11433
  },
  {
    "title": "整租·佳兆业金御佳园 4室2厅 南",
    "community": "佳兆业金御佳园",
    "area": "133.00",
    "rooms": "4室2厅",
    "direction": "南",
    "floor": "",
    "price": "6000",
    "tags": "",
    "source": "",
    "url": "https://sz.lianjia.com/zufang/SZ2148342266144489472.html",
    "rent_type": "整租",
    "location": "龙岗区-平湖-佳兆业金御佳园",
    "scraped_at": "2026-05-03 07:35:12",
    "region": "pinghu",
    "unit_price": 45.1,
    "lat": 22.690472,
    "lng": 114.127817
  },
  {
    "title": "整租·威凤山庄 3室1厅 东",
    "community": "威凤山庄",
    "area": "60.00",
    "rooms": "3室1厅",
    "direction": "东",
    "floor": "",
    "price": "3000",
    "tags": "",
    "source": "",
    "url": "https://sz.lianjia.com/zufang/SZ2148406890323771392.html",
    "rent_type": "整租",
    "location": "龙岗区-平湖-威凤山庄",
    "scraped_at": "2026-05-03 07:35:12",
    "region": "pinghu",
    "unit_price": 50.0,
    "lat": 22.698693,
    "lng": 114.139413
  },
  {
    "title": "整租·华侨城四海锦园 3室1厅 东南",
    "community": "华侨城四海锦园",
    "area": "96.00",
    "rooms": "3室1厅",
    "direction": "东南",
    "floor": "",
    "price": "3800",
    "tags": "",
    "source": "",
    "url": "https://sz.lianjia.com/zufang/SZ2150095042834857984.html",
    "rent_type": "整租",
    "location": "龙岗区-平湖-华侨城四海锦园",
    "scraped_at": "2026-05-03 07:36:17",
    "region": "pinghu",
    "unit_price": 39.6,
    "lat": 22.681673,
    "lng": 114.118498
  },
  {
    "title": "整租·熙璟城 3室2厅 南",
    "community": "熙璟城",
    "area": "88.00",
    "rooms": "3室2厅",
    "direction": "南",
    "floor": "",
    "price": "5000",
    "tags": "",
    "source": "",
    "url": "https://sz.lianjia.com/zufang/SZ2148391045958729728.html",
    "rent_type": "整租",
    "location": "龙岗区-平湖-熙璟城",
    "scraped_at": "2026-05-03 07:35:12",
    "region": "pinghu",
    "unit_price": 56.8,
    "lat": 22.68451,
    "lng": 114.13006
  },
  {
    "title": "整租·佳兆业金御佳园 3室2厅 东南",
    "community": "佳兆业金御佳园",
    "area": "89.85",
    "rooms": "3室2厅",
    "direction": "东南",
    "floor": "",
    "price": "5500",
    "tags": "",
    "source": "",
    "url": "https://sz.lianjia.com/zufang/SZ2150564028030648320.html",
    "rent_type": "整租",
    "location": "龙岗区-平湖-佳兆业金御佳园",
    "scraped_at": "2026-05-03 07:36:12",
    "region": "pinghu",
    "unit_price": 61.2,
    "lat": 22.690472,
    "lng": 114.127817
  },
  {
    "title": "整租·平吉上苑 5室2厅 南/北",
    "community": "平吉上苑",
    "area": "123.39",
    "rooms": "5室2厅",
    "direction": "南/北",
    "floor": "",
    "price": "7500",
    "tags": "",
    "source": "",
    "url": "https://sz.lianjia.com/zufang/SZ2142557813958770688.html",
    "rent_type": "整租",
    "location": "龙岗区-平湖-平吉上苑",
    "scraped_at": "2026-05-03 07:35:17",
    "region": "pinghu",
    "unit_price": 60.8,
    "lat": 22.673735,
    "lng": 114.136121
  },
  {
    "title": "整租·华侨城四海锦园 3室2厅 南",
    "community": "华侨城四海锦园",
    "area": "56.00",
    "rooms": "3室2厅",
    "direction": "南",
    "floor": "",
    "price": "3200",
    "tags": "",
    "source": "",
    "url": "https://sz.lianjia.com/zufang/SZ2145091223080140800.html",
    "rent_type": "整租",
    "location": "龙岗区-平湖-华侨城四海锦园",
    "scraped_at": "2026-05-03 07:36:08",
    "region": "pinghu",
    "unit_price": 57.1,
    "lat": 22.681673,
    "lng": 114.118498
  },
  {
    "title": "整租·特发天鹅湖畔 4室2厅 南",
    "community": "特发天鹅湖畔",
    "area": "124.00",
    "rooms": "4室2厅",
    "direction": "南",
    "floor": "",
    "price": "5500",
    "tags": "",
    "source": "",
    "url": "https://sz.lianjia.com/zufang/SZ2145720649392324608.html",
    "rent_type": "整租",
    "location": "龙岗区-平湖-特发天鹅湖畔",
    "scraped_at": "2026-05-03 07:36:08",
    "region": "pinghu",
    "unit_price": 44.4,
    "lat": 22.671619,
    "lng": 114.160977
  },
  {
    "title": "整租·岗宏翰林汇 3室1厅 东南",
    "community": "岗宏翰林汇",
    "area": "93.00",
    "rooms": "3室1厅",
    "direction": "东南",
    "floor": "",
    "price": "4500",
    "tags": "",
    "source": "",
    "url": "https://sz.lianjia.com/zufang/SZ2143002182931185664.html",
    "rent_type": "整租",
    "location": "龙岗区-平湖-岗宏翰林汇",
    "scraped_at": "2026-05-03 07:36:03",
    "region": "pinghu",
    "unit_price": 48.4,
    "lat": 22.67765,
    "lng": 114.152277
  },
  {
    "title": "整租·岗宏翰林汇 3室2厅 东南",
    "community": "岗宏翰林汇",
    "area": "96.00",
    "rooms": "3室2厅",
    "direction": "东南",
    "floor": "",
    "price": "5500",
    "tags": "",
    "source": "",
    "url": "https://sz.lianjia.com/zufang/SZ2142652832124239872.html",
    "rent_type": "整租",
    "location": "龙岗区-平湖-岗宏翰林汇",
    "scraped_at": "2026-05-03 07:35:17",
    "region": "pinghu",
    "unit_price": 57.3,
    "lat": 22.67765,
    "lng": 114.152277
  },
  {
    "title": "整租·岗宏翰林汇 3室2厅 东南",
    "community": "岗宏翰林汇",
    "area": "90.00",
    "rooms": "3室2厅",
    "direction": "东南",
    "floor": "",
    "price": "5500",
    "tags": "",
    "source": "",
    "url": "https://sz.lianjia.com/zufang/SZ2142939998675009536.html",
    "rent_type": "整租",
    "location": "龙岗区-平湖-岗宏翰林汇",
    "scraped_at": "2026-05-03 07:36:03",
    "region": "pinghu",
    "unit_price": 61.1,
    "lat": 22.67765,
    "lng": 114.152277
  },
  {
    "title": "整租·岗宏翰林汇 4室2厅 东南",
    "community": "岗宏翰林汇",
    "area": "131.00",
    "rooms": "4室2厅",
    "direction": "东南",
    "floor": "",
    "price": "6200",
    "tags": "",
    "source": "",
    "url": "https://sz.lianjia.com/zufang/SZ2142932480162791424.html",
    "rent_type": "整租",
    "location": "龙岗区-平湖-岗宏翰林汇",
    "scraped_at": "2026-05-03 07:36:03",
    "region": "pinghu",
    "unit_price": 47.3,
    "lat": 22.67765,
    "lng": 114.152277
  },
  {
    "title": "整租·卓越星源 3室2厅 西南",
    "community": "卓越星源",
    "area": "89.00",
    "rooms": "3室2厅",
    "direction": "西南",
    "floor": "",
    "price": "5000",
    "tags": "",
    "source": "",
    "url": "https://sz.lianjia.com/zufang/SZ2142475477581824000.html",
    "rent_type": "整租",
    "location": "龙岗区-平湖-卓越星源",
    "scraped_at": "2026-05-03 07:35:17",
    "region": "pinghu",
    "unit_price": 56.2,
    "lat": 22.687259,
    "lng": 114.11433
  },
  {
    "title": "整租·融湖中心城一期 1室1厅 南",
    "community": "融湖中心城一期",
    "area": "30.00",
    "rooms": "1室1厅",
    "direction": "南",
    "floor": "",
    "price": "2000",
    "tags": "",
    "source": "",
    "url": "https://sz.lianjia.com/zufang/SZ2144752650854334464.html",
    "rent_type": "整租",
    "location": "龙岗区-平湖-融湖中心城一期",
    "scraped_at": "2026-05-03 07:36:08",
    "region": "pinghu",
    "unit_price": 66.7,
    "lat": 22.69386,
    "lng": 114.119731
  },
  {
    "title": "整租·佳兆业君汇公馆 2室2厅 东北",
    "community": "佳兆业君汇公馆",
    "area": "68.00",
    "rooms": "2室2厅",
    "direction": "东北",
    "floor": "",
    "price": "3800",
    "tags": "",
    "source": "",
    "url": "https://sz.lianjia.com/zufang/SZ2148082919338409984.html",
    "rent_type": "整租",
    "location": "龙岗区-平湖-佳兆业君汇公馆",
    "scraped_at": "2026-05-03 07:35:17",
    "region": "pinghu",
    "unit_price": 55.9,
    "lat": 22.692326,
    "lng": 114.131029
  },
  {
    "title": "整租·合正新悦润园 4室2厅 西南",
    "community": "合正新悦润园",
    "area": "118.23",
    "rooms": "4室2厅",
    "direction": "西南",
    "floor": "",
    "price": "6000",
    "tags": "",
    "source": "",
    "url": "https://sz.lianjia.com/zufang/SZ2154814686183292928.html",
    "rent_type": "整租",
    "location": "龙岗区-平湖-合正新悦润园",
    "scraped_at": "2026-05-03 07:36:12",
    "region": "pinghu",
    "unit_price": 50.7,
    "lat": 22.700556,
    "lng": 114.13211
  },
  {
    "title": "整租·佳兆业君汇公馆 3室2厅 南",
    "community": "佳兆业君汇公馆",
    "area": "91.00",
    "rooms": "3室2厅",
    "direction": "南",
    "floor": "",
    "price": "5000",
    "tags": "",
    "source": "",
    "url": "https://sz.lianjia.com/zufang/SZ2154939514156482560.html",
    "rent_type": "整租",
    "location": "龙岗区-平湖-佳兆业君汇公馆",
    "scraped_at": "2026-05-03 07:36:12",
    "region": "pinghu",
    "unit_price": 54.9,
    "lat": 22.692326,
    "lng": 114.131029
  },
  {
    "title": "整租·卓越星源 3室2厅 东南",
    "community": "卓越星源",
    "area": "88.89",
    "rooms": "3室2厅",
    "direction": "东南",
    "floor": "",
    "price": "4800",
    "tags": "",
    "source": "",
    "url": "https://sz.lianjia.com/zufang/SZ2155540293498175488.html",
    "rent_type": "整租",
    "location": "龙岗区-平湖-卓越星源",
    "scraped_at": "2026-05-03 07:35:47",
    "region": "pinghu",
    "unit_price": 54.0,
    "lat": 22.687259,
    "lng": 114.11433
  },
  {
    "title": "整租·御峰园 3室2厅 西北",
    "community": "御峰园",
    "area": "123.00",
    "rooms": "3室2厅",
    "direction": "西北",
    "floor": "",
    "price": "6000",
    "tags": "",
    "source": "",
    "url": "https://sz.lianjia.com/zufang/SZ2155620873992667136.html",
    "rent_type": "整租",
    "location": "龙岗区-平湖-御峰园",
    "scraped_at": "2026-05-03 07:36:23",
    "region": "pinghu",
    "unit_price": 48.8,
    "lat": 22.694415,
    "lng": 114.147655
  },
  {
    "title": "整租·特发天鹅湖畔 3室2厅 东南",
    "community": "特发天鹅湖畔",
    "area": "89.00",
    "rooms": "3室2厅",
    "direction": "东南",
    "floor": "",
    "price": "5000",
    "tags": "",
    "source": "",
    "url": "https://sz.lianjia.com/zufang/SZ2155627038793269248.html",
    "rent_type": "整租",
    "location": "龙岗区-平湖-特发天鹅湖畔",
    "scraped_at": "2026-05-03 07:36:23",
    "region": "pinghu",
    "unit_price": 56.2,
    "lat": 22.671619,
    "lng": 114.160977
  },
  {
    "title": "整租·佳兆业君汇公馆 1室1厅 西南",
    "community": "佳兆业君汇公馆",
    "area": "47.00",
    "rooms": "1室1厅",
    "direction": "西南",
    "floor": "",
    "price": "3300",
    "tags": "",
    "source": "",
    "url": "https://sz.lianjia.com/zufang/SZ2157010219421401088.html",
    "rent_type": "整租",
    "location": "龙岗区-平湖-佳兆业君汇公馆",
    "scraped_at": "2026-05-03 07:35:47",
    "region": "pinghu",
    "unit_price": 70.2,
    "lat": 22.692326,
    "lng": 114.131029
  },
  {
    "title": "整租·岗宏翰林汇 2室2厅 南",
    "community": "岗宏翰林汇",
    "area": "77.00",
    "rooms": "2室2厅",
    "direction": "南",
    "floor": "",
    "price": "4500",
    "tags": "",
    "source": "",
    "url": "https://sz.lianjia.com/zufang/SZ2156747723473158144.html",
    "rent_type": "整租",
    "location": "龙岗区-平湖-岗宏翰林汇",
    "scraped_at": "2026-05-03 07:35:47",
    "region": "pinghu",
    "unit_price": 58.4,
    "lat": 22.67765,
    "lng": 114.152277
  },
  {
    "title": "整租·佳兆业金御雅园 4室2厅 东南",
    "community": "佳兆业金御雅园",
    "area": "116.00",
    "rooms": "4室2厅",
    "direction": "东南",
    "floor": "",
    "price": "6200",
    "tags": "",
    "source": "",
    "url": "https://sz.lianjia.com/zufang/SZ2157079169949761536.html",
    "rent_type": "整租",
    "location": "龙岗区-平湖-佳兆业金御雅园",
    "scraped_at": "2026-05-03 07:35:47",
    "region": "pinghu",
    "unit_price": 53.4,
    "lat": 22.69141,
    "lng": 114.129029
  },
  {
    "title": "整租·南油花园 2室2厅 东南",
    "community": "南油花园",
    "area": "60.00",
    "rooms": "2室2厅",
    "direction": "东南",
    "floor": "",
    "price": "3000",
    "tags": "",
    "source": "",
    "url": "https://sz.lianjia.com/zufang/SZ2157126026734338048.html",
    "rent_type": "整租",
    "location": "龙岗区-平湖-南油花园",
    "scraped_at": "2026-05-03 07:35:47",
    "region": "pinghu",
    "unit_price": 50.0,
    "lat": 22.692869,
    "lng": 114.127537
  },
  {
    "title": "整租·花半里欣悦广场 1室1厅 西",
    "community": "花半里欣悦广场",
    "area": "40.60",
    "rooms": "1室1厅",
    "direction": "西",
    "floor": "",
    "price": "2500",
    "tags": "",
    "source": "",
    "url": "https://sz.lianjia.com/zufang/SZ2157150381707100160.html",
    "rent_type": "整租",
    "location": "龙岗区-平湖-花半里欣悦广场",
    "scraped_at": "2026-05-03 07:35:47",
    "region": "pinghu",
    "unit_price": 61.6,
    "lat": 22.702983,
    "lng": 114.129448
  },
  {
    "title": "整租·同创新作 2室2厅 南",
    "community": "同创新作",
    "area": "39.31",
    "rooms": "2室2厅",
    "direction": "南",
    "floor": "",
    "price": "3100",
    "tags": "",
    "source": "",
    "url": "https://sz.lianjia.com/zufang/SZ2157464318327652352.html",
    "rent_type": "整租",
    "location": "龙岗区-平湖-同创新作",
    "scraped_at": "2026-05-03 07:35:47",
    "region": "pinghu",
    "unit_price": 78.9,
    "lat": 22.692319,
    "lng": 114.123567
  },
  {
    "title": "整租·佳兆业金御佳园 3室2厅 西南",
    "community": "佳兆业金御佳园",
    "area": "96.00",
    "rooms": "3室2厅",
    "direction": "西南",
    "floor": "",
    "price": "5800",
    "tags": "",
    "source": "",
    "url": "https://sz.lianjia.com/zufang/SZ2157402985699737600.html",
    "rent_type": "整租",
    "location": "龙岗区-平湖-佳兆业金御佳园",
    "scraped_at": "2026-05-03 07:35:47",
    "region": "pinghu",
    "unit_price": 60.4,
    "lat": 22.690472,
    "lng": 114.127817
  },
  {
    "title": "整租·佳兆业金御佳园 3室2厅 南",
    "community": "佳兆业金御佳园",
    "area": "96.00",
    "rooms": "3室2厅",
    "direction": "南",
    "floor": "",
    "price": "5800",
    "tags": "",
    "source": "",
    "url": "https://sz.lianjia.com/zufang/SZ2157405263156477952.html",
    "rent_type": "整租",
    "location": "龙岗区-平湖-佳兆业金御佳园",
    "scraped_at": "2026-05-03 07:35:47",
    "region": "pinghu",
    "unit_price": 60.4,
    "lat": 22.690472,
    "lng": 114.127817
  },
  {
    "title": "整租·佳兆业金御佳园 2室2厅 南",
    "community": "佳兆业金御佳园",
    "area": "60.00",
    "rooms": "2室2厅",
    "direction": "南",
    "floor": "",
    "price": "4200",
    "tags": "",
    "source": "",
    "url": "https://sz.lianjia.com/zufang/SZ2157405206449487872.html",
    "rent_type": "整租",
    "location": "龙岗区-平湖-佳兆业金御佳园",
    "scraped_at": "2026-05-03 07:35:47",
    "region": "pinghu",
    "unit_price": 70.0,
    "lat": 22.690472,
    "lng": 114.127817
  },
  {
    "title": "整租·佳兆业金御佳园 2室2厅 南",
    "community": "佳兆业金御佳园",
    "area": "76.00",
    "rooms": "2室2厅",
    "direction": "南",
    "floor": "",
    "price": "4600",
    "tags": "",
    "source": "",
    "url": "https://sz.lianjia.com/zufang/SZ2157410013100900352.html",
    "rent_type": "整租",
    "location": "龙岗区-平湖-佳兆业金御佳园",
    "scraped_at": "2026-05-03 07:35:47",
    "region": "pinghu",
    "unit_price": 60.5,
    "lat": 22.690472,
    "lng": 114.127817
  },
  {
    "title": "整租·佳兆业金御佳园 2室2厅 南",
    "community": "佳兆业金御佳园",
    "area": "76.00",
    "rooms": "2室2厅",
    "direction": "南",
    "floor": "",
    "price": "4600",
    "tags": "",
    "source": "",
    "url": "https://sz.lianjia.com/zufang/SZ2157410282228416512.html",
    "rent_type": "整租",
    "location": "龙岗区-平湖-佳兆业金御佳园",
    "scraped_at": "2026-05-03 07:35:47",
    "region": "pinghu",
    "unit_price": 60.5,
    "lat": 22.690472,
    "lng": 114.127817
  },
  {
    "title": "整租·昊龙华庭 3室2厅 东南",
    "community": "昊龙华庭",
    "area": "91.00",
    "rooms": "3室2厅",
    "direction": "东南",
    "floor": "",
    "price": "4700",
    "tags": "",
    "source": "",
    "url": "https://sz.lianjia.com/zufang/SZ2157376420010000384.html",
    "rent_type": "整租",
    "location": "龙岗区-平湖-昊龙华庭",
    "scraped_at": "2026-05-03 07:35:47",
    "region": "pinghu",
    "unit_price": 51.6,
    "lat": 22.701928,
    "lng": 114.121787
  },
  {
    "title": "整租·金光华凤凰九里 3室2厅 东南",
    "community": "金光华凤凰九里",
    "area": "73.00",
    "rooms": "3室2厅",
    "direction": "东南",
    "floor": "",
    "price": "4500",
    "tags": "",
    "source": "",
    "url": "https://sz.lianjia.com/zufang/SZ2157390329446137856.html",
    "rent_type": "整租",
    "location": "龙岗区-平湖-金光华凤凰九里",
    "scraped_at": "2026-05-03 07:35:47",
    "region": "pinghu",
    "unit_price": 61.6,
    "lat": 22.67114,
    "lng": 114.12274
  },
  {
    "title": "整租·合正新悦润园 2室2厅 西南",
    "community": "合正新悦润园",
    "area": "77.00",
    "rooms": "2室2厅",
    "direction": "西南",
    "floor": "",
    "price": "4200",
    "tags": "",
    "source": "",
    "url": "https://sz.lianjia.com/zufang/SZ2157898932955381760.html",
    "rent_type": "整租",
    "location": "龙岗区-平湖-合正新悦润园",
    "scraped_at": "2026-05-03 07:35:47",
    "region": "pinghu",
    "unit_price": 54.5,
    "lat": 22.700556,
    "lng": 114.13211
  },
  {
    "title": "整租·融湖盛景花园 3室2厅 东南",
    "community": "融湖盛景花园",
    "area": "95.00",
    "rooms": "3室2厅",
    "direction": "东南",
    "floor": "",
    "price": "5000",
    "tags": "",
    "source": "",
    "url": "https://sz.lianjia.com/zufang/SZ2155922255056470016.html",
    "rent_type": "整租",
    "location": "龙岗区-平湖-融湖盛景花园",
    "scraped_at": "2026-05-03 07:36:23",
    "region": "pinghu",
    "unit_price": 52.6,
    "lat": 22.691559,
    "lng": 114.117239
  },
  {
    "title": "整租·御峰园 4室2厅 南",
    "community": "御峰园",
    "area": "91.00",
    "rooms": "4室2厅",
    "direction": "南",
    "floor": "",
    "price": "6000",
    "tags": "",
    "source": "",
    "url": "https://sz.lianjia.com/zufang/SZ2155971376320610304.html",
    "rent_type": "整租",
    "location": "龙岗区-平湖-御峰园",
    "scraped_at": "2026-05-03 07:35:47",
    "region": "pinghu",
    "unit_price": 65.9,
    "lat": 22.694415,
    "lng": 114.147655
  },
  {
    "title": "整租·华侨城四海锦园 1室1厅 东南",
    "community": "华侨城四海锦园",
    "area": "50.00",
    "rooms": "1室1厅",
    "direction": "东南",
    "floor": "",
    "price": "2500",
    "tags": "",
    "source": "",
    "url": "https://sz.lianjia.com/zufang/SZ2156220887307649024.html",
    "rent_type": "整租",
    "location": "龙岗区-平湖-华侨城四海锦园",
    "scraped_at": "2026-05-03 07:35:47",
    "region": "pinghu",
    "unit_price": 50.0,
    "lat": 22.681673,
    "lng": 114.118498
  },
  {
    "title": "整租·佳兆业金御佳园 2室1厅 东南",
    "community": "佳兆业金御佳园",
    "area": "76.00",
    "rooms": "2室1厅",
    "direction": "东南",
    "floor": "",
    "price": "4500",
    "tags": "",
    "source": "",
    "url": "https://sz.lianjia.com/zufang/SZ2156436170030972928.html",
    "rent_type": "整租",
    "location": "龙岗区-平湖-佳兆业金御佳园",
    "scraped_at": "2026-05-03 07:35:47",
    "region": "pinghu",
    "unit_price": 59.2,
    "lat": 22.690472,
    "lng": 114.127817
  },
  {
    "title": "整租·同创新作 3室2厅 东南",
    "community": "同创新作",
    "area": "39.00",
    "rooms": "3室2厅",
    "direction": "东南",
    "floor": "",
    "price": "2800",
    "tags": "",
    "source": "",
    "url": "https://sz.lianjia.com/zufang/SZ2157308878956527616.html",
    "rent_type": "整租",
    "location": "龙岗区-平湖-同创新作",
    "scraped_at": "2026-05-03 07:35:47",
    "region": "pinghu",
    "unit_price": 71.8,
    "lat": 22.692319,
    "lng": 114.123567
  },
  {
    "title": "整租·特发天鹅湖畔 4室2厅 东南",
    "community": "特发天鹅湖畔",
    "area": "115.49",
    "rooms": "4室2厅",
    "direction": "东南",
    "floor": "",
    "price": "3000",
    "tags": "",
    "source": "",
    "url": "https://sz.lianjia.com/zufang/SZ2075164429833469952.html",
    "rent_type": "整租",
    "location": "龙岗区-平湖-特发天鹅湖畔",
    "scraped_at": "2026-05-03 07:35:59",
    "region": "pinghu",
    "unit_price": 26.0,
    "lat": 22.671619,
    "lng": 114.160977
  },
  {
    "title": "整租·华南西苑 3室1厅 北",
    "community": "华南西苑",
    "area": "66.00",
    "rooms": "3室1厅",
    "direction": "北",
    "floor": "",
    "price": "2700",
    "tags": "",
    "source": "",
    "url": "https://sz.lianjia.com/zufang/SZ2076275162776338432.html",
    "rent_type": "整租",
    "location": "龙岗区-平湖-华南西苑",
    "scraped_at": "2026-05-03 07:35:59",
    "region": "pinghu",
    "unit_price": 40.9,
    "lat": 22.680493,
    "lng": 114.116336
  },
  {
    "title": "整租·南油花园 3室2厅 南",
    "community": "南油花园",
    "area": "110.00",
    "rooms": "3室2厅",
    "direction": "南",
    "floor": "",
    "price": "4000",
    "tags": "",
    "source": "",
    "url": "https://sz.lianjia.com/zufang/SZ2092554587025178624.html",
    "rent_type": "整租",
    "location": "龙岗区-平湖-南油花园",
    "scraped_at": "2026-05-03 07:35:59",
    "region": "pinghu",
    "unit_price": 36.4,
    "lat": 22.692869,
    "lng": 114.127537
  },
  {
    "title": "整租·佳兆业金御佳园 4室2厅 东南",
    "community": "佳兆业金御佳园",
    "area": "116.80",
    "rooms": "4室2厅",
    "direction": "东南",
    "floor": "",
    "price": "6400",
    "tags": "",
    "source": "",
    "url": "https://sz.lianjia.com/zufang/SZ2096941958084689920.html",
    "rent_type": "整租",
    "location": "龙岗区-平湖-佳兆业金御佳园",
    "scraped_at": "2026-05-03 07:35:59",
    "region": "pinghu",
    "unit_price": 54.8,
    "lat": 22.690472,
    "lng": 114.127817
  },
  {
    "title": "整租·佳兆业茗萃园一期 3室2厅 南",
    "community": "佳兆业茗萃园一期",
    "area": "81.77",
    "rooms": "3室2厅",
    "direction": "南",
    "floor": "",
    "price": "3800",
    "tags": "",
    "source": "",
    "url": "https://sz.lianjia.com/zufang/SZ2042099524805066752.html",
    "rent_type": "整租",
    "location": "龙岗区-平湖-佳兆业茗萃园一期",
    "scraped_at": "2026-05-03 07:35:59",
    "region": "pinghu",
    "unit_price": 46.5,
    "lat": 22.667965,
    "lng": 114.142846
  },
  {
    "title": "整租·特发天鹅湖畔 4室2厅 东南",
    "community": "特发天鹅湖畔",
    "area": "115.62",
    "rooms": "4室2厅",
    "direction": "东南",
    "floor": "",
    "price": "5500",
    "tags": "",
    "source": "",
    "url": "https://sz.lianjia.com/zufang/SZ2051625460713914368.html",
    "rent_type": "整租",
    "location": "龙岗区-平湖-特发天鹅湖畔",
    "scraped_at": "2026-05-03 07:35:59",
    "region": "pinghu",
    "unit_price": 47.6,
    "lat": 22.671619,
    "lng": 114.160977
  },
  {
    "title": "整租·融湖中心城二期 4室2厅 南",
    "community": "融湖中心城二期",
    "area": "89.00",
    "rooms": "4室2厅",
    "direction": "南",
    "floor": "",
    "price": "5600",
    "tags": "",
    "source": "",
    "url": "https://sz.lianjia.com/zufang/SZ2092574388518912000.html",
    "rent_type": "整租",
    "location": "龙岗区-平湖-融湖中心城二期",
    "scraped_at": "2026-05-03 07:35:59",
    "region": "pinghu",
    "unit_price": 62.9,
    "lat": 22.690654,
    "lng": 114.122964
  },
  {
    "title": "整租·特发天鹅湖畔 3室2厅 南",
    "community": "特发天鹅湖畔",
    "area": "96.70",
    "rooms": "3室2厅",
    "direction": "南",
    "floor": "",
    "price": "5500",
    "tags": "",
    "source": "",
    "url": "https://sz.lianjia.com/zufang/SZ2094299307254480896.html",
    "rent_type": "整租",
    "location": "龙岗区-平湖-特发天鹅湖畔",
    "scraped_at": "2026-05-03 07:35:59",
    "region": "pinghu",
    "unit_price": 56.9,
    "lat": 22.671619,
    "lng": 114.160977
  },
  {
    "title": "整租·融湖中心城一期 4室2厅 东南",
    "community": "融湖中心城一期",
    "area": "139.00",
    "rooms": "4室2厅",
    "direction": "东南",
    "floor": "",
    "price": "6200",
    "tags": "",
    "source": "",
    "url": "https://sz.lianjia.com/zufang/SZ2096182369483489280.html",
    "rent_type": "整租",
    "location": "龙岗区-平湖-融湖中心城一期",
    "scraped_at": "2026-05-03 07:35:59",
    "region": "pinghu",
    "unit_price": 44.6,
    "lat": 22.69386,
    "lng": 114.119731
  },
  {
    "title": "整租·华侨城四海锦园 3室2厅 南",
    "community": "华侨城四海锦园",
    "area": "89.00",
    "rooms": "3室2厅",
    "direction": "南",
    "floor": "",
    "price": "4500",
    "tags": "",
    "source": "",
    "url": "https://sz.lianjia.com/zufang/SZ2098749949880565760.html",
    "rent_type": "整租",
    "location": "龙岗区-平湖-华侨城四海锦园",
    "scraped_at": "2026-05-03 07:35:59",
    "region": "pinghu",
    "unit_price": 50.6,
    "lat": 22.681673,
    "lng": 114.118498
  },