[
  {
    "title": "整租·汇智时代广场 2室2厅 东南",
    "community": "汇智时代广场",
    "area": "68.00",
    "rooms": "2室2厅",
    "direction": "东南",
    "floor": "",
    "price": "3000",
    "tags": "",
    "source": "",
    "url": "https://sz.lianjia.com/zufang/SZ1928773998879965184.html",
    "rent_type": "整租",
    "location": "宝安区-松岗-汇智时代广场",
    "scraped_at": "2026-05-03 06:37:18",
    "region": "songgang",
    "unit_price": 44.1,
    "lat": 22.764434,
    "lng": 113.860793
  },
  {
    "title": "整租·松河瑞园一期 2室1厅 南",
    "community": "松河瑞园一期",
    "area": "45.99",
    "rooms": "2室1厅",
    "direction": "南",
    "floor": "",
    "price": "3050",
    "tags": "",
    "source": "",
    "url": "https://sz.lianjia.com/zufang/SZ2122723960981291008.html",
    "rent_type": "整租",
    "location": "宝安区-松岗-松河瑞园一期",
    "scraped_at": "2026-05-03 06:37:18",
    "region": "songgang",
    "unit_price": 66.3,
    "lat": 22.77279,
    "lng": 113.8268
  },
  {
    "title": "独栋·朗诗寓 朗诗寓松岗店B栋 直租情侣居家风大房间拎包住 开间",
    "community": "朗诗寓 朗诗寓松岗店B栋 直租情侣居家风大房间拎包住 开间",
    "area": "45.00",
    "rooms": "",
    "direction": "",
    "floor": "",
    "price": "1700",
    "tags": "",
    "source": "",
    "url": "https://sz.lianjia.com/apartment/19547.html",
    "rent_type": "独栋",
    "location": "",
    "scraped_at": "2026-05-03 06:37:18",
    "region": "songgang",
    "unit_price": 37.8,
    "lat": 22.742357,
    "lng": 113.861999
  },
  {
    "title": "整租·中海西岸华府北区 3室2厅 南",
    "community": "中海西岸华府北区",
    "area": "109.14",
    "rooms": "3室2厅",
    "direction": "南",
    "floor": "",
    "price": "4000",
    "tags": "",
    "source": "",
    "url": "https://sz.lianjia.com/zufang/SZ2152075750780436480.html",
    "rent_type": "整租",
    "location": "宝安区-松岗-中海西岸华府北区",
    "scraped_at": "2026-05-03 06:37:18",
    "region": "songgang",
    "unit_price": 36.7,
    "lat": 22.7727,
    "lng": 113.81479
  },
  {
    "title": "整租·翡翠阳光 4室2厅 南",
    "community": "翡翠阳光",
    "area": "89.98",
    "rooms": "4室2厅",
    "direction": "南",
    "floor": "",
    "price": "4000",
    "tags": "",
    "source": "",
    "url": "https://sz.lianjia.com/zufang/SZ2153802117532352512.html",
    "rent_type": "整租",
    "location": "宝安区-松岗-翡翠阳光",
    "scraped_at": "2026-05-03 06:37:18",
    "region": "songgang",
    "unit_price": 44.5,
    "lat": 22.77056,
    "lng": 113.83891
  },
  {
    "title": "整租·联投东方世家花园 4室2厅 东南/南",
    "community": "联投东方世家花园",
    "area": "112.00",
    "rooms": "4室2厅",
    "direction": "东南/南",
    "floor": "",
    "price": "4800",
    "tags": "",
    "source": "",
    "url": "https://sz.lianjia.com/zufang/SZ2142936355800350720.html",
    "rent_type": "整租",
    "location": "宝安区-松岗-联投东方世家花园",
    "scraped_at": "2026-05-03 06:37:18",
    "region": "songgang",
    "unit_price": 42.9,
    "lat": 22.7634,
    "lng": 113.85292
  },
  {
    "title": "整租·联投东方华府一期 3室2厅 西南",
    "community": "联投东方华府一期",
    "area": "81.00",
    "rooms": "3室2厅",
    "direction": "西南",
    "floor": "",
    "price": "3800",
    "tags": "",
    "source": "",
    "url": "https://sz.lianjia.com/zufang/SZ2161312639018336256.html",
    "rent_type": "整租",
    "location": "宝安区-松岗-联投东方华府一期",
    "scraped_at": "2026-05-03 06:37:18",
    "region": "songgang",
    "unit_price": 46.9,
    "lat": 22.7664,
    "lng": 113.85125
  },
  {
    "title": "独栋·河悦公寓 西坊别墅区 大单间 开间",
    "community": "河悦公寓 西坊别墅区 大单间 开间",
    "area": "21.00",
    "rooms": "",
    "direction": "",
    "floor": "",
    "price": "520",
    "tags": "",
    "source": "",
    "url": "https://sz.lianjia.com/apartment/65705.html",
    "rent_type": "独栋",
    "location": "",
    "scraped_at": "2026-05-03 06:37:18",
    "region": "songgang",
    "unit_price": 24.8,
    "lat": 22.756575,
    "lng": 113.842623
  },
  {
    "title": "整租·畔山御景花园 3室2厅 东南",
    "community": "畔山御景花园",
    "area": "86.00",
    "rooms": "3室2厅",
    "direction": "东南",
    "floor": "",
    "price": "3800",
    "tags": "",
    "source": "",
    "url": "https://sz.lianjia.com/zufang/SZ2151303471515566080.html",
    "rent_type": "整租",
    "location": "宝安区-松岗-畔山御景花园",
    "scraped_at": "2026-05-03 06:37:18",
    "region": "songgang",
    "unit_price": 44.2,
    "lat": 22.774954,
    "lng": 113.813606
  },
  {
    "title": "整租·满京华云著华庭 3室2厅 东南",
    "community": "满京华云著华庭",
    "area": "83.06",
    "rooms": "3室2厅",
    "direction": "东南",
    "floor": "",
    "price": "4700",
    "tags": "",
    "source": "",
    "url": "https://sz.lianjia.com/zufang/SZ2157067023891300352.html",
    "rent_type": "整租",
    "location": "宝安区-松岗-满京华云著华庭",
    "scraped_at": "2026-05-03 06:37:18",
    "region": "songgang",
    "unit_price": 56.6,
    "lat": 22.781392,
    "lng": 113.83363
  },
  {
    "title": "整租·松河瑞园一期 3室2厅 东南",
    "community": "松河瑞园一期",
    "area": "76.00",
    "rooms": "3室2厅",
    "direction": "东南",
    "floor": "",
    "price": "4200",
    "tags": "",
    "source": "",
    "url": "https://sz.lianjia.com/zufang/SZ2154812120594644992.html",
    "rent_type": "整租",
    "location": "宝安区-松岗-松河瑞园一期",
    "scraped_at": "2026-05-03 06:37:18",
    "region": "songgang",
    "unit_price": 55.3,
    "lat": 22.77279,
    "lng": 113.8268
  },
  {
    "title": "独栋·河悦公寓 上报美5号店 可短租-简约单间 开间",
    "community": "河悦公寓 上报美5号店 可短租-简约单间 开间",
    "area": "20.00",
    "rooms": "",
    "direction": "",
    "floor": "",
    "price": "520",
    "tags": "",
    "source": "",
    "url": "https://sz.lianjia.com/apartment/65704.html",
    "rent_type": "独栋",
    "location": "",
    "scraped_at": "2026-05-03 06:37:18",
    "region": "songgang",
    "unit_price": 26.0,
    "lat": 22.541696,
    "lng": 113.951898
  },
  {
    "title": "整租·宏发君域 3室2厅 北",
    "community": "宏发君域",
    "area": "89.24",
    "rooms": "3室2厅",
    "direction": "北",
    "floor": "",
    "price": "3800",
    "tags": "",
    "source": "",
    "url": "https://sz.lianjia.com/zufang/SZ2136798277062885376.html",
    "rent_type": "整租",
    "location": "宝安区-松岗-宏发君域",
    "scraped_at": "2026-05-03 06:37:18",
    "region": "songgang",
    "unit_price": 42.6,
    "lat": 22.78226,
    "lng": 113.83404
  },
  {
    "title": "独栋·安居乐寓 松岗东方店 简装大单间，透光性强，78B04 开间",
    "community": "安居乐寓 松岗东方店 简装大单间，透光性强，78B04 开间",
    "area": "17.40",
    "rooms": "",
    "direction": "",
    "floor": "",
    "price": "720-734",
    "tags": "",
    "source": "",
    "url": "https://sz.lianjia.com/apartment/76516.html",
    "rent_type": "独栋",
    "location": "",
    "scraped_at": "2026-05-03 06:37:18",
    "region": "songgang",
    "unit_price": "",
    "lat": 22.65409,
    "lng": 113.819994
  },
  {
    "title": "整租·集信名城 5室2厅 东南",
    "community": "集信名城",
    "area": "183.00",
    "rooms": "5室2厅",
    "direction": "东南",
    "floor": "",
    "price": "6000",
    "tags": "",
    "source": "",
    "url": "https://sz.lianjia.com/zufang/SZ2124815035552235520.html",
    "rent_type": "整租",
    "location": "宝安区-松岗-集信名城",
    "scraped_at": "2026-05-03 06:37:18",
    "region": "songgang",
    "unit_price": 32.8,
    "lat": 22.768373,
    "lng": 113.847369
  },
  {
    "title": "整租·中海西岸华府北区 4室2厅 南",
    "community": "中海西岸华府北区",
    "area": "128.00",
    "rooms": "4室2厅",
    "direction": "南",
    "floor": "",
    "price": "4300",
    "tags": "",
    "source": "",
    "url": "https://sz.lianjia.com/zufang/SZ2125803180200558592.html",
    "rent_type": "整租",
    "location": "宝安区-松岗-中海西岸华府北区",
    "scraped_at": "2026-05-03 06:37:18",
    "region": "songgang",
    "unit_price": 33.6,
    "lat": 22.7727,
    "lng": 113.81479
  },
  {
    "title": "独栋·吉瑞公寓 松岗店 近松岗公园、溪头站 三房两厅 大空间 性价比高 楼梯 停车方便 3室2厅",
    "community": "吉瑞公寓 松岗店 近松岗公园、溪头站 三房两厅 大空间 性价比高 楼梯 停车方便",
    "area": "100.00",
    "rooms": "3室2厅",
    "direction": "",
    "floor": "",
    "price": "2050",
    "tags": "",
    "source": "",
    "url": "https://sz.lianjia.com/apartment/98703.html",
    "rent_type": "独栋",
    "location": "",
    "scraped_at": "2026-05-03 06:37:18",
    "region": "songgang",
    "unit_price": 20.5,
    "lat": 22.777422,
    "lng": 113.832395
  },
  {
    "title": "整租·联投东方二期 3室2厅 南",
    "community": "联投东方二期",
    "area": "84.91",
    "rooms": "3室2厅",
    "direction": "南",
    "floor": "",
    "price": "3950",
    "tags": "",
    "source": "",
    "url": "https://sz.lianjia.com/zufang/SZ2079870164874035200.html",
    "rent_type": "整租",
    "location": "宝安区-松岗-联投东方二期",
    "scraped_at": "2026-05-03 06:37:18",
    "region": "songgang",
    "unit_price": 46.5,
    "lat": 22.7634,
    "lng": 113.85292
  },
  {
    "title": "独栋·安居乐寓 松岗东方店（塘下涌） 7-02 精装首次出租单间带阳台采光好 开间",
    "community": "安居乐寓 松岗东方店（塘下涌） 7-02 精装首次出租单间带阳台采光好 开间",
    "area": "13.95",
    "rooms": "",
    "direction": "",
    "floor": "",
    "price": "807",
    "tags": "",
    "source": "",
    "url": "https://sz.lianjia.com/apartment/82122.html",
    "rent_type": "独栋",
    "location": "",
    "scraped_at": "2026-05-03 06:37:18",
    "region": "songgang",
    "unit_price": 57.8,
    "lat": 22.621687,
    "lng": 114.075598
  },
  {
    "title": "整租·中海西岸华府北区 4室2厅 南",
    "community": "中海西岸华府北区",
    "area": "129.07",
    "rooms": "4室2厅",
    "direction": "南",
    "floor": "",
    "price": "4800",
    "tags": "",
    "source": "",
    "url": "https://sz.lianjia.com/zufang/SZ2117193148294758400.html",
    "rent_type": "整租",
    "location": "宝安区-松岗-中海西岸华府北区",
    "scraped_at": "2026-05-03 06:37:18",
    "region": "songgang",
    "unit_price": 37.2,
    "lat": 22.7727,
    "lng": 113.81479
  }
]