[
  {
    "title": "整租·布吉中心花园 3室2厅 东南",
    "community": "布吉中心花园",
    "area": "103.57",
    "rooms": "3室2厅",
    "direction": "东南",
    "floor": "",
    "price": "5500",
    "tags": "",
    "source": "",
    "url": "https://sz.lianjia.com/zufang/SZ2154471211403313152.html",
    "rent_type": "整租",
    "location": "龙岗区-布吉街-布吉中心花园",
    "scraped_at": "2026-05-03 07:08:26",
    "region": "bujijie",
    "unit_price": 53.1,
    "lat": 22.61215,
    "lng": 114.12499
  },
  {
    "title": "整租·德福花园 1室1厅 西南",
    "community": "德福花园",
    "area": "41.82",
    "rooms": "1室1厅",
    "direction": "西南",
    "floor": "",
    "price": "2100",
    "tags": "",
    "source": "",
    "url": "https://sz.lianjia.com/zufang/SZ1894757480966127616.html",
    "rent_type": "整租",
    "location": "龙岗区-布吉街-德福花园",
    "scraped_at": "2026-05-03 07:08:26",
    "region": "bujijie",
    "unit_price": 50.2,
    "lat": 22.5979,
    "lng": 114.10053
  },
  {
    "title": "独栋·湾涛公寓 布吉店 首月租金减免188元【六层车场山景花园小区地铁公交双通勤+拎包入住无中介】山景单间 开间",
    "community": "湾涛公寓 布吉店 首月租金减免188元【六层车场山景花园小区地铁公交双通勤+拎包入住无中介】山景单间 开间",
    "area": "33.00",
    "rooms": "",
    "direction": "",
    "floor": "",
    "price": "1850",
    "tags": "",
    "source": "",
    "url": "https://sz.lianjia.com/apartment/37228.html",
    "rent_type": "独栋",
    "location": "",
    "scraped_at": "2026-05-03 07:07:18",
    "region": "bujijie",
    "unit_price": 56.1,
    "lat": null,
    "lng": null
  },
  {
    "title": "整租·德福花园 3室2厅 南",
    "community": "德福花园",
    "area": "90.00",
    "rooms": "3室2厅",
    "direction": "南",
    "floor": "",
    "price": "3600",
    "tags": "",
    "source": "",
    "url": "https://sz.lianjia.com/zufang/SZ2017108197923356672.html",
    "rent_type": "整租",
    "location": "龙岗区-布吉街-德福花园",
    "scraped_at": "2026-05-03 07:08:26",
    "region": "bujijie",
    "unit_price": 40.0,
    "lat": 22.5979,
    "lng": 114.10053
  },
  {
    "title": "独栋·米兔青年公寓 布吉店 【3个月起租】送免租，精装独立开间限时特价年租,配冰箱 1室1厅",
    "community": "米兔青年公寓 布吉店 【3个月起租】送免租，精装独立开间限时特价年租,配冰箱",
    "area": "28.00",
    "rooms": "1室1厅",
    "direction": "",
    "floor": "",
    "price": "2280",
    "tags": "",
    "source": "",
    "url": "https://sz.lianjia.com/apartment/82082.html",
    "rent_type": "独栋",
    "location": "",
    "scraped_at": "2026-05-03 07:07:18",
    "region": "bujijie",
    "unit_price": 81.4,
    "lat": 22.599738,
    "lng": 114.132986
  },
  {
    "title": "整租·凯旋天玺名庭 1室0厅 南",
    "community": "凯旋天玺名庭",
    "area": "20.00",
    "rooms": "1室0厅",
    "direction": "南",
    "floor": "",
    "price": "2000",
    "tags": "",
    "source": "",
    "url": "https://sz.lianjia.com/zufang/SZ2159991995341209600.html",
    "rent_type": "整租",
    "location": "龙岗区-布吉街-凯旋天玺名庭",
    "scraped_at": "2026-05-03 07:07:18",
    "region": "bujijie",
    "unit_price": 100.0,
    "lat": 22.60902,
    "lng": 114.11204
  },
  {
    "title": "整租·花语馨 4室2厅 西南",
    "community": "花语馨",
    "area": "117.87",
    "rooms": "4室2厅",
    "direction": "西南",
    "floor": "",
    "price": "5600",
    "tags": "",
    "source": "",
    "url": "https://sz.lianjia.com/zufang/SZ2155608083911409664.html",
    "rent_type": "整租",
    "location": "龙岗区-布吉街-花语馨",
    "scraped_at": "2026-05-03 07:07:18",
    "region": "bujijie",
    "unit_price": 47.5,
    "lat": 22.6168,
    "lng": 114.1118
  },
  {
    "title": "独栋·心居社区 布吉店 温馨单间 押一 近地铁 采光好独立园区 开间",
    "community": "心居社区 布吉店 温馨单间 押一 近地铁 采光好独立园区 开间",
    "area": "15.00",
    "rooms": "",
    "direction": "",
    "floor": "",
    "price": "1480",
    "tags": "",
    "source": "",
    "url": "https://sz.lianjia.com/apartment/84442.html",
    "rent_type": "独栋",
    "location": "",
    "scraped_at": "2026-05-03 07:07:21",
    "region": "bujijie",
    "unit_price": 98.7,
    "lat": 22.602148,
    "lng": 114.120102
  },
  {
    "title": "整租·吉信大厦 3室2厅 南",
    "community": "吉信大厦",
    "area": "110.50",
    "rooms": "3室2厅",
    "direction": "南",
    "floor": "",
    "price": "4200",
    "tags": "",
    "source": "",
    "url": "https://sz.lianjia.com/zufang/SZ2153874253097730048.html",
    "rent_type": "整租",
    "location": "龙岗区-布吉街-吉信大厦",
    "scraped_at": "2026-05-03 07:08:26",
    "region": "bujijie",
    "unit_price": 38.0,
    "lat": 22.603487,
    "lng": 114.111553
  },
  {
    "title": "整租·阳光花园一期 3室1厅 南",
    "community": "阳光花园一期",
    "area": "80.38",
    "rooms": "3室1厅",
    "direction": "南",
    "floor": "",
    "price": "3800",
    "tags": "",
    "source": "",
    "url": "https://sz.lianjia.com/zufang/SZ2158524784101556224.html",
    "rent_type": "整租",
    "location": "龙岗区-布吉街-阳光花园一期",
    "scraped_at": "2026-05-03 07:07:18",
    "region": "bujijie",
    "unit_price": 47.3,
    "lat": 22.615325,
    "lng": 114.117133
  },
  {
    "title": "整租·钧濠MIXPark 5室2厅 南/北",
    "community": "钧濠MIXPark",
    "area": "139.00",
    "rooms": "5室2厅",
    "direction": "南/北",
    "floor": "",
    "price": "9000",
    "tags": "",
    "source": "",
    "url": "https://sz.lianjia.com/zufang/SZ2141788069890621440.html",
    "rent_type": "整租",
    "location": "龙岗区-布吉街-钧濠",
    "scraped_at": "2026-05-03 07:07:18",
    "region": "bujijie",
    "unit_price": 64.7,
    "lat": 22.611108,
    "lng": 114.118797
  },
  {
    "title": "整租·文雅豪庭 3室2厅 东南",
    "community": "文雅豪庭",
    "area": "101.71",
    "rooms": "3室2厅",
    "direction": "东南",
    "floor": "",
    "price": "4500",
    "tags": "",
    "source": "",
    "url": "https://sz.lianjia.com/zufang/SZ2151280704334331904.html",
    "rent_type": "整租",
    "location": "龙岗区-布吉街-文雅豪庭",
    "scraped_at": "2026-05-03 07:07:38",
    "region": "bujijie",
    "unit_price": 44.2,
    "lat": 22.61454,
    "lng": 114.12216
  },
  {
    "title": "独栋·U梦公馆 下水径D栋 特价 房东直租 押一 无中介费 6个月起 近地铁特价两房一厅带阳台 2室1厅",
    "community": "U梦公馆 下水径D栋 特价 房东直租 押一 无中介费 6个月起 近地铁特价两房一厅带阳台",
    "area": "45.00",
    "rooms": "2室1厅",
    "direction": "",
    "floor": "",
    "price": "1800-1900",
    "tags": "",
    "source": "",
    "url": "https://sz.lianjia.com/apartment/17169.html",
    "rent_type": "独栋",
    "location": "",
    "scraped_at": "2026-05-03 07:07:18",
    "region": "bujijie",
    "unit_price": "",
    "lat": 22.61169,
    "lng": 114.108042
  },
  {
    "title": "整租·钧濠MIXPark 2室1厅 西",
    "community": "钧濠MIXPark",
    "area": "42.00",
    "rooms": "2室1厅",
    "direction": "西",
    "floor": "",
    "price": "3800",
    "tags": "",
    "source": "",
    "url": "https://sz.lianjia.com/zufang/SZ2141186114751299584.html",
    "rent_type": "整租",
    "location": "龙岗区-布吉街-钧濠",
    "scraped_at": "2026-05-03 07:07:18",
    "region": "bujijie",
    "unit_price": 90.5,
    "lat": 22.611108,
    "lng": 114.118797
  },
  {
    "title": "整租·宝龙花园 3室2厅 西北",
    "community": "宝龙花园",
    "area": "116.00",
    "rooms": "3室2厅",
    "direction": "西北",
    "floor": "",
    "price": "4800",
    "tags": "",
    "source": "",
    "url": "https://sz.lianjia.com/zufang/SZ2139015819324030976.html",
    "rent_type": "整租",
    "location": "龙岗区-布吉街-宝龙花园",
    "scraped_at": "2026-05-03 07:07:38",
    "region": "bujijie",
    "unit_price": 41.4,
    "lat": 22.60751,
    "lng": 114.11221
  },
  {
    "title": "独栋·瀚寓 长龙店 （不短租）长龙站，电梯精装带阳台温馨大单间，拎包入住。 开间",
    "community": "瀚寓 长龙店 （不短租）长龙站，电梯精装带阳台温馨大单间，拎包入住。 开间",
    "area": "30.00",
    "rooms": "",
    "direction": "",
    "floor": "",
    "price": "2180",
    "tags": "",
    "source": "",
    "url": "https://sz.lianjia.com/apartment/105175.html",
    "rent_type": "独栋",
    "location": "",
    "scraped_at": "2026-05-03 07:07:21",
    "region": "bujijie",
    "unit_price": 72.7,
    "lat": 22.608174,
    "lng": 114.113115
  },
  {
    "title": "整租·德兴城花园 3室2厅 西南",
    "community": "德兴城花园",
    "area": "93.00",
    "rooms": "3室2厅",
    "direction": "西南",
    "floor": "",
    "price": "4500",
    "tags": "",
    "source": "",
    "url": "https://sz.lianjia.com/zufang/SZ2141531459142287360.html",
    "rent_type": "整租",
    "location": "龙岗区-布吉街-德兴城花园",
    "scraped_at": "2026-05-03 07:07:18",
    "region": "bujijie",
    "unit_price": 48.4,
    "lat": 22.609902,
    "lng": 114.110498
  },
  {
    "title": "独栋·拾光里公寓 长龙店 （短租勿扰）长龙地铁口 精装公寓 拎包入住 采光超好 开间",
    "community": "拾光里公寓 长龙店 （短租勿扰）长龙地铁口 精装公寓 拎包入住 采光超好 开间",
    "area": "28.00",
    "rooms": "",
    "direction": "",
    "floor": "",
    "price": "1980",
    "tags": "",
    "source": "",
    "url": "https://sz.lianjia.com/apartment/105170.html",
    "rent_type": "独栋",
    "location": "",
    "scraped_at": "2026-05-03 07:07:18",
    "region": "bujijie",
    "unit_price": 70.7,
    "lat": null,
    "lng": null
  },
  {
    "title": "整租·佳兆业壹都汇大厦 2室1厅 东南",
    "community": "佳兆业壹都汇大厦",
    "area": "67.91",
    "rooms": "2室1厅",
    "direction": "东南",
    "floor": "",
    "price": "5000",
    "tags": "",
    "source": "",
    "url": "https://sz.lianjia.com/zufang/SZ2140505099015815168.html",
    "rent_type": "整租",
    "location": "龙岗区-布吉街-佳兆业壹都汇大厦",
    "scraped_at": "2026-05-03 07:07:18",
    "region": "bujijie",
    "unit_price": 73.6,
    "lat": 22.60926,
    "lng": 114.12558
  },
  {
    "title": "整租·龙岭山庄 3室2厅 南",
    "community": "龙岭山庄",
    "area": "83.00",
    "rooms": "3室2厅",
    "direction": "南",
    "floor": "",
    "price": "3700",
    "tags": "",
    "source": "",
    "url": "https://sz.lianjia.com/zufang/SZ2139662241526448128.html",
    "rent_type": "整租",
    "location": "龙岗区-布吉街-龙岭山庄",
    "scraped_at": "2026-05-03 07:07:18",
    "region": "bujijie",
    "unit_price": 44.6,
    "lat": 22.607997,
    "lng": 114.105829
  },
  {
    "title": "独栋·拾光里公寓 长龙2店 （短租勿扰）5号线长龙站，独栋一房一厅，家私家电齐，拎包住 1室1厅",
    "community": "拾光里公寓 长龙2店 （短租勿扰）5号线长龙站，独栋一房一厅，家私家电齐，拎包住",
    "area": "38.00",
    "rooms": "1室1厅",
    "direction": "",
    "floor": "",
    "price": "2580",
    "tags": "",
    "source": "",
    "url": "https://sz.lianjia.com/apartment/107898.html",
    "rent_type": "独栋",
    "location": "",
    "scraped_at": "2026-05-03 07:07:21",
    "region": "bujijie",
    "unit_price": 67.9,
    "lat": 22.604642,
    "lng": 114.118108
  },
  {
    "title": "独栋·U梦公馆 下水径E栋 房东直租 押一 无中介费 特价近地铁 两房一厅 2室1厅",
    "community": "U梦公馆 下水径E栋 房东直租 押一 无中介费 特价近地铁 两房一厅",
    "area": "73.00",
    "rooms": "2室1厅",
    "direction": "",
    "floor": "",
    "price": "2480",
    "tags": "",
    "source": "",
    "url": "https://sz.lianjia.com/apartment/17770.html",
    "rent_type": "独栋",
    "location": "",
    "scraped_at": "2026-05-03 07:07:18",
    "region": "bujijie",
    "unit_price": 34.0,
    "lat": 22.759073,
    "lng": 113.802542
  },
  {
    "title": "独栋·U梦公馆 下水径G栋 6个月起 近地铁 房东直租 押一付一 朝南舒适单间 采光好 开间",
    "community": "U梦公馆 下水径G栋 6个月起 近地铁 房东直租 押一付一 朝南舒适单间 采光好 开间",
    "area": "16.00",
    "rooms": "",
    "direction": "",
    "floor": "",
    "price": "1280",
    "tags": "",
    "source": "",
    "url": "https://sz.lianjia.com/apartment/22744.html",
    "rent_type": "独栋",
    "location": "",
    "scraped_at": "2026-05-03 07:07:21",
    "region": "bujijie",
    "unit_price": 80.0,
    "lat": 22.61169,
    "lng": 114.108042
  },
  {
    "title": "整租·布吉中心花园 4室2厅 东北",
    "community": "布吉中心花园",
    "area": "93.11",
    "rooms": "4室2厅",
    "direction": "东北",
    "floor": "",
    "price": "5000",
    "tags": "",
    "source": "",
    "url": "https://sz.lianjia.com/zufang/SZ2034870395101773824.html",
    "rent_type": "整租",
    "location": "龙岗区-布吉街-布吉中心花园",
    "scraped_at": "2026-05-03 07:08:26",
    "region": "bujijie",
    "unit_price": 53.7,
    "lat": 22.61215,
    "lng": 114.12499
  },
  {
    "title": "整租·景华嶺莑 3室2厅 南",
    "community": "景华嶺莑",
    "area": "98.30",
    "rooms": "3室2厅",
    "direction": "南",
    "floor": "",
    "price": "6405",
    "tags": "",
    "source": "",
    "url": "https://sz.lianjia.com/zufang/SZ2146519349345648640.html",
    "rent_type": "整租",
    "location": "龙岗区-布吉街-景华嶺莑",
    "scraped_at": "2026-05-03 07:08:26",
    "region": "bujijie",
    "unit_price": 65.2,
    "lat": 22.6216,
    "lng": 114.11985
  },
  {
    "title": "整租·泽润华庭 2室2厅 南",
    "community": "泽润华庭",
    "area": "71.00",
    "rooms": "2室2厅",
    "direction": "南",
    "floor": "",
    "price": "3800",
    "tags": "",
    "source": "",
    "url": "https://sz.lianjia.com/zufang/SZ2018012725837299712.html",
    "rent_type": "整租",
    "location": "龙岗区-布吉街-泽润华庭",
    "scraped_at": "2026-05-03 07:08:26",
    "region": "bujijie",
    "unit_price": 53.5,
    "lat": 22.5969,
    "lng": 114.10503
  },
  {
    "title": "独栋·心居社区 布吉街水径店 温馨小资独立园区可停车24H安保 1室1厅",
    "community": "心居社区 布吉街水径店 温馨小资独立园区可停车24H安保",
    "area": "28.00",
    "rooms": "1室1厅",
    "direction": "",
    "floor": "",
    "price": "1690",
    "tags": "",
    "source": "",
    "url": "https://sz.lianjia.com/apartment/50761.html",
    "rent_type": "独栋",
    "location": "",
    "scraped_at": "2026-05-03 07:07:25",
    "region": "bujijie",
    "unit_price": 60.4,
    "lat": 22.61512,
    "lng": 114.126276
  },
  {
    "title": "整租·佳兆业壹都汇大厦 2室1厅 南",
    "community": "佳兆业壹都汇大厦",
    "area": "66.57",
    "rooms": "2室1厅",
    "direction": "南",
    "floor": "",
    "price": "5200",
    "tags": "",
    "source": "",
    "url": "https://sz.lianjia.com/zufang/SZ2160690059060183040.html",
    "rent_type": "整租",
    "location": "龙岗区-布吉街-佳兆业壹都汇大厦",
    "scraped_at": "2026-05-03 07:07:21",
    "region": "bujijie",
    "unit_price": 78.1,
    "lat": 22.60926,
    "lng": 114.12558
  },
  {
    "title": "整租·花语岸 4室2厅 东南",
    "community": "花语岸",
    "area": "100.00",
    "rooms": "4室2厅",
    "direction": "东南",
    "floor": "",
    "price": "6200",
    "tags": "",
    "source": "",
    "url": "https://sz.lianjia.com/zufang/SZ2157035099869151232.html",
    "rent_type": "整租",
    "location": "龙岗区-布吉街-花语岸",
    "scraped_at": "2026-05-03 07:07:21",
    "region": "bujijie",
    "unit_price": 62.0,
    "lat": 22.615529,
    "lng": 114.111264
  },
  {
    "title": "整租·钧濠MIXPark 1室1厅 西南",
    "community": "钧濠MIXPark",
    "area": "29.00",
    "rooms": "1室1厅",
    "direction": "西南",
    "floor": "",
    "price": "2900",
    "tags": "",
    "source": "",
    "url": "https://sz.lianjia.com/zufang/SZ2072323786681614336.html",
    "rent_type": "整租",
    "location": "龙岗区-布吉街-钧濠",
    "scraped_at": "2026-05-03 07:08:16",
    "region": "bujijie",
    "unit_price": 100.0,
    "lat": 22.611108,
    "lng": 114.118797
  },
  {
    "title": "整租·宝龙花园 3室2厅 东南",
    "community": "宝龙花园",
    "area": "116.00",
    "rooms": "3室2厅",
    "direction": "东南",
    "floor": "",
    "price": "4500",
    "tags": "",
    "source": "",
    "url": "https://sz.lianjia.com/zufang/SZ2087112012654968832.html",
    "rent_type": "整租",
    "location": "龙岗区-布吉街-宝龙花园",
    "scraped_at": "2026-05-03 07:07:21",
    "region": "bujijie",
    "unit_price": 38.8,
    "lat": 22.60751,
    "lng": 114.11221
  },
  {
    "title": "整租·龙岭山庄 4室2厅 南/北",
    "community": "龙岭山庄",
    "area": "94.08",
    "rooms": "4室2厅",
    "direction": "南/北",
    "floor": "",
    "price": "4500",
    "tags": "",
    "source": "",
    "url": "https://sz.lianjia.com/zufang/SZ2122581610795630592.html",
    "rent_type": "整租",
    "location": "龙岗区-布吉街-龙岭山庄",
    "scraped_at": "2026-05-03 07:07:21",
    "region": "bujijie",
    "unit_price": 47.8,
    "lat": 22.607997,
    "lng": 114.105829
  },
  {
    "title": "整租·格塘新村 1室0厅 南",
    "community": "格塘新村",
    "area": "22.00",
    "rooms": "1室0厅",
    "direction": "南",
    "floor": "",
    "price": "1500",
    "tags": "",
    "source": "",
    "url": "https://sz.lianjia.com/zufang/SZ2119306388705378304.html",
    "rent_type": "整租",
    "location": "龙岗区-布吉街-格塘新村",
    "scraped_at": "2026-05-03 07:07:21",
    "region": "bujijie",
    "unit_price": 68.2,
    "lat": 22.60395,
    "lng": 114.09966
  },
  {
    "title": "独栋·趣客公寓 长龙2店 长龙舒适一居室 不短租 性价比高 开间",
    "community": "趣客公寓 长龙2店 长龙舒适一居室 不短租 性价比高 开间",
    "area": "13.00",
    "rooms": "",
    "direction": "",
    "floor": "",
    "price": "950",
    "tags": "",
    "source": "",
    "url": "https://sz.lianjia.com/apartment/32691.html",
    "rent_type": "独栋",
    "location": "",
    "scraped_at": "2026-05-03 07:07:21",
    "region": "bujijie",
    "unit_price": 73.1,
    "lat": 22.605162,
    "lng": 114.108723
  },
  {
    "title": "整租·宝龙花园 3室2厅 东南",
    "community": "宝龙花园",
    "area": "116.00",
    "rooms": "3室2厅",
    "direction": "东南",
    "floor": "",
    "price": "4500",
    "tags": "",
    "source": "",
    "url": "https://sz.lianjia.com/zufang/SZ2087112643931275264.html",
    "rent_type": "整租",
    "location": "龙岗区-布吉街-宝龙花园",
    "scraped_at": "2026-05-03 07:07:41",
    "region": "bujijie",
    "unit_price": 38.8,
    "lat": 22.60751,
    "lng": 114.11221
  },
  {
    "title": "独栋·趣客公寓 长龙3店 长龙公寓温馨一居室 性价比高 开间",
    "community": "趣客公寓 长龙3店 长龙公寓温馨一居室 性价比高 开间",
    "area": "11.00",
    "rooms": "",
    "direction": "",
    "floor": "",
    "price": "1050",
    "tags": "",
    "source": "",
    "url": "https://sz.lianjia.com/apartment/37072.html",
    "rent_type": "独栋",
    "location": "",
    "scraped_at": "2026-05-03 07:07:25",
    "region": "bujijie",
    "unit_price": 95.5,
    "lat": 22.731389,
    "lng": 114.264385
  },
  {
    "title": "整租·阳光花园二期 3室2厅 南",
    "community": "阳光花园二期",
    "area": "87.00",
    "rooms": "3室2厅",
    "direction": "南",
    "floor": "",
    "price": "4600",
    "tags": "",
    "source": "",
    "url": "https://sz.lianjia.com/zufang/SZ2109590652139339776.html",
    "rent_type": "整租",
    "location": "龙岗区-布吉街-阳光花园二期",
    "scraped_at": "2026-05-03 07:07:21",
    "region": "bujijie",
    "unit_price": 52.9,
    "lat": 22.613479,
    "lng": 114.112651
  },
  {
    "title": "独栋·小七洋房 狮子座 近布吉老街，文博宫，布吉东站，电梯朝南大单间1.5米大床房，楼顶花园晾晒被子，可做饭可养猫 半年起租 开间",
    "community": "小七洋房 狮子座 近布吉老街，文博宫，布吉东站，电梯朝南大单间1.5米大床房，楼顶花园晾晒被子，可做饭可养猫 半年起租 开间",
    "area": "25.00",
    "rooms": "",
    "direction": "",
    "floor": "",
    "price": "1650",
    "tags": "",
    "source": "",
    "url": "https://sz.lianjia.com/apartment/56564.html",
    "rent_type": "独栋",
    "location": "",
    "scraped_at": "2026-05-03 07:07:25",
    "region": "bujijie",
    "unit_price": 66.0,
    "lat": 22.602747,
    "lng": 114.101567
  },
  {
    "title": "整租·宝龙花园 3室2厅 东",
    "community": "宝龙花园",
    "area": "116.00",
    "rooms": "3室2厅",
    "direction": "东",
    "floor": "",
    "price": "4500",
    "tags": "",
    "source": "",
    "url": "https://sz.lianjia.com/zufang/SZ2087111614028316672.html",
    "rent_type": "整租",
    "location": "龙岗区-布吉街-宝龙花园",
    "scraped_at": "2026-05-03 07:07:21",
    "region": "bujijie",
    "unit_price": 38.8,
    "lat": 22.60751,
    "lng": 114.11221
  },
  {
    "title": "独栋·U梦公馆 下水径A栋 下水径地铁站 房东直租 6个月起租 押一付一 电梯特价复试单间 数量有限 先到先得 1室1厅",
    "community": "U梦公馆 下水径A栋 下水径地铁站 房东直租 6个月起租 押一付一 电梯特价复试单间 数量有限 先到先得",
    "area": "18.00",
    "rooms": "1室1厅",
    "direction": "",
    "floor": "",
    "price": "980-1080",
    "tags": "",
    "source": "",
    "url": "https://sz.lianjia.com/apartment/12808.html",
    "rent_type": "独栋",
    "location": "",
    "scraped_at": "2026-05-03 07:07:25",
    "region": "bujijie",
    "unit_price": "",
    "lat": 22.62025,
    "lng": 114.10535
  },
  {
    "title": "整租·宝龙花园 3室2厅 东南",
    "community": "宝龙花园",
    "area": "116.00",
    "rooms": "3室2厅",
    "direction": "东南",
    "floor": "",
    "price": "4500",
    "tags": "",
    "source": "",
    "url": "https://sz.lianjia.com/zufang/SZ2087112832184221696.html",
    "rent_type": "整租",
    "location": "龙岗区-布吉街-宝龙花园",
    "scraped_at": "2026-05-03 07:07:21",
    "region": "bujijie",
    "unit_price": 38.8,
    "lat": 22.60751,
    "lng": 114.11221
  },
  {
    "title": "独栋·心居社区 长龙店 性价比高 押一 长龙地铁口 小区大单间 （有停车位） 开间",
    "community": "心居社区 长龙店 性价比高 押一 长龙地铁口 小区大单间 （有停车位） 开间",
    "area": "23.00",
    "rooms": "",
    "direction": "",
    "floor": "",
    "price": "1480",
    "tags": "",
    "source": "",
    "url": "https://sz.lianjia.com/apartment/90145.html",
    "rent_type": "独栋",
    "location": "",
    "scraped_at": "2026-05-03 07:07:25",
    "region": "bujijie",
    "unit_price": 64.3,
    "lat": 22.612963,
    "lng": 114.113833
  },
  {
    "title": "整租·翠枫豪园二期 4室2厅 南",
    "community": "翠枫豪园二期",
    "area": "144.00",
    "rooms": "4室2厅",
    "direction": "南",
    "floor": "",
    "price": "5800",
    "tags": "",
    "source": "",
    "url": "https://sz.lianjia.com/zufang/SZ1985926611043614720.html",
    "rent_type": "整租",
    "location": "龙岗区-布吉街-翠枫豪园二期",
    "scraped_at": "2026-05-03 07:08:16",
    "region": "bujijie",
    "unit_price": 40.3,
    "lat": 22.6142,
    "lng": 114.09727
  },
  {
    "title": "独栋·U梦公馆 下水径B栋 6个月起租 房东直租 押一 无中介费 特价两房一厅 2室1厅",
    "community": "U梦公馆 下水径B栋 6个月起租 房东直租 押一 无中介费 特价两房一厅",
    "area": "55.00",
    "rooms": "2室1厅",
    "direction": "",
    "floor": "",
    "price": "2080",
    "tags": "",
    "source": "",
    "url": "https://sz.lianjia.com/apartment/15567.html",
    "rent_type": "独栋",
    "location": "",
    "scraped_at": "2026-05-03 07:07:21",
    "region": "bujijie",
    "unit_price": 37.8,
    "lat": 22.61169,
    "lng": 114.108042
  },
  {
    "title": "整租·德福花园 1室1厅 西",
    "community": "德福花园",
    "area": "43.00",
    "rooms": "1室1厅",
    "direction": "西",
    "floor": "",
    "price": "2200",
    "tags": "",
    "source": "",
    "url": "https://sz.lianjia.com/zufang/SZ1906934181959565312.html",
    "rent_type": "整租",
    "location": "龙岗区-布吉街-德福花园",
    "scraped_at": "2026-05-03 07:07:25",
    "region": "bujijie",
    "unit_price": 51.2,
    "lat": 22.5979,
    "lng": 114.10053
  },
  {
    "title": "整租·德福花园 1室1厅 东",
    "community": "德福花园",
    "area": "46.73",
    "rooms": "1室1厅",
    "direction": "东",
    "floor": "",
    "price": "2700",
    "tags": "",
    "source": "",
    "url": "https://sz.lianjia.com/zufang/SZ1869958088644100096.html",
    "rent_type": "整租",
    "location": "龙岗区-布吉街-德福花园",
    "scraped_at": "2026-05-03 07:07:25",
    "region": "bujijie",
    "unit_price": 57.8,
    "lat": 22.5979,
    "lng": 114.10053
  },
  {
    "title": "整租·德福花园 3室2厅 西北",
    "community": "德福花园",
    "area": "71.00",
    "rooms": "3室2厅",
    "direction": "西北",
    "floor": "",
    "price": "3200",
    "tags": "",
    "source": "",
    "url": "https://sz.lianjia.com/zufang/SZ1875388440204279808.html",
    "rent_type": "整租",
    "location": "龙岗区-布吉街-德福花园",
    "scraped_at": "2026-05-03 07:07:25",
    "region": "bujijie",
    "unit_price": 45.1,
    "lat": 22.5979,
    "lng": 114.10053
  },
  {
    "title": "整租·莲花山庄五村 5室2厅 南",
    "community": "莲花山庄五村",
    "area": "322.12",
    "rooms": "5室2厅",
    "direction": "南",
    "floor": "",
    "price": "22000",
    "tags": "",
    "source": "",
    "url": "https://sz.lianjia.com/zufang/SZ2054918399170969600.html",
    "rent_type": "整租",
    "location": "龙岗区-布吉街-莲花山庄五村",
    "scraped_at": "2026-05-03 07:07:25",
    "region": "bujijie",
    "unit_price": 68.3,
    "lat": 22.603808,
    "lng": 114.10609
  },
  {
    "title": "整租·德福花园 1室2厅 南",
    "community": "德福花园",
    "area": "44.00",
    "rooms": "1室2厅",
    "direction": "南",
    "floor": "",
    "price": "2100",
    "tags": "",
    "source": "",
    "url": "https://sz.lianjia.com/zufang/SZ2053086244740530176.html",
    "rent_type": "整租",
    "location": "龙岗区-布吉街-德福花园",
    "scraped_at": "2026-05-03 07:07:25",
    "region": "bujijie",
    "unit_price": 47.7,
    "lat": 22.5979,
    "lng": 114.10053
  },
  {
    "title": "整租·德福花园 3室2厅 西南",
    "community": "德福花园",
    "area": "72.57",
    "rooms": "3室2厅",
    "direction": "西南",
    "floor": "",
    "price": "3100",
    "tags": "",
    "source": "",
    "url": "https://sz.lianjia.com/zufang/SZ2065075622702481408.html",
    "rent_type": "整租",
    "location": "龙岗区-布吉街-德福花园",
    "scraped_at": "2026-05-03 07:08:16",
    "region": "bujijie",
    "unit_price": 42.7,
    "lat": 22.5979,
    "lng": 114.10053
  },
  {
    "title": "整租·吉信大厦 3室2厅 东",
    "community": "吉信大厦",
    "area": "110.00",
    "rooms": "3室2厅",
    "direction": "东",
    "floor": "",
    "price": "4650",
    "tags": "",
    "source": "",
    "url": "https://sz.lianjia.com/zufang/SZ2038604880989388800.html",
    "rent_type": "整租",
    "location": "龙岗区-布吉街-吉信大厦",
    "scraped_at": "2026-05-03 07:07:41",
    "region": "bujijie",
    "unit_price": 42.3,
    "lat": 22.603487,
    "lng": 114.111553
  },
  {
    "title": "整租·德兴花园 2室2厅 南",
    "community": "德兴花园",
    "area": "76.00",
    "rooms": "2室2厅",
    "direction": "南",
    "floor": "",
    "price": "3100",
    "tags": "",
    "source": "",
    "url": "https://sz.lianjia.com/zufang/SZ2055930252110069760.html",
    "rent_type": "整租",
    "location": "龙岗区-布吉街-德兴花园",
    "scraped_at": "2026-05-03 07:07:41",
    "region": "bujijie",
    "unit_price": 40.8,
    "lat": 22.59308,
    "lng": 114.10545
  },
  {
    "title": "独栋·心居社区 莲花路店 近水贝 地铁口押一园区 24小时安保 大单间 开间",
    "community": "心居社区 莲花路店 近水贝 地铁口押一园区 24小时安保 大单间 开间",
    "area": "22.00",
    "rooms": "",
    "direction": "",
    "floor": "",
    "price": "1580",
    "tags": "",
    "source": "",
    "url": "https://sz.lianjia.com/apartment/86380.html",
    "rent_type": "独栋",
    "location": "",
    "scraped_at": "2026-05-03 07:07:25",
    "region": "bujijie",
    "unit_price": 71.8,
    "lat": 22.768,
    "lng": 113.83624
  },
  {
    "title": "整租·德福花园 1室1厅 东",
    "community": "德福花园",
    "area": "44.00",
    "rooms": "1室1厅",
    "direction": "东",
    "floor": "",
    "price": "2300",
    "tags": "",
    "source": "",
    "url": "https://sz.lianjia.com/zufang/SZ2046222871558094848.html",
    "rent_type": "整租",
    "location": "龙岗区-布吉街-德福花园",
    "scraped_at": "2026-05-03 07:07:31",
    "region": "bujijie",
    "unit_price": 52.3,
    "lat": 22.5979,
    "lng": 114.10053
  },
  {
    "title": "整租·半山道1号礼宾府 4室2厅 东南",
    "community": "半山道1号礼宾府",
    "area": "178.00",
    "rooms": "4室2厅",
    "direction": "东南",
    "floor": "",
    "price": "15500",
    "tags": "",
    "source": "",
    "url": "https://sz.lianjia.com/zufang/SZ2056326906856341504.html",
    "rent_type": "整租",
    "location": "龙岗区-布吉街-半山道",
    "scraped_at": "2026-05-03 07:07:41",
    "region": "bujijie",
    "unit_price": 87.1,
    "lat": 22.59404,
    "lng": 114.100179
  },
  {
    "title": "整租·华昱花园 3室2厅 东南",
    "community": "华昱花园",
    "area": "95.00",
    "rooms": "3室2厅",
    "direction": "东南",
    "floor": "",
    "price": "4800",
    "tags": "",
    "source": "",
    "url": "https://sz.lianjia.com/zufang/SZ2065008651826888704.html",
    "rent_type": "整租",
    "location": "龙岗区-布吉街-华昱花园",
    "scraped_at": "2026-05-03 07:07:31",
    "region": "bujijie",
    "unit_price": 50.5,
    "lat": 22.614,
    "lng": 114.11974
  },
  {
    "title": "整租·阳光花园五期 2室1厅 南",
    "community": "阳光花园五期",
    "area": "46.33",
    "rooms": "2室1厅",
    "direction": "南",
    "floor": "",
    "price": "3500",
    "tags": "",
    "source": "",
    "url": "https://sz.lianjia.com/zufang/SZ1896801399707009024.html",
    "rent_type": "整租",
    "location": "龙岗区-布吉街-阳光花园五期",
    "scraped_at": "2026-05-03 07:08:26",
    "region": "bujijie",
    "unit_price": 75.5,
    "lat": 22.615122,
    "lng": 114.114151
  },
  {
    "title": "整租·国都花园 3室2厅 东",
    "community": "国都花园",
    "area": "96.18",
    "rooms": "3室2厅",
    "direction": "东",
    "floor": "",
    "price": "5300",
    "tags": "",
    "source": "",
    "url": "https://sz.lianjia.com/zufang/SZ2061787362853126144.html",
    "rent_type": "整租",
    "location": "龙岗区-布吉街-国都花园",
    "scraped_at": "2026-05-03 07:07:31",
    "region": "bujijie",
    "unit_price": 55.1,
    "lat": null,
    "lng": null
  },
  {
    "title": "整租·布吉中心花园 3室2厅 东南",
    "community": "布吉中心花园",
    "area": "98.00",
    "rooms": "3室2厅",
    "direction": "东南",
    "floor": "",
    "price": "4760",
    "tags": "",
    "source": "",
    "url": "https://sz.lianjia.com/zufang/SZ1895374271270617088.html",
    "rent_type": "整租",
    "location": "龙岗区-布吉街-布吉中心花园",
    "scraped_at": "2026-05-03 07:08:26",
    "region": "bujijie",
    "unit_price": 48.6,
    "lat": 22.61215,
    "lng": 114.12499
  },
  {
    "title": "整租·凯旋天玺名庭 2室1厅 南",
    "community": "凯旋天玺名庭",
    "area": "58.00",
    "rooms": "2室1厅",
    "direction": "南",
    "floor": "",
    "price": "6800",
    "tags": "",
    "source": "",
    "url": "https://sz.lianjia.com/zufang/SZ2107694405711298560.html",
    "rent_type": "整租",
    "location": "龙岗区-布吉街-凯旋天玺名庭",
    "scraped_at": "2026-05-03 07:07:28",
    "region": "bujijie",
    "unit_price": 117.2,
    "lat": 22.60902,
    "lng": 114.11204
  },
  {
    "title": "整租·钧濠MIXPark 1室0厅 北",
    "community": "钧濠MIXPark",
    "area": "29.00",
    "rooms": "1室0厅",
    "direction": "北",
    "floor": "",
    "price": "2500",
    "tags": "",
    "source": "",
    "url": "https://sz.lianjia.com/zufang/SZ2014240007052591104.html",
    "rent_type": "整租",
    "location": "龙岗区-布吉街-钧濠",
    "scraped_at": "2026-05-03 07:08:26",
    "region": "bujijie",
    "unit_price": 86.2,
    "lat": 22.611108,
    "lng": 114.118797
  },
  {
    "title": "整租·莲花山庄四村 7室2厅 北",
    "community": "莲花山庄四村",
    "area": "177.99",
    "rooms": "7室2厅",
    "direction": "北",
    "floor": "",
    "price": "8600",
    "tags": "",
    "source": "",
    "url": "https://sz.lianjia.com/zufang/SZ2111051966359535616.html",
    "rent_type": "整租",
    "location": "龙岗区-布吉街-莲花山庄四村",
    "scraped_at": "2026-05-03 07:07:28",
    "region": "bujijie",
    "unit_price": 48.3,
    "lat": 22.6035,
    "lng": 114.104927
  },
  {
    "title": "整租·吉信大厦 1室1厅 南",
    "community": "吉信大厦",
    "area": "46.00",
    "rooms": "1室1厅",
    "direction": "南",
    "floor": "",
    "price": "2050",
    "tags": "",
    "source": "",
    "url": "https://sz.lianjia.com/zufang/SZ1968886808083169280.html",
    "rent_type": "整租",
    "location": "龙岗区-布吉街-吉信大厦",
    "scraped_at": "2026-05-03 07:08:26",
    "region": "bujijie",
    "unit_price": 44.6,
    "lat": 22.603487,
    "lng": 114.111553
  },
  {
    "title": "整租·丽廷豪苑 1室1厅 北",
    "community": "丽廷豪苑",
    "area": "37.53",
    "rooms": "1室1厅",
    "direction": "北",
    "floor": "",
    "price": "2500",
    "tags": "",
    "source": "",
    "url": "https://sz.lianjia.com/zufang/SZ2051149108726464512.html",
    "rent_type": "整租",
    "location": "龙岗区-布吉街-丽廷豪苑",
    "scraped_at": "2026-05-03 07:08:26",
    "region": "bujijie",
    "unit_price": 66.6,
    "lat": 22.60868,
    "lng": 114.107
  },
  {
    "title": "整租·泽润华庭 1室1厅 北",
    "community": "泽润华庭",
    "area": "48.53",
    "rooms": "1室1厅",
    "direction": "北",
    "floor": "",
    "price": "2750",
    "tags": "",
    "source": "",
    "url": "https://sz.lianjia.com/zufang/SZ2025504237122748416.html",
    "rent_type": "整租",
    "location": "龙岗区-布吉街-泽润华庭",
    "scraped_at": "2026-05-03 07:08:26",
    "region": "bujijie",
    "unit_price": 56.7,
    "lat": 22.5969,
    "lng": 114.10503
  },
  {
    "title": "整租·德福花园 1室1厅 西",
    "community": "德福花园",
    "area": "41.82",
    "rooms": "1室1厅",
    "direction": "西",
    "floor": "",
    "price": "2100",
    "tags": "",
    "source": "",
    "url": "https://sz.lianjia.com/zufang/SZ1724000161492893696.html",
    "rent_type": "整租",
    "location": "龙岗区-布吉街-德福花园",
    "scraped_at": "2026-05-03 07:08:26",
    "region": "bujijie",
    "unit_price": 50.2,
    "lat": 22.5979,
    "lng": 114.10053
  },
  {
    "title": "整租·吉信大厦 1室1厅 西南",
    "community": "吉信大厦",
    "area": "40.35",
    "rooms": "1室1厅",
    "direction": "西南",
    "floor": "",
    "price": "2163",
    "tags": "",
    "source": "",
    "url": "https://sz.lianjia.com/zufang/SZ1724342964223737856.html",
    "rent_type": "整租",
    "location": "龙岗区-布吉街-吉信大厦",
    "scraped_at": "2026-05-03 07:08:26",
    "region": "bujijie",
    "unit_price": 53.6,
    "lat": 22.603487,
    "lng": 114.111553
  },
  {
    "title": "整租·德福花园 1室1厅 西",
    "community": "德福花园",
    "area": "41.82",
    "rooms": "1室1厅",
    "direction": "西",
    "floor": "",
    "price": "2100",
    "tags": "",
    "source": "",
    "url": "https://sz.lianjia.com/zufang/SZ1884863460102111232.html",
    "rent_type": "整租",
    "location": "龙岗区-布吉街-德福花园",
    "scraped_at": "2026-05-03 07:08:26",
    "region": "bujijie",
    "unit_price": 50.2,
    "lat": 22.5979,
    "lng": 114.10053
  },
  {
    "title": "整租·茂宝大厦 2室1厅 西南",
    "community": "茂宝大厦",
    "area": "65.00",
    "rooms": "2室1厅",
    "direction": "西南",
    "floor": "",
    "price": "2800",
    "tags": "",
    "source": "",
    "url": "https://sz.lianjia.com/zufang/SZ2110585396759887872.html",
    "rent_type": "整租",
    "location": "龙岗区-布吉街-茂宝大厦",
    "scraped_at": "2026-05-03 07:07:28",
    "region": "bujijie",
    "unit_price": 43.1,
    "lat": 22.60815,
    "lng": 114.12164
  },
  {
    "title": "整租·德兴花园 3室2厅 南",
    "community": "德兴花园",
    "area": "103.43",
    "rooms": "3室2厅",
    "direction": "南",
    "floor": "",
    "price": "4300",
    "tags": "",
    "source": "",
    "url": "https://sz.lianjia.com/zufang/SZ2116899551573966848.html",
    "rent_type": "整租",
    "location": "龙岗区-布吉街-德兴花园",
    "scraped_at": "2026-05-03 07:07:41",
    "region": "bujijie",
    "unit_price": 41.6,
    "lat": 22.59308,
    "lng": 114.10545
  },
  {
    "title": "整租·布吉中心花园 1室1厅 东北",
    "community": "布吉中心花园",
    "area": "42.92",
    "rooms": "1室1厅",
    "direction": "东北",
    "floor": "",
    "price": "3300",
    "tags": "",
    "source": "",
    "url": "https://sz.lianjia.com/zufang/SZ2117252592982556672.html",
    "rent_type": "整租",
    "location": "龙岗区-布吉街-布吉中心花园",
    "scraped_at": "2026-05-03 07:07:41",
    "region": "bujijie",
    "unit_price": 76.9,
    "lat": 22.61215,
    "lng": 114.12499
  },
  {
    "title": "整租·格塘新村 1室1厅 南",
    "community": "格塘新村",
    "area": "26.00",
    "rooms": "1室1厅",
    "direction": "南",
    "floor": "",
    "price": "1500",
    "tags": "",
    "source": "",
    "url": "https://sz.lianjia.com/zufang/SZ2119297848171298816.html",
    "rent_type": "整租",
    "location": "龙岗区-布吉街-格塘新村",
    "scraped_at": "2026-05-03 07:08:16",
    "region": "bujijie",
    "unit_price": 57.7,
    "lat": 22.60395,
    "lng": 114.09966
  },
  {
    "title": "整租·龙岭山庄 3室2厅 南",
    "community": "龙岭山庄",
    "area": "106.00",
    "rooms": "3室2厅",
    "direction": "南",
    "floor": "",
    "price": "3800",
    "tags": "",
    "source": "",
    "url": "https://sz.lianjia.com/zufang/SZ2118181820573941760.html",
    "rent_type": "整租",
    "location": "龙岗区-布吉街-龙岭山庄",
    "scraped_at": "2026-05-03 07:08:16",
    "region": "bujijie",
    "unit_price": 35.8,
    "lat": 22.607997,
    "lng": 114.105829
  },
  {
    "title": "整租·灏景明苑二期 1室1厅 南/北",
    "community": "灏景明苑二期",
    "area": "44.72",
    "rooms": "1室1厅",
    "direction": "南/北",
    "floor": "",
    "price": "4000",
    "tags": "",
    "source": "",
    "url": "https://sz.lianjia.com/zufang/SZ2122885783667867648.html",
    "rent_type": "整租",
    "location": "龙岗区-布吉街-灏景明苑二期",
    "scraped_at": "2026-05-03 07:07:31",
    "region": "bujijie",
    "unit_price": 89.4,
    "lat": 22.612135,
    "lng": 114.12538
  },
  {
    "title": "整租·德兴城花园 1室1厅 北",
    "community": "德兴城花园",
    "area": "45.00",
    "rooms": "1室1厅",
    "direction": "北",
    "floor": "",
    "price": "2000",
    "tags": "",
    "source": "",
    "url": "https://sz.lianjia.com/zufang/SZ2130605172181696512.html",
    "rent_type": "整租",
    "location": "龙岗区-布吉街-德兴城花园",
    "scraped_at": "2026-05-03 07:07:38",
    "region": "bujijie",
    "unit_price": 44.4,
    "lat": 22.609902,
    "lng": 114.110498
  },
  {
    "title": "整租·华昱花园 3室2厅 西北",
    "community": "华昱花园",
    "area": "100.00",
    "rooms": "3室2厅",
    "direction": "西北",
    "floor": "",
    "price": "3888",
    "tags": "",
    "source": "",
    "url": "https://sz.lianjia.com/zufang/SZ2127350408245411840.html",
    "rent_type": "整租",
    "location": "龙岗区-布吉街-华昱花园",
    "scraped_at": "2026-05-03 07:07:38",
    "region": "bujijie",
    "unit_price": 38.9,
    "lat": 22.614,
    "lng": 114.11974
  },
  {
    "title": "整租·翠枫豪园二期 2室2厅 东南",
    "community": "翠枫豪园二期",
    "area": "68.44",
    "rooms": "2室2厅",
    "direction": "东南",
    "floor": "",
    "price": "4300",
    "tags": "",
    "source": "",
    "url": "https://sz.lianjia.com/zufang/SZ2144088247498702848.html",
    "rent_type": "整租",
    "location": "龙岗区-布吉街-翠枫豪园二期",
    "scraped_at": "2026-05-03 07:07:28",
    "region": "bujijie",
    "unit_price": 62.8,
    "lat": 22.6142,
    "lng": 114.09727
  },
  {
    "title": "整租·阳光花园五期 1室1厅 北",
    "community": "阳光花园五期",
    "area": "46.31",
    "rooms": "1室1厅",
    "direction": "北",
    "floor": "",
    "price": "3600",
    "tags": "",
    "source": "",
    "url": "https://sz.lianjia.com/zufang/SZ2143659606545530880.html",
    "rent_type": "整租",
    "location": "龙岗区-布吉街-阳光花园五期",
    "scraped_at": "2026-05-03 07:07:28",
    "region": "bujijie",
    "unit_price": 77.7,
    "lat": 22.615122,
    "lng": 114.114151
  },
  {
    "title": "整租·德兴城花园 1室1厅 南",
    "community": "德兴城花园",
    "area": "51.00",
    "rooms": "1室1厅",
    "direction": "南",
    "floor": "",
    "price": "2100",
    "tags": "",
    "source": "",
    "url": "https://sz.lianjia.com/zufang/SZ2144442455154491392.html",
    "rent_type": "整租",
    "location": "龙岗区-布吉街-德兴城花园",
    "scraped_at": "2026-05-03 07:07:28",
    "region": "bujijie",
    "unit_price": 41.2,
    "lat": 22.609902,
    "lng": 114.110498
  },
  {
    "title": "整租·德兴花园 3室1厅 北",
    "community": "德兴花园",
    "area": "103.00",
    "rooms": "3室1厅",
    "direction": "北",
    "floor": "",
    "price": "3500",
    "tags": "",
    "source": "",
    "url": "https://sz.lianjia.com/zufang/SZ2145558888936636416.html",
    "rent_type": "整租",
    "location": "龙岗区-布吉街-德兴花园",
    "scraped_at": "2026-05-03 07:07:28",
    "region": "bujijie",
    "unit_price": 34.0,
    "lat": 22.59308,
    "lng": 114.10545
  },
  {
    "title": "整租·吉信大厦 4室2厅 复式 南",
    "community": "吉信大厦",
    "area": "73.78",
    "rooms": "4室2厅",
    "direction": "",
    "floor": "",
    "price": "6500",
    "tags": "",
    "source": "",
    "url": "https://sz.lianjia.com/zufang/SZ2140844876328075264.html",
    "rent_type": "整租",
    "location": "龙岗区-布吉街-吉信大厦",
    "scraped_at": "2026-05-03 07:07:35",
    "region": "bujijie",
    "unit_price": 88.1,
    "lat": 22.603487,
    "lng": 114.111553
  },
  {
    "title": "整租·宝龙花园 4室2厅 跃层 东/东南/南/北",
    "community": "宝龙花园",
    "area": "170.00",
    "rooms": "4室2厅",
    "direction": "",
    "floor": "",
    "price": "6600",
    "tags": "",
    "source": "",
    "url": "https://sz.lianjia.com/zufang/SZ2141017741186826240.html",
    "rent_type": "整租",
    "location": "龙岗区-布吉街-宝龙花园",
    "scraped_at": "2026-05-03 07:07:28",
    "region": "bujijie",
    "unit_price": 38.8,
    "lat": 22.60751,
    "lng": 114.11221
  },
  {
    "title": "整租·吉信大厦 1室1厅 南",
    "community": "吉信大厦",
    "area": "47.82",
    "rooms": "1室1厅",
    "direction": "南",
    "floor": "",
    "price": "2400",
    "tags": "",
    "source": "",
    "url": "https://sz.lianjia.com/zufang/SZ2140082341253480448.html",
    "rent_type": "整租",
    "location": "龙岗区-布吉街-吉信大厦",
    "scraped_at": "2026-05-03 07:07:35",
    "region": "bujijie",
    "unit_price": 50.2,
    "lat": 22.603487,
    "lng": 114.111553
  },
  {
    "title": "整租·鸿景豪苑 3室2厅 东南",
    "community": "鸿景豪苑",
    "area": "94.00",
    "rooms": "3室2厅",
    "direction": "东南",
    "floor": "",
    "price": "4500",
    "tags": "",
    "source": "",
    "url": "https://sz.lianjia.com/zufang/SZ2142964976749379584.html",
    "rent_type": "整租",
    "location": "龙岗区-布吉街-鸿景豪苑",
    "scraped_at": "2026-05-03 07:07:28",
    "region": "bujijie",
    "unit_price": 47.9,
    "lat": 22.6133,
    "lng": 114.12508
  },
  {
    "title": "整租·丽廷豪苑 1室1厅 西北",
    "community": "丽廷豪苑",
    "area": "37.53",
    "rooms": "1室1厅",
    "direction": "西北",
    "floor": "",
    "price": "2600",
    "tags": "",
    "source": "",
    "url": "https://sz.lianjia.com/zufang/SZ2144040022934814720.html",
    "rent_type": "整租",
    "location": "龙岗区-布吉街-丽廷豪苑",
    "scraped_at": "2026-05-03 07:07:38",
    "region": "bujijie",
    "unit_price": 69.3,
    "lat": 22.60868,
    "lng": 114.107
  },
  {
    "title": "整租·阳光花园四期 3室2厅 东/西",
    "community": "阳光花园四期",
    "area": "107.90",
    "rooms": "3室2厅",
    "direction": "东/西",
    "floor": "",
    "price": "6200",
    "tags": "",
    "source": "",
    "url": "https://sz.lianjia.com/zufang/SZ2147376385876819968.html",
    "rent_type": "整租",
    "location": "龙岗区-布吉街-阳光花园四期",
    "scraped_at": "2026-05-03 07:07:28",
    "region": "bujijie",
    "unit_price": 57.5,
    "lat": 22.633633,
    "lng": 114.094864
  },
  {
    "title": "整租·德兴花园 2室2厅 南",
    "community": "德兴花园",
    "area": "76.00",
    "rooms": "2室2厅",
    "direction": "南",
    "floor": "",
    "price": "3800",
    "tags": "",
    "source": "",
    "url": "https://sz.lianjia.com/zufang/SZ2148301982274682880.html",
    "rent_type": "整租",
    "location": "龙岗区-布吉街-德兴花园",
    "scraped_at": "2026-05-03 07:07:28",
    "region": "bujijie",
    "unit_price": 50.0,
    "lat": 22.59308,
    "lng": 114.10545
  },
  {
    "title": "整租·花语馨 3室2厅 东",
    "community": "花语馨",
    "area": "83.00",
    "rooms": "3室2厅",
    "direction": "东",
    "floor": "",
    "price": "5000",
    "tags": "",
    "source": "",
    "url": "https://sz.lianjia.com/zufang/SZ2151248725706539008.html",
    "rent_type": "整租",
    "location": "龙岗区-布吉街-花语馨",
    "scraped_at": "2026-05-03 07:07:45",
    "region": "bujijie",
    "unit_price": 60.2,
    "lat": 22.6168,
    "lng": 114.1118
  },
  {
    "title": "整租·德兴城花园 2室2厅 西",
    "community": "德兴城花园",
    "area": "60.57",
    "rooms": "2室2厅",
    "direction": "西",
    "floor": "",
    "price": "3500",
    "tags": "",
    "source": "",
    "url": "https://sz.lianjia.com/zufang/SZ2152029854017519616.html",
    "rent_type": "整租",
    "location": "龙岗区-布吉街-德兴城花园",
    "scraped_at": "2026-05-03 07:07:45",
    "region": "bujijie",
    "unit_price": 57.8,
    "lat": 22.609902,
    "lng": 114.110498
  },
  {
    "title": "整租·德福花园 2室1厅 北",
    "community": "德福花园",
    "area": "43.00",
    "rooms": "2室1厅",
    "direction": "北",
    "floor": "",
    "price": "2200",
    "tags": "",
    "source": "",
    "url": "https://sz.lianjia.com/zufang/SZ2150473618222481408.html",
    "rent_type": "整租",
    "location": "龙岗区-布吉街-德福花园",
    "scraped_at": "2026-05-03 07:07:28",
    "region": "bujijie",
    "unit_price": 51.2,
    "lat": 22.5979,
    "lng": 114.10053
  },
  {
    "title": "整租·鸿景豪苑 2室2厅 东北",
    "community": "鸿景豪苑",
    "area": "70.46",
    "rooms": "2室2厅",
    "direction": "东北",
    "floor": "",
    "price": "4000",
    "tags": "",
    "source": "",
    "url": "https://sz.lianjia.com/zufang/SZ2149510765734789120.html",
    "rent_type": "整租",
    "location": "龙岗区-布吉街-鸿景豪苑",
    "scraped_at": "2026-05-03 07:07:45",
    "region": "bujijie",
    "unit_price": 56.8,
    "lat": 22.6133,
    "lng": 114.12508
  },
  {
    "title": "整租·德兴花园 3室2厅 南",
    "community": "德兴花园",
    "area": "106.00",
    "rooms": "3室2厅",
    "direction": "南",
    "floor": "",
    "price": "3600",
    "tags": "",
    "source": "",
    "url": "https://sz.lianjia.com/zufang/SZ2153139146556702720.html",
    "rent_type": "整租",
    "location": "龙岗区-布吉街-德兴花园",
    "scraped_at": "2026-05-03 07:07:28",
    "region": "bujijie",
    "unit_price": 34.0,
    "lat": 22.59308,
    "lng": 114.10545
  },
  {
    "title": "整租·大世纪花园 3室1厅 北",
    "community": "大世纪花园",
    "area": "77.00",
    "rooms": "3室1厅",
    "direction": "北",
    "floor": "",
    "price": "4200",
    "tags": "",
    "source": "",
    "url": "https://sz.lianjia.com/zufang/SZ2160625506397978624.html",
    "rent_type": "整租",
    "location": "龙岗区-布吉街-大世纪花园",
    "scraped_at": "2026-05-03 07:07:28",
    "region": "bujijie",
    "unit_price": 54.5,
    "lat": 22.61383,
    "lng": 114.12061
  },
  {
    "title": "整租·德福花园 2室1厅 东南",
    "community": "德福花园",
    "area": "45.58",
    "rooms": "2室1厅",
    "direction": "东南",
    "floor": "",
    "price": "3000",
    "tags": "",
    "source": "",
    "url": "https://sz.lianjia.com/zufang/SZ2161056128698417152.html",
    "rent_type": "整租",
    "location": "龙岗区-布吉街-德福花园",
    "scraped_at": "2026-05-03 07:07:28",
    "region": "bujijie",
    "unit_price": 65.8,
    "lat": 22.5979,
    "lng": 114.10053
  },
  {
    "title": "整租·吉信大厦 1室1厅 东南",
    "community": "吉信大厦",
    "area": "41.61",
    "rooms": "1室1厅",
    "direction": "东南",
    "floor": "",
    "price": "2800",
    "tags": "",
    "source": "",
    "url": "https://sz.lianjia.com/zufang/SZ2145136128938737664.html",
    "rent_type": "整租",
    "location": "龙岗区-布吉街-吉信大厦",
    "scraped_at": "2026-05-03 07:07:28",
    "region": "bujijie",
    "unit_price": 67.3,
    "lat": 22.603487,
    "lng": 114.111553
  },
  {
    "title": "整租·龙岭山庄 3室2厅 南/北",
    "community": "龙岭山庄",
    "area": "105.00",
    "rooms": "3室2厅",
    "direction": "南/北",
    "floor": "",
    "price": "3900",
    "tags": "",
    "source": "",
    "url": "https://sz.lianjia.com/zufang/SZ2121860625872191488.html",
    "rent_type": "整租",
    "location": "龙岗区-布吉街-龙岭山庄",
    "scraped_at": "2026-05-03 07:07:31",
    "region": "bujijie",
    "unit_price": 37.1,
    "lat": 22.607997,
    "lng": 114.105829
  },
  {
    "title": "整租·凯旋天玺名庭 1室1厅 南",
    "community": "凯旋天玺名庭",
    "area": "38.70",
    "rooms": "1室1厅",
    "direction": "南",
    "floor": "",
    "price": "3800",
    "tags": "",
    "source": "",
    "url": "https://sz.lianjia.com/zufang/SZ2124427551651659776.html",
    "rent_type": "整租",
    "location": "龙岗区-布吉街-凯旋天玺名庭",
    "scraped_at": "2026-05-03 07:07:31",
    "region": "bujijie",
    "unit_price": 98.2,
    "lat": 22.60902,
    "lng": 114.11204
  },
  {
    "title": "整租·德兴花园 3室1厅 南",
    "community": "德兴花园",
    "area": "76.00",
    "rooms": "3室1厅",
    "direction": "南",
    "floor": "",
    "price": "4500",
    "tags": "",
    "source": "",
    "url": "https://sz.lianjia.com/zufang/SZ2127258647544201216.html",
    "rent_type": "整租",
    "location": "龙岗区-布吉街-德兴花园",
    "scraped_at": "2026-05-03 07:08:16",
    "region": "bujijie",
    "unit_price": 59.2,
    "lat": 22.59308,
    "lng": 114.10545
  },
  {
    "title": "整租·德兴花园 3室2厅 南",
    "community": "德兴花园",
    "area": "93.00",
    "rooms": "3室2厅",
    "direction": "南",
    "floor": "",
    "price": "4000",
    "tags": "",
    "source": "",
    "url": "https://sz.lianjia.com/zufang/SZ1897658776660475904.html",
    "rent_type": "整租",
    "location": "龙岗区-布吉街-德兴花园",
    "scraped_at": "2026-05-03 07:07:31",
    "region": "bujijie",
    "unit_price": 43.0,
    "lat": 22.59308,
    "lng": 114.10545
  },
  {
    "title": "整租·德福花园 3室2厅 东南",
    "community": "德福花园",
    "area": "96.00",
    "rooms": "3室2厅",
    "direction": "东南",
    "floor": "",
    "price": "4300",
    "tags": "",
    "source": "",
    "url": "https://sz.lianjia.com/zufang/SZ1948701241479528448.html",
    "rent_type": "整租",
    "location": "龙岗区-布吉街-德福花园",
    "scraped_at": "2026-05-03 07:07:41",
    "region": "bujijie",
    "unit_price": 44.8,
    "lat": 22.5979,
    "lng": 114.10053
  },
  {
    "title": "整租·佳兆业壹都汇大厦 2室1厅 东南",
    "community": "佳兆业壹都汇大厦",
    "area": "95.00",
    "rooms": "2室1厅",
    "direction": "东南",
    "floor": "",
    "price": "4000",
    "tags": "",
    "source": "",
    "url": "https://sz.lianjia.com/zufang/SZ1937801649288380416.html",
    "rent_type": "整租",
    "location": "龙岗区-布吉街-佳兆业壹都汇大厦",
    "scraped_at": "2026-05-03 07:07:31",
    "region": "bujijie",
    "unit_price": 42.1,
    "lat": 22.60926,
    "lng": 114.12558
  },
  {
    "title": "整租·青青家园 2室1厅 南",
    "community": "青青家园",
    "area": "56.00",
    "rooms": "2室1厅",
    "direction": "南",
    "floor": "",
    "price": "1800",
    "tags": "",
    "source": "",
    "url": "https://sz.lianjia.com/zufang/SZ1809825163747786752.html",
    "rent_type": "整租",
    "location": "龙岗区-布吉街-青青家园",
    "scraped_at": "2026-05-03 07:07:41",
    "region": "bujijie",
    "unit_price": 32.1,
    "lat": 22.616095,
    "lng": 114.094831
  },
  {
    "title": "整租·德兴花园 3室2厅 北",
    "community": "德兴花园",
    "area": "103.88",
    "rooms": "3室2厅",
    "direction": "北",
    "floor": "",
    "price": "3600",
    "tags": "",
    "source": "",
    "url": "https://sz.lianjia.com/zufang/SZ2011739976970010624.html",
    "rent_type": "整租",
    "location": "龙岗区-布吉街-德兴花园",
    "scraped_at": "2026-05-03 07:07:41",
    "region": "bujijie",
    "unit_price": 34.7,
    "lat": 22.59308,
    "lng": 114.10545
  },
  {
    "title": "整租·德福花园 2室2厅 东南",
    "community": "德福花园",
    "area": "52.00",
    "rooms": "2室2厅",
    "direction": "东南",
    "floor": "",
    "price": "2500",
    "tags": "",
    "source": "",
    "url": "https://sz.lianjia.com/zufang/SZ2017134540396429312.html",
    "rent_type": "整租",
    "location": "龙岗区-布吉街-德福花园",
    "scraped_at": "2026-05-03 07:07:31",
    "region": "bujijie",
    "unit_price": 48.1,
    "lat": 22.5979,
    "lng": 114.10053
  },
  {
    "title": "合租·德兴花园 1居室 东卧",
    "community": "德兴花园 1居室 东卧",
    "area": "15.00",
    "rooms": "",
    "direction": "",
    "floor": "",
    "price": "1300",
    "tags": "",
    "source": "",
    "url": "https://sz.lianjia.com/zufang/SZ1912810360084103168.html",
    "rent_type": "合租",
    "location": "龙岗区-布吉街-德兴花园",
    "scraped_at": "2026-05-03 07:07:31",
    "region": "bujijie",
    "unit_price": 86.7,
    "lat": 22.590527,
    "lng": 114.11048
  },
  {
    "title": "整租·佳兆业壹都汇大厦 1室0厅 东",
    "community": "佳兆业壹都汇大厦",
    "area": "40.00",
    "rooms": "1室0厅",
    "direction": "东",
    "floor": "",
    "price": "2200",
    "tags": "",
    "source": "",
    "url": "https://sz.lianjia.com/zufang/SZ1953719079588069376.html",
    "rent_type": "整租",
    "location": "龙岗区-布吉街-佳兆业壹都汇大厦",
    "scraped_at": "2026-05-03 07:07:31",
    "region": "bujijie",
    "unit_price": 55.0,
    "lat": 22.60926,
    "lng": 114.12558
  },
  {
    "title": "整租·莲花山庄五村 7室2厅 南",
    "community": "莲花山庄五村",
    "area": "322.12",
    "rooms": "7室2厅",
    "direction": "南",
    "floor": "",
    "price": "20000",
    "tags": "",
    "source": "",
    "url": "https://sz.lianjia.com/zufang/SZ1977243006574526464.html",
    "rent_type": "整租",
    "location": "龙岗区-布吉街-莲花山庄五村",
    "scraped_at": "2026-05-03 07:07:31",
    "region": "bujijie",
    "unit_price": 62.1,
    "lat": 22.603808,
    "lng": 114.10609
  },
  {
    "title": "整租·龙岭山庄 3室2厅 南/北",
    "community": "龙岭山庄",
    "area": "71.86",
    "rooms": "3室2厅",
    "direction": "南/北",
    "floor": "",
    "price": "3500",
    "tags": "",
    "source": "",
    "url": "https://sz.lianjia.com/zufang/SZ2062099014353944576.html",
    "rent_type": "整租",
    "location": "龙岗区-布吉街-龙岭山庄",
    "scraped_at": "2026-05-03 07:07:31",
    "region": "bujijie",
    "unit_price": 48.7,
    "lat": 22.607997,
    "lng": 114.105829
  },
  {
    "title": "整租·莲花山庄二村 8室3厅 东南",
    "community": "莲花山庄二村",
    "area": "221.90",
    "rooms": "8室3厅",
    "direction": "东南",
    "floor": "",
    "price": "17500",
    "tags": "",
    "source": "",
    "url": "https://sz.lianjia.com/zufang/SZ2044019604002439168.html",
    "rent_type": "整租",
    "location": "龙岗区-布吉街-莲花山庄二村",
    "scraped_at": "2026-05-03 07:07:41",
    "region": "bujijie",
    "unit_price": 78.9,
    "lat": 22.601001,
    "lng": 114.103082
  },
  {
    "title": "整租·德福花园 1室1厅 西",
    "community": "德福花园",
    "area": "43.10",
    "rooms": "1室1厅",
    "direction": "西",
    "floor": "",
    "price": "1500",
    "tags": "",
    "source": "",
    "url": "https://sz.lianjia.com/zufang/SZ2078864484448862208.html",
    "rent_type": "整租",
    "location": "龙岗区-布吉街-德福花园",
    "scraped_at": "2026-05-03 07:07:31",
    "region": "bujijie",
    "unit_price": 34.8,
    "lat": 22.5979,
    "lng": 114.10053
  },
  {
    "title": "整租·钧濠MIXPark 1室0厅 东南",
    "community": "钧濠MIXPark",
    "area": "29.27",
    "rooms": "1室0厅",
    "direction": "东南",
    "floor": "",
    "price": "2800",
    "tags": "",
    "source": "",
    "url": "https://sz.lianjia.com/zufang/SZ2087561022087888896.html",
    "rent_type": "整租",
    "location": "龙岗区-布吉街-钧濠",
    "scraped_at": "2026-05-03 07:07:31",
    "region": "bujijie",
    "unit_price": 95.7,
    "lat": 22.611108,
    "lng": 114.118797
  },
  {
    "title": "整租·宝龙花园 3室2厅 东南",
    "community": "宝龙花园",
    "area": "116.00",
    "rooms": "3室2厅",
    "direction": "东南",
    "floor": "",
    "price": "5000",
    "tags": "",
    "source": "",
    "url": "https://sz.lianjia.com/zufang/SZ2087112396349898752.html",
    "rent_type": "整租",
    "location": "龙岗区-布吉街-宝龙花园",
    "scraped_at": "2026-05-03 07:07:31",
    "region": "bujijie",
    "unit_price": 43.1,
    "lat": 22.60751,
    "lng": 114.11221
  },
  {
    "title": "整租·宝龙花园 3室2厅 东南",
    "community": "宝龙花园",
    "area": "116.00",
    "rooms": "3室2厅",
    "direction": "东南",
    "floor": "",
    "price": "4500",
    "tags": "",
    "source": "",
    "url": "https://sz.lianjia.com/zufang/SZ2087112073887612928.html",
    "rent_type": "整租",
    "location": "龙岗区-布吉街-宝龙花园",
    "scraped_at": "2026-05-03 07:07:31",
    "region": "bujijie",
    "unit_price": 38.8,
    "lat": 22.60751,
    "lng": 114.11221
  },
  {
    "title": "整租·德兴花园 3室2厅 南",
    "community": "德兴花园",
    "area": "95.00",
    "rooms": "3室2厅",
    "direction": "南",
    "floor": "",
    "price": "3000",
    "tags": "",
    "source": "",
    "url": "https://sz.lianjia.com/zufang/SZ2084214216805318656.html",
    "rent_type": "整租",
    "location": "龙岗区-布吉街-德兴花园",
    "scraped_at": "2026-05-03 07:07:31",
    "region": "bujijie",
    "unit_price": 31.6,
    "lat": 22.59308,
    "lng": 114.10545
  },
  {
    "title": "整租·宝龙花园 2室1厅 南",
    "community": "宝龙花园",
    "area": "91.00",
    "rooms": "2室1厅",
    "direction": "南",
    "floor": "",
    "price": "4500",
    "tags": "",
    "source": "",
    "url": "https://sz.lianjia.com/zufang/SZ2087112818108137472.html",
    "rent_type": "整租",
    "location": "龙岗区-布吉街-宝龙花园",
    "scraped_at": "2026-05-03 07:07:31",
    "region": "bujijie",
    "unit_price": 49.5,
    "lat": 22.60751,
    "lng": 114.11221
  },
  {
    "title": "整租·宝龙花园 3室2厅 东南",
    "community": "宝龙花园",
    "area": "116.00",
    "rooms": "3室2厅",
    "direction": "东南",
    "floor": "",
    "price": "5000",
    "tags": "",
    "source": "",
    "url": "https://sz.lianjia.com/zufang/SZ2087111577810501632.html",
    "rent_type": "整租",
    "location": "龙岗区-布吉街-宝龙花园",
    "scraped_at": "2026-05-03 07:07:31",
    "region": "bujijie",
    "unit_price": 43.1,
    "lat": 22.60751,
    "lng": 114.11221
  },
  {
    "title": "整租·宝龙花园 4室2厅 东北",
    "community": "宝龙花园",
    "area": "178.00",
    "rooms": "4室2厅",
    "direction": "东北",
    "floor": "",
    "price": "6500",
    "tags": "",
    "source": "",
    "url": "https://sz.lianjia.com/zufang/SZ2091398995418021888.html",
    "rent_type": "整租",
    "location": "龙岗区-布吉街-宝龙花园",
    "scraped_at": "2026-05-03 07:07:31",
    "region": "bujijie",
    "unit_price": 36.5,
    "lat": 22.60751,
    "lng": 114.11221
  },
  {
    "title": "整租·诚信华庭 3室2厅 东南",
    "community": "诚信华庭",
    "area": "104.00",
    "rooms": "3室2厅",
    "direction": "东南",
    "floor": "",
    "price": "5500",
    "tags": "",
    "source": "",
    "url": "https://sz.lianjia.com/zufang/SZ2104808009224945664.html",
    "rent_type": "整租",
    "location": "龙岗区-布吉街-诚信华庭",
    "scraped_at": "2026-05-03 07:07:31",
    "region": "bujijie",
    "unit_price": 52.9,
    "lat": 22.60961,
    "lng": 114.12334
  },
  {
    "title": "整租·布吉中心花园 2室2厅 西北/东北",
    "community": "布吉中心花园",
    "area": "74.00",
    "rooms": "2室2厅",
    "direction": "西北/东北",
    "floor": "",
    "price": "4000",
    "tags": "",
    "source": "",
    "url": "https://sz.lianjia.com/zufang/SZ2103097005369720832.html",
    "rent_type": "整租",
    "location": "龙岗区-布吉街-布吉中心花园",
    "scraped_at": "2026-05-03 07:07:41",
    "region": "bujijie",
    "unit_price": 54.1,
    "lat": 22.61215,
    "lng": 114.12499
  },
  {
    "title": "整租·布吉中心花园 2室2厅 南",
    "community": "布吉中心花园",
    "area": "44.98",
    "rooms": "2室2厅",
    "direction": "南",
    "floor": "",
    "price": "3400",
    "tags": "",
    "source": "",
    "url": "https://sz.lianjia.com/zufang/SZ2118927196654403584.html",
    "rent_type": "整租",
    "location": "龙岗区-布吉街-布吉中心花园",
    "scraped_at": "2026-05-03 07:07:41",
    "region": "bujijie",
    "unit_price": 75.6,
    "lat": 22.61215,
    "lng": 114.12499
  },
  {
    "title": "整租·格塘新村 1室0厅 南",
    "community": "格塘新村",
    "area": "18.00",
    "rooms": "1室0厅",
    "direction": "南",
    "floor": "",
    "price": "1500",
    "tags": "",
    "source": "",
    "url": "https://sz.lianjia.com/zufang/SZ2119311403641733120.html",
    "rent_type": "整租",
    "location": "龙岗区-布吉街-格塘新村",
    "scraped_at": "2026-05-03 07:07:35",
    "region": "bujijie",
    "unit_price": 83.3,
    "lat": 22.60395,
    "lng": 114.09966
  },
  {
    "title": "整租·花语岸 3室2厅 南",
    "community": "花语岸",
    "area": "100.00",
    "rooms": "3室2厅",
    "direction": "南",
    "floor": "",
    "price": "5600",
    "tags": "",
    "source": "",
    "url": "https://sz.lianjia.com/zufang/SZ2119361779246039040.html",
    "rent_type": "整租",
    "location": "龙岗区-布吉街-花语岸",
    "scraped_at": "2026-05-03 07:07:35",
    "region": "bujijie",
    "unit_price": 56.0,
    "lat": 22.615529,
    "lng": 114.111264
  },
  {
    "title": "整租·钧濠MIXPark 1室1厅 复式 南",
    "community": "钧濠MIXPark",
    "area": "29.00",
    "rooms": "1室1厅",
    "direction": "",
    "floor": "",
    "price": "3000",
    "tags": "",
    "source": "",
    "url": "https://sz.lianjia.com/zufang/SZ2123274236360392704.html",
    "rent_type": "整租",
    "location": "龙岗区-布吉街-钧濠",
    "scraped_at": "2026-05-03 07:07:35",
    "region": "bujijie",
    "unit_price": 103.4,
    "lat": 22.611108,
    "lng": 114.118797
  },
  {
    "title": "整租·佳兆业壹都汇大厦 1室0厅 西南",
    "community": "佳兆业壹都汇大厦",
    "area": "47.00",
    "rooms": "1室0厅",
    "direction": "西南",
    "floor": "",
    "price": "2600",
    "tags": "",
    "source": "",
    "url": "https://sz.lianjia.com/zufang/SZ2127012885392523264.html",
    "rent_type": "整租",
    "location": "龙岗区-布吉街-佳兆业壹都汇大厦",
    "scraped_at": "2026-05-03 07:07:35",
    "region": "bujijie",
    "unit_price": 55.3,
    "lat": 22.60926,
    "lng": 114.12558
  },
  {
    "title": "整租·德兴花园 3室2厅 南",
    "community": "德兴花园",
    "area": "99.62",
    "rooms": "3室2厅",
    "direction": "南",
    "floor": "",
    "price": "3600",
    "tags": "",
    "source": "",
    "url": "https://sz.lianjia.com/zufang/SZ2126301626435108864.html",
    "rent_type": "整租",
    "location": "龙岗区-布吉街-德兴花园",
    "scraped_at": "2026-05-03 07:07:35",
    "region": "bujijie",
    "unit_price": 36.1,
    "lat": 22.59308,
    "lng": 114.10545
  },
  {
    "title": "整租·凯旋天玺名庭 3室2厅 西",
    "community": "凯旋天玺名庭",
    "area": "82.27",
    "rooms": "3室2厅",
    "direction": "西",
    "floor": "",
    "price": "6000",
    "tags": "",
    "source": "",
    "url": "https://sz.lianjia.com/zufang/SZ2126592684108808192.html",
    "rent_type": "整租",
    "location": "龙岗区-布吉街-凯旋天玺名庭",
    "scraped_at": "2026-05-03 07:07:35",
    "region": "bujijie",
    "unit_price": 72.9,
    "lat": 22.60902,
    "lng": 114.11204
  },
  {
    "title": "整租·丽廷豪苑 2室1厅 东",
    "community": "丽廷豪苑",
    "area": "63.00",
    "rooms": "2室1厅",
    "direction": "东",
    "floor": "",
    "price": "3600",
    "tags": "",
    "source": "",
    "url": "https://sz.lianjia.com/zufang/SZ2126988319882477568.html",
    "rent_type": "整租",
    "location": "龙岗区-布吉街-丽廷豪苑",
    "scraped_at": "2026-05-03 07:07:35",
    "region": "bujijie",
    "unit_price": 57.1,
    "lat": 22.60868,
    "lng": 114.107
  },
  {
    "title": "整租·德福花园 2室1厅 南",
    "community": "德福花园",
    "area": "51.00",
    "rooms": "2室1厅",
    "direction": "南",
    "floor": "",
    "price": "2600",
    "tags": "",
    "source": "",
    "url": "https://sz.lianjia.com/zufang/SZ2129794064126574592.html",
    "rent_type": "整租",
    "location": "龙岗区-布吉街-德福花园",
    "scraped_at": "2026-05-03 07:07:35",
    "region": "bujijie",
    "unit_price": 51.0,
    "lat": 22.5979,
    "lng": 114.10053
  },
  {
    "title": "整租·布吉区金沙花园 3室1厅 东",
    "community": "布吉区金沙花园",
    "area": "53.30",
    "rooms": "3室1厅",
    "direction": "东",
    "floor": "",
    "price": "2250",
    "tags": "",
    "source": "",
    "url": "https://sz.lianjia.com/zufang/SZ2129460548583030784.html",
    "rent_type": "整租",
    "location": "龙岗区-布吉街-布吉区金沙花园",
    "scraped_at": "2026-05-03 07:07:35",
    "region": "bujijie",
    "unit_price": 42.2,
    "lat": 22.59863,
    "lng": 114.110886
  },
  {
    "title": "整租·钧濠MIXPark 3室2厅 西南",
    "community": "钧濠MIXPark",
    "area": "51.00",
    "rooms": "3室2厅",
    "direction": "西南",
    "floor": "",
    "price": "5500",
    "tags": "",
    "source": "",
    "url": "https://sz.lianjia.com/zufang/SZ2130976780503220224.html",
    "rent_type": "整租",
    "location": "龙岗区-布吉街-钧濠",
    "scraped_at": "2026-05-03 07:07:38",
    "region": "bujijie",
    "unit_price": 107.8,
    "lat": 22.611108,
    "lng": 114.118797
  },
  {
    "title": "整租·宝龙花园 3室2厅 东南",
    "community": "宝龙花园",
    "area": "116.50",
    "rooms": "3室2厅",
    "direction": "东南",
    "floor": "",
    "price": "4500",
    "tags": "",
    "source": "",
    "url": "https://sz.lianjia.com/zufang/SZ2137205612814008320.html",
    "rent_type": "整租",
    "location": "龙岗区-布吉街-宝龙花园",
    "scraped_at": "2026-05-03 07:07:38",
    "region": "bujijie",
    "unit_price": 38.6,
    "lat": 22.60751,
    "lng": 114.11221
  },
  {
    "title": "整租·宝龙花园 2室1厅 南",
    "community": "宝龙花园",
    "area": "61.62",
    "rooms": "2室1厅",
    "direction": "南",
    "floor": "",
    "price": "3300",
    "tags": "",
    "source": "",
    "url": "https://sz.lianjia.com/zufang/SZ2137768869605933056.html",
    "rent_type": "整租",
    "location": "龙岗区-布吉街-宝龙花园",
    "scraped_at": "2026-05-03 07:07:38",
    "region": "bujijie",
    "unit_price": 53.6,
    "lat": 22.60751,
    "lng": 114.11221
  },
  {
    "title": "整租·宝龙花园 3室2厅 东南",
    "community": "宝龙花园",
    "area": "116.50",
    "rooms": "3室2厅",
    "direction": "东南",
    "floor": "",
    "price": "4500",
    "tags": "",
    "source": "",
    "url": "https://sz.lianjia.com/zufang/SZ2137205228125028352.html",
    "rent_type": "整租",
    "location": "龙岗区-布吉街-宝龙花园",
    "scraped_at": "2026-05-03 07:07:38",
    "region": "bujijie",
    "unit_price": 38.6,
    "lat": 22.60751,
    "lng": 114.11221
  },
  {
    "title": "整租·莲花山庄三村 8室3厅 东北",
    "community": "莲花山庄三村",
    "area": "170.00",
    "rooms": "8室3厅",
    "direction": "东北",
    "floor": "",
    "price": "15800",
    "tags": "",
    "source": "",
    "url": "https://sz.lianjia.com/zufang/SZ2139280613075582976.html",
    "rent_type": "整租",
    "location": "龙岗区-布吉街-莲花山庄三村",
    "scraped_at": "2026-05-03 07:07:38",
    "region": "bujijie",
    "unit_price": 92.9,
    "lat": 22.602894,
    "lng": 114.105122
  },
  {
    "title": "整租·鸿景豪苑 3室2厅 东南",
    "community": "鸿景豪苑",
    "area": "43.00",
    "rooms": "3室2厅",
    "direction": "东南",
    "floor": "",
    "price": "3500",
    "tags": "",
    "source": "",
    "url": "https://sz.lianjia.com/zufang/SZ2139750326897475584.html",
    "rent_type": "整租",
    "location": "龙岗区-布吉街-鸿景豪苑",
    "scraped_at": "2026-05-03 07:07:35",
    "region": "bujijie",
    "unit_price": 81.4,
    "lat": 22.6133,
    "lng": 114.12508
  },
  {
    "title": "整租·德福花园 2室1厅 南",
    "community": "德福花园",
    "area": "46.66",
    "rooms": "2室1厅",
    "direction": "南",
    "floor": "",
    "price": "2500",
    "tags": "",
    "source": "",
    "url": "https://sz.lianjia.com/zufang/SZ2139551852444778496.html",
    "rent_type": "整租",
    "location": "龙岗区-布吉街-德福花园",
    "scraped_at": "2026-05-03 07:07:35",
    "region": "bujijie",
    "unit_price": 53.6,
    "lat": 22.5979,
    "lng": 114.10053
  },
  {
    "title": "整租·景华嶺莑 2室2厅 南",
    "community": "景华嶺莑",
    "area": "93.75",
    "rooms": "2室2厅",
    "direction": "南",
    "floor": "",
    "price": "5100",
    "tags": "",
    "source": "",
    "url": "https://sz.lianjia.com/zufang/SZ2133915487229181952.html",
    "rent_type": "整租",
    "location": "龙岗区-布吉街-景华嶺莑",
    "scraped_at": "2026-05-03 07:07:35",
    "region": "bujijie",
    "unit_price": 54.4,
    "lat": 22.6216,
    "lng": 114.11985
  },
  {
    "title": "整租·诚信华庭 3室2厅 东南",
    "community": "诚信华庭",
    "area": "97.46",
    "rooms": "3室2厅",
    "direction": "东南",
    "floor": "",
    "price": "4800",
    "tags": "",
    "source": "",
    "url": "https://sz.lianjia.com/zufang/SZ2139602986224058368.html",
    "rent_type": "整租",
    "location": "龙岗区-布吉街-诚信华庭",
    "scraped_at": "2026-05-03 07:07:35",
    "region": "bujijie",
    "unit_price": 49.3,
    "lat": 22.60961,
    "lng": 114.12334
  },
  {
    "title": "整租·德福花园 3室2厅 北",
    "community": "德福花园",
    "area": "103.00",
    "rooms": "3室2厅",
    "direction": "北",
    "floor": "",
    "price": "4000",
    "tags": "",
    "source": "",
    "url": "https://sz.lianjia.com/zufang/SZ2141421491248431104.html",
    "rent_type": "整租",
    "location": "龙岗区-布吉街-德福花园",
    "scraped_at": "2026-05-03 07:07:35",
    "region": "bujijie",
    "unit_price": 38.8,
    "lat": 22.5979,
    "lng": 114.10053
  },
  {
    "title": "整租·德福花园 1室1厅 西南",
    "community": "德福花园",
    "area": "41.82",
    "rooms": "1室1厅",
    "direction": "西南",
    "floor": "",
    "price": "2400",
    "tags": "",
    "source": "",
    "url": "https://sz.lianjia.com/zufang/SZ2143345884136472576.html",
    "rent_type": "整租",
    "location": "龙岗区-布吉街-德福花园",
    "scraped_at": "2026-05-03 07:07:35",
    "region": "bujijie",
    "unit_price": 57.4,
    "lat": 22.5979,
    "lng": 114.10053
  },
  {
    "title": "整租·布吉中心花园 3室2厅 东南",
    "community": "布吉中心花园",
    "area": "89.00",
    "rooms": "3室2厅",
    "direction": "东南",
    "floor": "",
    "price": "5000",
    "tags": "",
    "source": "",
    "url": "https://sz.lianjia.com/zufang/SZ2140769929064873984.html",
    "rent_type": "整租",
    "location": "龙岗区-布吉街-布吉中心花园",
    "scraped_at": "2026-05-03 07:07:35",
    "region": "bujijie",
    "unit_price": 56.2,
    "lat": 22.61215,
    "lng": 114.12499
  },
  {
    "title": "整租·长兴楼 2室2厅 南",
    "community": "长兴楼",
    "area": "68.20",
    "rooms": "2室2厅",
    "direction": "南",
    "floor": "",
    "price": "2500",
    "tags": "",
    "source": "",
    "url": "https://sz.lianjia.com/zufang/SZ2147958460195536896.html",
    "rent_type": "整租",
    "location": "龙岗区-布吉街-长兴楼",
    "scraped_at": "2026-05-03 07:07:35",
    "region": "bujijie",
    "unit_price": 36.7,
    "lat": 22.60121,
    "lng": 114.10553
  },
  {
    "title": "合租·德兴花园 3居室 南卧",
    "community": "德兴花园 3居室 南卧",
    "area": "105.85",
    "rooms": "",
    "direction": "",
    "floor": "",
    "price": "1300",
    "tags": "",
    "source": "",
    "url": "https://sz.lianjia.com/zufang/SZ2152054140019146752.html",
    "rent_type": "合租",
    "location": "龙岗区-布吉街-德兴花园",
    "scraped_at": "2026-05-03 07:07:35",
    "region": "bujijie",
    "unit_price": 12.3,
    "lat": 22.590527,
    "lng": 114.11048
  },
  {
    "title": "整租·青青家园 3室2厅 南",
    "community": "青青家园",
    "area": "85.00",
    "rooms": "3室2厅",
    "direction": "南",
    "floor": "",
    "price": "3600",
    "tags": "",
    "source": "",
    "url": "https://sz.lianjia.com/zufang/SZ2108849085300604928.html",
    "rent_type": "整租",
    "location": "龙岗区-布吉街-青青家园",
    "scraped_at": "2026-05-03 07:07:35",
    "region": "bujijie",
    "unit_price": 42.4,
    "lat": 22.616095,
    "lng": 114.094831
  },
  {
    "title": "整租·德福花园 3室2厅 西北",
    "community": "德福花园",
    "area": "74.00",
    "rooms": "3室2厅",
    "direction": "西北",
    "floor": "",
    "price": "3800",
    "tags": "",
    "source": "",
    "url": "https://sz.lianjia.com/zufang/SZ2117252822998188032.html",
    "rent_type": "整租",
    "location": "龙岗区-布吉街-德福花园",
    "scraped_at": "2026-05-03 07:07:35",
    "region": "bujijie",
    "unit_price": 51.4,
    "lat": 22.5979,
    "lng": 114.10053
  },
  {
    "title": "整租·丽廷豪苑 3室2厅 东/东南",
    "community": "丽廷豪苑",
    "area": "88.00",
    "rooms": "3室2厅",
    "direction": "东/东南",
    "floor": "",
    "price": "4500",
    "tags": "",
    "source": "",
    "url": "https://sz.lianjia.com/zufang/SZ2144505259752423424.html",
    "rent_type": "整租",
    "location": "龙岗区-布吉街-丽廷豪苑",
    "scraped_at": "2026-05-03 07:07:38",
    "region": "bujijie",
    "unit_price": 51.1,
    "lat": 22.60868,
    "lng": 114.107
  },
  {
    "title": "整租·凯旋天玺名庭 2室1厅 南",
    "community": "凯旋天玺名庭",
    "area": "57.65",
    "rooms": "2室1厅",
    "direction": "南",
    "floor": "",
    "price": "5600",
    "tags": "",
    "source": "",
    "url": "https://sz.lianjia.com/zufang/SZ2148397146313850880.html",
    "rent_type": "整租",
    "location": "龙岗区-布吉街-凯旋天玺名庭",
    "scraped_at": "2026-05-03 07:07:38",
    "region": "bujijie",
    "unit_price": 97.1,
    "lat": 22.60902,
    "lng": 114.11204
  },
  {
    "title": "整租·布吉中心花园 1室1厅 东南",
    "community": "布吉中心花园",
    "area": "52.00",
    "rooms": "1室1厅",
    "direction": "东南",
    "floor": "",
    "price": "3600",
    "tags": "",
    "source": "",
    "url": "https://sz.lianjia.com/zufang/SZ2147955799492657152.html",
    "rent_type": "整租",
    "location": "龙岗区-布吉街-布吉中心花园",
    "scraped_at": "2026-05-03 07:07:38",
    "region": "bujijie",
    "unit_price": 69.2,
    "lat": 22.61215,
    "lng": 114.12499
  },
  {
    "title": "整租·阳光花园五期 1室1厅 北",
    "community": "阳光花园五期",
    "area": "46.31",
    "rooms": "1室1厅",
    "direction": "北",
    "floor": "",
    "price": "3400",
    "tags": "",
    "source": "",
    "url": "https://sz.lianjia.com/zufang/SZ2148067821861470208.html",
    "rent_type": "整租",
    "location": "龙岗区-布吉街-阳光花园五期",
    "scraped_at": "2026-05-03 07:07:38",
    "region": "bujijie",
    "unit_price": 73.4,
    "lat": 22.615122,
    "lng": 114.114151
  },
  {
    "title": "整租·阳光花园五期 2室2厅 北",
    "community": "阳光花园五期",
    "area": "74.71",
    "rooms": "2室2厅",
    "direction": "北",
    "floor": "",
    "price": "4300",
    "tags": "",
    "source": "",
    "url": "https://sz.lianjia.com/zufang/SZ2149367192611717120.html",
    "rent_type": "整租",
    "location": "龙岗区-布吉街-阳光花园五期",
    "scraped_at": "2026-05-03 07:07:38",
    "region": "bujijie",
    "unit_price": 57.6,
    "lat": 22.615122,
    "lng": 114.114151
  },
  {
    "title": "合租·德兴花园 3居室 南卧",
    "community": "德兴花园 3居室 南卧",
    "area": "105.85",
    "rooms": "",
    "direction": "",
    "floor": "",
    "price": "1300",
    "tags": "",
    "source": "",
    "url": "https://sz.lianjia.com/zufang/SZ2152052096390660096.html",
    "rent_type": "合租",
    "location": "龙岗区-布吉街-德兴花园",
    "scraped_at": "2026-05-03 07:07:45",
    "region": "bujijie",
    "unit_price": 12.3,
    "lat": 22.590527,
    "lng": 114.11048
  },
  {
    "title": "整租·莲花山庄芙蓉苑 7室2厅 南",
    "community": "莲花山庄芙蓉苑",
    "area": "190.00",
    "rooms": "7室2厅",
    "direction": "南",
    "floor": "",
    "price": "12800",
    "tags": "",
    "source": "",
    "url": "https://sz.lianjia.com/zufang/SZ2152594826866982912.html",
    "rent_type": "整租",
    "location": "龙岗区-布吉街-莲花山庄芙蓉苑",
    "scraped_at": "2026-05-03 07:07:38",
    "region": "bujijie",
    "unit_price": 67.4,
    "lat": 22.60175,
    "lng": 114.10422
  },
  {
    "title": "整租·灏景明苑一期 1室1厅 东",
    "community": "灏景明苑一期",
    "area": "47.07",
    "rooms": "1室1厅",
    "direction": "东",
    "floor": "",
    "price": "3200",
    "tags": "",
    "source": "",
    "url": "https://sz.lianjia.com/zufang/SZ2150117305898500096.html",
    "rent_type": "整租",
    "location": "龙岗区-布吉街-灏景明苑一期",
    "scraped_at": "2026-05-03 07:07:45",
    "region": "bujijie",
    "unit_price": 68.0,
    "lat": 22.612135,
    "lng": 114.12538
  },
  {
    "title": "整租·德福花园 3室2厅 南",
    "community": "德福花园",
    "area": "93.03",
    "rooms": "3室2厅",
    "direction": "南",
    "floor": "",
    "price": "4800",
    "tags": "",
    "source": "",
    "url": "https://sz.lianjia.com/zufang/SZ2150542944266878976.html",
    "rent_type": "整租",
    "location": "龙岗区-布吉街-德福花园",
    "scraped_at": "2026-05-03 07:07:38",
    "region": "bujijie",
    "unit_price": 51.6,
    "lat": 22.5979,
    "lng": 114.10053
  },
  {
    "title": "整租·德兴花园 2室1厅 南",
    "community": "德兴花园",
    "area": "68.51",
    "rooms": "2室1厅",
    "direction": "南",
    "floor": "",
    "price": "3000",
    "tags": "",
    "source": "",
    "url": "https://sz.lianjia.com/zufang/SZ2150836903681720320.html",
    "rent_type": "整租",
    "location": "龙岗区-布吉街-德兴花园",
    "scraped_at": "2026-05-03 07:07:38",
    "region": "bujijie",
    "unit_price": 43.8,
    "lat": 22.59308,
    "lng": 114.10545
  },
  {
    "title": "整租·花语馨 4室2厅 西北",
    "community": "花语馨",
    "area": "117.00",
    "rooms": "4室2厅",
    "direction": "西北",
    "floor": "",
    "price": "5300",
    "tags": "",
    "source": "",
    "url": "https://sz.lianjia.com/zufang/SZ2150998074292436992.html",
    "rent_type": "整租",
    "location": "龙岗区-布吉街-花语馨",
    "scraped_at": "2026-05-03 07:07:38",
    "region": "bujijie",
    "unit_price": 45.3,
    "lat": 22.6168,
    "lng": 114.1118
  },
  {
    "title": "整租·阳光花园一期 2室1厅 南",
    "community": "阳光花园一期",
    "area": "59.00",
    "rooms": "2室1厅",
    "direction": "南",
    "floor": "",
    "price": "3800",
    "tags": "",
    "source": "",
    "url": "https://sz.lianjia.com/zufang/SZ2152770590430199808.html",
    "rent_type": "整租",
    "location": "龙岗区-布吉街-阳光花园一期",
    "scraped_at": "2026-05-03 07:07:38",
    "region": "bujijie",
    "unit_price": 64.4,
    "lat": 22.615325,
    "lng": 114.117133
  },
  {
    "title": "整租·德福花园 1室1厅 西南",
    "community": "德福花园",
    "area": "41.82",
    "rooms": "1室1厅",
    "direction": "西南",
    "floor": "",
    "price": "2300",
    "tags": "",
    "source": "",
    "url": "https://sz.lianjia.com/zufang/SZ2154065231892971520.html",
    "rent_type": "整租",
    "location": "龙岗区-布吉街-德福花园",
    "scraped_at": "2026-05-03 07:07:38",
    "region": "bujijie",
    "unit_price": 55.0,
    "lat": 22.5979,
    "lng": 114.10053
  },
  {
    "title": "整租·鸿景豪苑 3室2厅 东南",
    "community": "鸿景豪苑",
    "area": "100.00",
    "rooms": "3室2厅",
    "direction": "东南",
    "floor": "",
    "price": "4300",
    "tags": "",
    "source": "",
    "url": "https://sz.lianjia.com/zufang/SZ2154425336589189120.html",
    "rent_type": "整租",
    "location": "龙岗区-布吉街-鸿景豪苑",
    "scraped_at": "2026-05-03 07:07:38",
    "region": "bujijie",
    "unit_price": 43.0,
    "lat": 22.6133,
    "lng": 114.12508
  },
  {
    "title": "整租·青青家园 3室2厅 西北",
    "community": "青青家园",
    "area": "106.00",
    "rooms": "3室2厅",
    "direction": "西北",
    "floor": "",
    "price": "3300",
    "tags": "",
    "source": "",
    "url": "https://sz.lianjia.com/zufang/SZ2154263529815801856.html",
    "rent_type": "整租",
    "location": "龙岗区-布吉街-青青家园",
    "scraped_at": "2026-05-03 07:07:38",
    "region": "bujijie",
    "unit_price": 31.1,
    "lat": 22.616095,
    "lng": 114.094831
  },
  {
    "title": "整租·阳光花园三期 1室1厅 南",
    "community": "阳光花园三期",
    "area": "50.00",
    "rooms": "1室1厅",
    "direction": "南",
    "floor": "",
    "price": "1900",
    "tags": "",
    "source": "",
    "url": "https://sz.lianjia.com/zufang/SZ2154853230750728192.html",
    "rent_type": "整租",
    "location": "龙岗区-布吉街-阳光花园三期",
    "scraped_at": "2026-05-03 07:07:38",
    "region": "bujijie",
    "unit_price": 38.0,
    "lat": 22.617576,
    "lng": 114.109465
  },
  {
    "title": "整租·吉信大厦 1室1厅 东南",
    "community": "吉信大厦",
    "area": "45.72",
    "rooms": "1室1厅",
    "direction": "东南",
    "floor": "",
    "price": "2250",
    "tags": "",
    "source": "",
    "url": "https://sz.lianjia.com/zufang/SZ2137910539290935296.html",
    "rent_type": "整租",
    "location": "龙岗区-布吉街-吉信大厦",
    "scraped_at": "2026-05-03 07:07:38",
    "region": "bujijie",
    "unit_price": 49.2,
    "lat": 22.603487,
    "lng": 114.111553
  },
  {
    "title": "整租·德福花园 2室2厅 西北",
    "community": "德福花园",
    "area": "56.00",
    "rooms": "2室2厅",
    "direction": "西北",
    "floor": "",
    "price": "1800",
    "tags": "",
    "source": "",
    "url": "https://sz.lianjia.com/zufang/SZ2101898593332887552.html",
    "rent_type": "整租",
    "location": "龙岗区-布吉街-德福花园",
    "scraped_at": "2026-05-03 07:07:41",
    "region": "bujijie",
    "unit_price": 32.1,
    "lat": 22.5979,
    "lng": 114.10053
  },
  {
    "title": "整租·大世纪花园 3室1厅 东",
    "community": "大世纪花园",
    "area": "92.00",
    "rooms": "3室1厅",
    "direction": "东",
    "floor": "",
    "price": "4900",
    "tags": "",
    "source": "",
    "url": "https://sz.lianjia.com/zufang/SZ2104925536932331520.html",
    "rent_type": "整租",
    "location": "龙岗区-布吉街-大世纪花园",
    "scraped_at": "2026-05-03 07:07:41",
    "region": "bujijie",
    "unit_price": 53.3,
    "lat": 22.61383,
    "lng": 114.12061
  },
  {
    "title": "整租·格塘新村 1室0厅 南",
    "community": "格塘新村",
    "area": "21.00",
    "rooms": "1室0厅",
    "direction": "南",
    "floor": "",
    "price": "1500",
    "tags": "",
    "source": "",
    "url": "https://sz.lianjia.com/zufang/SZ2119297547473256448.html",
    "rent_type": "整租",
    "location": "龙岗区-布吉街-格塘新村",
    "scraped_at": "2026-05-03 07:07:41",
    "region": "bujijie",
    "unit_price": 71.4,
    "lat": 22.60395,
    "lng": 114.09966
  },
  {
    "title": "整租·格塘新村 1室0厅 南",
    "community": "格塘新村",
    "area": "21.00",
    "rooms": "1室0厅",
    "direction": "南",
    "floor": "",
    "price": "1500",
    "tags": "",
    "source": "",
    "url": "https://sz.lianjia.com/zufang/SZ2119301882290634752.html",
    "rent_type": "整租",
    "location": "龙岗区-布吉街-格塘新村",
    "scraped_at": "2026-05-03 07:07:41",
    "region": "bujijie",
    "unit_price": 71.4,
    "lat": 22.60395,
    "lng": 114.09966
  },
  {
    "title": "整租·青青家园 3室2厅 南",
    "community": "青青家园",
    "area": "47.26",
    "rooms": "3室2厅",
    "direction": "南",
    "floor": "",
    "price": "3000",
    "tags": "",
    "source": "",
    "url": "https://sz.lianjia.com/zufang/SZ1977701724550332416.html",
    "rent_type": "整租",
    "location": "龙岗区-布吉街-青青家园",
    "scraped_at": "2026-05-03 07:07:41",
    "region": "bujijie",
    "unit_price": 63.5,
    "lat": 22.616095,
    "lng": 114.094831
  },
  {
    "title": "整租·德兴花园 3室1厅 南",
    "community": "德兴花园",
    "area": "82.00",
    "rooms": "3室1厅",
    "direction": "南",
    "floor": "",
    "price": "3600",
    "tags": "",
    "source": "",
    "url": "https://sz.lianjia.com/zufang/SZ1781154509892878336.html",
    "rent_type": "整租",
    "location": "龙岗区-布吉街-德兴花园",
    "scraped_at": "2026-05-03 07:08:16",
    "region": "bujijie",
    "unit_price": 43.9,
    "lat": 22.59308,
    "lng": 114.10545
  },
  {
    "title": "整租·宝龙花园 3室2厅 南",
    "community": "宝龙花园",
    "area": "115.36",
    "rooms": "3室2厅",
    "direction": "南",
    "floor": "",
    "price": "4280",
    "tags": "",
    "source": "",
    "url": "https://sz.lianjia.com/zufang/SZ2002267443640139776.html",
    "rent_type": "整租",
    "location": "龙岗区-布吉街-宝龙花园",
    "scraped_at": "2026-05-03 07:07:41",
    "region": "bujijie",
    "unit_price": 37.1,
    "lat": 22.60751,
    "lng": 114.11221
  },
  {
    "title": "整租·德兴花园 2室2厅 南",
    "community": "德兴花园",
    "area": "76.00",
    "rooms": "2室2厅",
    "direction": "南",
    "floor": "",
    "price": "3500",
    "tags": "",
    "source": "",
    "url": "https://sz.lianjia.com/zufang/SZ1943904330625056768.html",
    "rent_type": "整租",
    "location": "龙岗区-布吉街-德兴花园",
    "scraped_at": "2026-05-03 07:08:16",
    "region": "bujijie",
    "unit_price": 46.1,
    "lat": 22.59308,
    "lng": 114.10545
  },
  {
    "title": "整租·半山道1号礼宾府 4室2厅 南",
    "community": "半山道1号礼宾府",
    "area": "189.00",
    "rooms": "4室2厅",
    "direction": "南",
    "floor": "",
    "price": "29700",
    "tags": "",
    "source": "",
    "url": "https://sz.lianjia.com/zufang/SZ1992205542461800448.html",
    "rent_type": "整租",
    "location": "龙岗区-布吉街-半山道",
    "scraped_at": "2026-05-03 07:07:41",
    "region": "bujijie",
    "unit_price": 157.1,
    "lat": 22.59404,
    "lng": 114.100179
  },
  {
    "title": "整租·佳兆业壹都汇大厦 1室0厅 北",
    "community": "佳兆业壹都汇大厦",
    "area": "40.00",
    "rooms": "1室0厅",
    "direction": "北",
    "floor": "",
    "price": "2400",
    "tags": "",
    "source": "",
    "url": "https://sz.lianjia.com/zufang/SZ1983857878217261056.html",
    "rent_type": "整租",
    "location": "龙岗区-布吉街-佳兆业壹都汇大厦",
    "scraped_at": "2026-05-03 07:07:41",
    "region": "bujijie",
    "unit_price": 60.0,
    "lat": 22.60926,
    "lng": 114.12558
  },
  {
    "title": "整租·佳兆业壹都汇大厦 1室0厅 东",
    "community": "佳兆业壹都汇大厦",
    "area": "87.00",
    "rooms": "1室0厅",
    "direction": "东",
    "floor": "",
    "price": "2500",
    "tags": "",
    "source": "",
    "url": "https://sz.lianjia.com/zufang/SZ1974037737447096320.html",
    "rent_type": "整租",
    "location": "龙岗区-布吉街-佳兆业壹都汇大厦",
    "scraped_at": "2026-05-03 07:07:41",
    "region": "bujijie",
    "unit_price": 28.7,
    "lat": 22.60926,
    "lng": 114.12558
  },
  {
    "title": "整租·佳兆业壹都汇大厦 1室0厅 南",
    "community": "佳兆业壹都汇大厦",
    "area": "30.00",
    "rooms": "1室0厅",
    "direction": "南",
    "floor": "",
    "price": "2000",
    "tags": "",
    "source": "",
    "url": "https://sz.lianjia.com/zufang/SZ2001618322361155584.html",
    "rent_type": "整租",
    "location": "龙岗区-布吉街-佳兆业壹都汇大厦",
    "scraped_at": "2026-05-03 07:07:41",
    "region": "bujijie",
    "unit_price": 66.7,
    "lat": 22.60926,
    "lng": 114.12558
  },
  {
    "title": "整租·佳兆业壹都汇大厦 1室1厅 南",
    "community": "佳兆业壹都汇大厦",
    "area": "39.00",
    "rooms": "1室1厅",
    "direction": "南",
    "floor": "",
    "price": "2600",
    "tags": "",
    "source": "",
    "url": "https://sz.lianjia.com/zufang/SZ2036012219421949952.html",
    "rent_type": "整租",
    "location": "龙岗区-布吉街-佳兆业壹都汇大厦",
    "scraped_at": "2026-05-03 07:07:41",
    "region": "bujijie",
    "unit_price": 66.7,
    "lat": 22.60926,
    "lng": 114.12558
  },
  {
    "title": "整租·德兴花园 3室1厅 南",
    "community": "德兴花园",
    "area": "109.70",
    "rooms": "3室1厅",
    "direction": "南",
    "floor": "",
    "price": "4300",
    "tags": "",
    "source": "",
    "url": "https://sz.lianjia.com/zufang/SZ2040702405900763136.html",
    "rent_type": "整租",
    "location": "龙岗区-布吉街-德兴花园",
    "scraped_at": "2026-05-03 07:07:41",
    "region": "bujijie",
    "unit_price": 39.2,
    "lat": 22.59308,
    "lng": 114.10545
  },
  {
    "title": "整租·钧濠MIXPark 5室2厅 南",
    "community": "钧濠MIXPark",
    "area": "139.00",
    "rooms": "5室2厅",
    "direction": "南",
    "floor": "",
    "price": "11800",
    "tags": "",
    "source": "",
    "url": "https://sz.lianjia.com/zufang/SZ2040783111511343104.html",
    "rent_type": "整租",
    "location": "龙岗区-布吉街-钧濠",
    "scraped_at": "2026-05-03 07:07:41",
    "region": "bujijie",
    "unit_price": 84.9,
    "lat": 22.611108,
    "lng": 114.118797
  },
  {
    "title": "整租·翠枫豪园一期 5室3厅 东南",
    "community": "翠枫豪园一期",
    "area": "135.00",
    "rooms": "5室3厅",
    "direction": "东南",
    "floor": "",
    "price": "5000",
    "tags": "",
    "source": "",
    "url": "https://sz.lianjia.com/zufang/SZ2000548589192871936.html",
    "rent_type": "整租",
    "location": "龙岗区-布吉街-翠枫豪园一期",
    "scraped_at": "2026-05-03 07:07:41",
    "region": "bujijie",
    "unit_price": 37.0,
    "lat": 22.613824,
    "lng": 114.096954
  },
  {
    "title": "整租·宝龙花园 3室2厅 东/东南",
    "community": "宝龙花园",
    "area": "116.00",
    "rooms": "3室2厅",
    "direction": "东/东南",
    "floor": "",
    "price": "5000",
    "tags": "",
    "source": "",
    "url": "https://sz.lianjia.com/zufang/SZ2087111719477313536.html",
    "rent_type": "整租",
    "location": "龙岗区-布吉街-宝龙花园",
    "scraped_at": "2026-05-03 07:07:41",
    "region": "bujijie",
    "unit_price": 43.1,
    "lat": 22.60751,
    "lng": 114.11221
  },
  {
    "title": "整租·德福花园 3室2厅 南",
    "community": "德福花园",
    "area": "93.00",
    "rooms": "3室2厅",
    "direction": "南",
    "floor": "",
    "price": "4500",
    "tags": "",
    "source": "",
    "url": "https://sz.lianjia.com/zufang/SZ2150836297168584704.html",
    "rent_type": "整租",
    "location": "龙岗区-布吉街-德福花园",
    "scraped_at": "2026-05-03 07:07:45",
    "region": "bujijie",
    "unit_price": 48.4,
    "lat": 22.5979,
    "lng": 114.10053
  },
  {
    "title": "整租·钧濠MIXPark 1室1厅 南",
    "community": "钧濠MIXPark",
    "area": "29.27",
    "rooms": "1室1厅",
    "direction": "南",
    "floor": "",
    "price": "3000",
    "tags": "",
    "source": "",
    "url": "https://sz.lianjia.com/zufang/SZ2150910408972566528.html",
    "rent_type": "整租",
    "location": "龙岗区-布吉街-钧濠",
    "scraped_at": "2026-05-03 07:07:45",
    "region": "bujijie",
    "unit_price": 102.5,
    "lat": 22.611108,
    "lng": 114.118797
  },
  {
    "title": "整租·阳光花园五期 2室2厅 南",
    "community": "阳光花园五期",
    "area": "50.82",
    "rooms": "2室2厅",
    "direction": "南",
    "floor": "",
    "price": "3900",
    "tags": "",
    "source": "",
    "url": "https://sz.lianjia.com/zufang/SZ2149146032036904960.html",
    "rent_type": "整租",
    "location": "龙岗区-布吉街-阳光花园五期",
    "scraped_at": "2026-05-03 07:07:45",
    "region": "bujijie",
    "unit_price": 76.7,
    "lat": 22.615122,
    "lng": 114.114151
  },
  {
    "title": "整租·青青家园 3室2厅 东",
    "community": "青青家园",
    "area": "88.00",
    "rooms": "3室2厅",
    "direction": "东",
    "floor": "",
    "price": "3000",
    "tags": "",
    "source": "",
    "url": "https://sz.lianjia.com/zufang/SZ2149767335454441472.html",
    "rent_type": "整租",
    "location": "龙岗区-布吉街-青青家园",
    "scraped_at": "2026-05-03 07:07:45",
    "region": "bujijie",
    "unit_price": 34.1,
    "lat": 22.616095,
    "lng": 114.094831
  },
  {
    "title": "整租·龙岭山庄 2室1厅 东",
    "community": "龙岭山庄",
    "area": "44.70",
    "rooms": "2室1厅",
    "direction": "东",
    "floor": "",
    "price": "2600",
    "tags": "",
    "source": "",
    "url": "https://sz.lianjia.com/zufang/SZ2154211330716860416.html",
    "rent_type": "整租",
    "location": "龙岗区-布吉街-龙岭山庄",
    "scraped_at": "2026-05-03 07:07:45",
    "region": "bujijie",
    "unit_price": 58.2,
    "lat": 22.607997,
    "lng": 114.105829
  },
  {
    "title": "整租·钧濠MIXPark 3室1厅 北",
    "community": "钧濠MIXPark",
    "area": "58.00",
    "rooms": "3室1厅",
    "direction": "北",
    "floor": "",
    "price": "4500",
    "tags": "",
    "source": "",
    "url": "https://sz.lianjia.com/zufang/SZ2152431126348562432.html",
    "rent_type": "整租",
    "location": "龙岗区-布吉街-钧濠",
    "scraped_at": "2026-05-03 07:07:45",
    "region": "bujijie",
    "unit_price": 77.6,
    "lat": 22.611108,
    "lng": 114.118797
  },
  {
    "title": "整租·布吉中心广场 1室1厅 东南",
    "community": "布吉中心广场",
    "area": "37.85",
    "rooms": "1室1厅",
    "direction": "东南",
    "floor": "",
    "price": "2300",
    "tags": "",
    "source": "",
    "url": "https://sz.lianjia.com/zufang/SZ2155254488162631680.html",
    "rent_type": "整租",
    "location": "龙岗区-布吉街-布吉中心广场",
    "scraped_at": "2026-05-03 07:07:45",
    "region": "bujijie",
    "unit_price": 60.8,
    "lat": 22.601316,
    "lng": 114.112112
  },
  {
    "title": "整租·德福花园 2室1厅 南",
    "community": "德福花园",
    "area": "43.07",
    "rooms": "2室1厅",
    "direction": "南",
    "floor": "",
    "price": "1800",
    "tags": "",
    "source": "",
    "url": "https://sz.lianjia.com/zufang/SZ2155679804005810176.html",
    "rent_type": "整租",
    "location": "龙岗区-布吉街-德福花园",
    "scraped_at": "2026-05-03 07:07:45",
    "region": "bujijie",
    "unit_price": 41.8,
    "lat": 22.5979,
    "lng": 114.10053
  },
  {
    "title": "整租·德福花园 2室2厅 西南",
    "community": "德福花园",
    "area": "50.36",
    "rooms": "2室2厅",
    "direction": "西南",
    "floor": "",
    "price": "2800",
    "tags": "",
    "source": "",
    "url": "https://sz.lianjia.com/zufang/SZ2156711554651783168.html",
    "rent_type": "整租",
    "location": "龙岗区-布吉街-德福花园",
    "scraped_at": "2026-05-03 07:07:45",
    "region": "bujijie",
    "unit_price": 55.6,
    "lat": 22.5979,
    "lng": 114.10053
  },
  {
    "title": "整租·凯旋天玺名庭 2室1厅 北",
    "community": "凯旋天玺名庭",
    "area": "45.00",
    "rooms": "2室1厅",
    "direction": "北",
    "floor": "",
    "price": "4000",
    "tags": "",
    "source": "",
    "url": "https://sz.lianjia.com/zufang/SZ2156755639433428992.html",
    "rent_type": "整租",
    "location": "龙岗区-布吉街-凯旋天玺名庭",
    "scraped_at": "2026-05-03 07:07:45",
    "region": "bujijie",
    "unit_price": 88.9,
    "lat": 22.60902,
    "lng": 114.11204
  },
  {
    "title": "整租·又一村花园 2室1厅 南",
    "community": "又一村花园",
    "area": "60.00",
    "rooms": "2室1厅",
    "direction": "南",
    "floor": "",
    "price": "3100",
    "tags": "",
    "source": "",
    "url": "https://sz.lianjia.com/zufang/SZ2154788999489650688.html",
    "rent_type": "整租",
    "location": "龙岗区-布吉街-又一村花园",
    "scraped_at": "2026-05-03 07:07:45",
    "region": "bujijie",
    "unit_price": 51.7,
    "lat": 22.611004,
    "lng": 114.103385
  },
  {
    "title": "整租·阳光花园一期 3室2厅 东",
    "community": "阳光花园一期",
    "area": "80.00",
    "rooms": "3室2厅",
    "direction": "东",
    "floor": "",
    "price": "4500",
    "tags": "",
    "source": "",
    "url": "https://sz.lianjia.com/zufang/SZ2155543135759892480.html",
    "rent_type": "整租",
    "location": "龙岗区-布吉街-阳光花园一期",
    "scraped_at": "2026-05-03 07:07:45",
    "region": "bujijie",
    "unit_price": 56.2,
    "lat": 22.615325,
    "lng": 114.117133
  },
  {
    "title": "整租·阳光花园二期 2室1厅 南",
    "community": "阳光花园二期",
    "area": "66.00",
    "rooms": "2室1厅",
    "direction": "南",
    "floor": "",
    "price": "3400",
    "tags": "",
    "source": "",
    "url": "https://sz.lianjia.com/zufang/SZ2022341263017115648.html",
    "rent_type": "整租",
    "location": "龙岗区-布吉街-阳光花园二期",
    "scraped_at": "2026-05-03 07:08:26",
    "region": "bujijie",
    "unit_price": 51.5,
    "lat": 22.613479,
    "lng": 114.112651
  },
  {
    "title": "整租·金运家园 2室1厅 东北",
    "community": "金运家园",
    "area": "67.00",
    "rooms": "2室1厅",
    "direction": "东北",
    "floor": "",
    "price": "3600",
    "tags": "",
    "source": "",
    "url": "https://sz.lianjia.com/zufang/SZ2157001437152804864.html",
    "rent_type": "整租",
    "location": "龙岗区-布吉街-金运家园",
    "scraped_at": "2026-05-03 07:07:45",
    "region": "bujijie",
    "unit_price": 53.7,
    "lat": 22.6109,
    "lng": 114.11738
  },
  {
    "title": "整租·阳光花园一期 3室2厅 复式 南",
    "community": "阳光花园一期",
    "area": "58.01",
    "rooms": "3室2厅",
    "direction": "",
    "floor": "",
    "price": "4000",
    "tags": "",
    "source": "",
    "url": "https://sz.lianjia.com/zufang/SZ2157292749328482304.html",
    "rent_type": "整租",
    "location": "龙岗区-布吉街-阳光花园一期",
    "scraped_at": "2026-05-03 07:07:45",
    "region": "bujijie",
    "unit_price": 69.0,
    "lat": 22.615325,
    "lng": 114.117133
  },
  {
    "title": "整租·宝龙花园 3室2厅 西北",
    "community": "宝龙花园",
    "area": "116.00",
    "rooms": "3室2厅",
    "direction": "西北",
    "floor": "",
    "price": "5200",
    "tags": "",
    "source": "",
    "url": "https://sz.lianjia.com/zufang/SZ2157813317714837504.html",
    "rent_type": "整租",
    "location": "龙岗区-布吉街-宝龙花园",
    "scraped_at": "2026-05-03 07:07:45",
    "region": "bujijie",
    "unit_price": 44.8,
    "lat": 22.60751,
    "lng": 114.11221
  },
  {
    "title": "整租·国都花园 4室2厅 西南",
    "community": "国都花园",
    "area": "100.70",
    "rooms": "4室2厅",
    "direction": "西南",
    "floor": "",
    "price": "5200",
    "tags": "",
    "source": "",
    "url": "https://sz.lianjia.com/zufang/SZ2157868999625408512.html",
    "rent_type": "整租",
    "location": "龙岗区-布吉街-国都花园",
    "scraped_at": "2026-05-03 07:07:45",
    "region": "bujijie",
    "unit_price": 51.6,
    "lat": null,
    "lng": null
  },
  {
    "title": "整租·德福花园 3室2厅 北",
    "community": "德福花园",
    "area": "102.92",
    "rooms": "3室2厅",
    "direction": "北",
    "floor": "",
    "price": "5000",
    "tags": "",
    "source": "",
    "url": "https://sz.lianjia.com/zufang/SZ2156062639011135488.html",
    "rent_type": "整租",
    "location": "龙岗区-布吉街-德福花园",
    "scraped_at": "2026-05-03 07:07:45",
    "region": "bujijie",
    "unit_price": 48.6,
    "lat": 22.5979,
    "lng": 114.10053
  },
  {
    "title": "整租·德兴花园 3室2厅 南",
    "community": "德兴花园",
    "area": "110.00",
    "rooms": "3室2厅",
    "direction": "南",
    "floor": "",
    "price": "4600",
    "tags": "",
    "source": "",
    "url": "https://sz.lianjia.com/zufang/SZ2155995926651469824.html",
    "rent_type": "整租",
    "location": "龙岗区-布吉街-德兴花园",
    "scraped_at": "2026-05-03 07:07:45",
    "region": "bujijie",
    "unit_price": 41.8,
    "lat": 22.59308,
    "lng": 114.10545
  },
  {
    "title": "整租·凯旋天玺名庭 1室1厅 南",
    "community": "凯旋天玺名庭",
    "area": "39.00",
    "rooms": "1室1厅",
    "direction": "南",
    "floor": "",
    "price": "3800",
    "tags": "",
    "source": "",
    "url": "https://sz.lianjia.com/zufang/SZ2156316131730653184.html",
    "rent_type": "整租",
    "location": "龙岗区-布吉街-凯旋天玺名庭",
    "scraped_at": "2026-05-03 07:07:45",
    "region": "bujijie",
    "unit_price": 97.4,
    "lat": 22.60902,
    "lng": 114.11204
  },
  {
    "title": "整租·景华嶺莑 3室2厅 南",
    "community": "景华嶺莑",
    "area": "93.00",
    "rooms": "3室2厅",
    "direction": "南",
    "floor": "",
    "price": "5800",
    "tags": "",
    "source": "",
    "url": "https://sz.lianjia.com/zufang/SZ2156652166838747136.html",
    "rent_type": "整租",
    "location": "龙岗区-布吉街-景华嶺莑",
    "scraped_at": "2026-05-03 07:07:45",
    "region": "bujijie",
    "unit_price": 62.4,
    "lat": 22.6216,
    "lng": 114.11985
  },
  {
    "title": "整租·阳光花园五期 3室2厅 东/东南",
    "community": "阳光花园五期",
    "area": "89.00",
    "rooms": "3室2厅",
    "direction": "东/东南",
    "floor": "",
    "price": "4800",
    "tags": "",
    "source": "",
    "url": "https://sz.lianjia.com/zufang/SZ2157740099607986176.html",
    "rent_type": "整租",
    "location": "龙岗区-布吉街-阳光花园五期",
    "scraped_at": "2026-05-03 07:07:45",
    "region": "bujijie",
    "unit_price": 53.9,
    "lat": 22.615122,
    "lng": 114.114151
  },
  {
    "title": "整租·宝龙花园 2室2厅 北",
    "community": "宝龙花园",
    "area": "62.00",
    "rooms": "2室2厅",
    "direction": "北",
    "floor": "",
    "price": "3000",
    "tags": "",
    "source": "",
    "url": "https://sz.lianjia.com/zufang/SZ2157746884708401152.html",
    "rent_type": "整租",
    "location": "龙岗区-布吉街-宝龙花园",
    "scraped_at": "2026-05-03 07:07:45",
    "region": "bujijie",
    "unit_price": 48.4,
    "lat": 22.60751,
    "lng": 114.11221
  },
  {
    "title": "整租·阳光花园五期 2室1厅 南",
    "community": "阳光花园五期",
    "area": "75.00",
    "rooms": "2室1厅",
    "direction": "南",
    "floor": "",
    "price": "4300",
    "tags": "",
    "source": "",
    "url": "https://sz.lianjia.com/zufang/SZ2158048936558854144.html",
    "rent_type": "整租",
    "location": "龙岗区-布吉街-阳光花园五期",
    "scraped_at": "2026-05-03 07:07:45",
    "region": "bujijie",
    "unit_price": 57.3,
    "lat": 22.615122,
    "lng": 114.114151
  },
  {
    "title": "整租·阳光花园五期 2室2厅 东北",
    "community": "阳光花园五期",
    "area": "74.78",
    "rooms": "2室2厅",
    "direction": "东北",
    "floor": "",
    "price": "4000",
    "tags": "",
    "source": "",
    "url": "https://sz.lianjia.com/zufang/SZ2157860893881270272.html",
    "rent_type": "整租",
    "location": "龙岗区-布吉街-阳光花园五期",
    "scraped_at": "2026-05-03 07:07:45",
    "region": "bujijie",
    "unit_price": 53.5,
    "lat": 22.615122,
    "lng": 114.114151
  },
  {
    "title": "整租·宝丽苑 1室0厅 北",
    "community": "宝丽苑",
    "area": "36.00",
    "rooms": "1室0厅",
    "direction": "北",
    "floor": "",
    "price": "2000",
    "tags": "",
    "source": "",
    "url": "https://sz.lianjia.com/zufang/SZ2160984632554684416.html",
    "rent_type": "整租",
    "location": "龙岗区-布吉街-宝丽苑",
    "scraped_at": "2026-05-03 07:08:16",
    "region": "bujijie",
    "unit_price": 55.6,
    "lat": 22.59826,
    "lng": 114.1074
  },
  {
    "title": "整租·半山道1号礼宾府 4室2厅 东/西",
    "community": "半山道1号礼宾府",
    "area": "178.00",
    "rooms": "4室2厅",
    "direction": "东/西",
    "floor": "",
    "price": "15000",
    "tags": "",
    "source": "",
    "url": "https://sz.lianjia.com/zufang/SZ2161297730612232192.html",
    "rent_type": "整租",
    "location": "龙岗区-布吉街-半山道",
    "scraped_at": "2026-05-03 07:08:16",
    "region": "bujijie",
    "unit_price": 84.3,
    "lat": 22.59404,
    "lng": 114.100179
  },
  {
    "title": "整租·丽廷豪苑 1室1厅 西北",
    "community": "丽廷豪苑",
    "area": "38.00",
    "rooms": "1室1厅",
    "direction": "西北",
    "floor": "",
    "price": "2600",
    "tags": "",
    "source": "",
    "url": "https://sz.lianjia.com/zufang/SZ2161354785100398592.html",
    "rent_type": "整租",
    "location": "龙岗区-布吉街-丽廷豪苑",
    "scraped_at": "2026-05-03 07:08:16",
    "region": "bujijie",
    "unit_price": 68.4,
    "lat": 22.60868,
    "lng": 114.107
  },
  {
    "title": "整租·文雅豪庭 2室2厅 西北",
    "community": "文雅豪庭",
    "area": "74.00",
    "rooms": "2室2厅",
    "direction": "西北",
    "floor": "",
    "price": "4300",
    "tags": "",
    "source": "",
    "url": "https://sz.lianjia.com/zufang/SZ2161707996994863104.html",
    "rent_type": "整租",
    "location": "龙岗区-布吉街-文雅豪庭",
    "scraped_at": "2026-05-03 07:08:16",
    "region": "bujijie",
    "unit_price": 58.1,
    "lat": 22.61454,
    "lng": 114.12216
  },
  {
    "title": "整租·阳光花园一期 3室2厅 南",
    "community": "阳光花园一期",
    "area": "80.02",
    "rooms": "3室2厅",
    "direction": "南",
    "floor": "",
    "price": "3800",
    "tags": "",
    "source": "",
    "url": "https://sz.lianjia.com/zufang/SZ2161298956267552768.html",
    "rent_type": "整租",
    "location": "龙岗区-布吉街-阳光花园一期",
    "scraped_at": "2026-05-03 07:08:16",
    "region": "bujijie",
    "unit_price": 47.5,
    "lat": 22.615325,
    "lng": 114.117133
  },
  {
    "title": "整租·国都花园 2室2厅 东",
    "community": "国都花园",
    "area": "56.00",
    "rooms": "2室2厅",
    "direction": "东",
    "floor": "",
    "price": "3500",
    "tags": "",
    "source": "",
    "url": "https://sz.lianjia.com/zufang/SZ2161318132503805952.html",
    "rent_type": "整租",
    "location": "龙岗区-布吉街-国都花园",
    "scraped_at": "2026-05-03 07:08:16",
    "region": "bujijie",
    "unit_price": 62.5,
    "lat": null,
    "lng": null
  },
  {
    "title": "整租·钧濠MIXPark 3室2厅 南",
    "community": "钧濠MIXPark",
    "area": "87.00",
    "rooms": "3室2厅",
    "direction": "南",
    "floor": "",
    "price": "6800",
    "tags": "",
    "source": "",
    "url": "https://sz.lianjia.com/zufang/SZ2161415409285201920.html",
    "rent_type": "整租",
    "location": "龙岗区-布吉街-钧濠",
    "scraped_at": "2026-05-03 07:08:16",
    "region": "bujijie",
    "unit_price": 78.2,
    "lat": 22.611108,
    "lng": 114.118797
  },
  {
    "title": "整租·花语岸 4室2厅 南",
    "community": "花语岸",
    "area": "127.18",
    "rooms": "4室2厅",
    "direction": "南",
    "floor": "",
    "price": "6200",
    "tags": "",
    "source": "",
    "url": "https://sz.lianjia.com/zufang/SZ2161680492783468544.html",
    "rent_type": "整租",
    "location": "龙岗区-布吉街-花语岸",
    "scraped_at": "2026-05-03 07:08:16",
    "region": "bujijie",
    "unit_price": 48.7,
    "lat": 22.615529,
    "lng": 114.111264
  },
  {
    "title": "整租·德福花园 3室2厅 南",
    "community": "德福花园",
    "area": "50.86",
    "rooms": "3室2厅",
    "direction": "南",
    "floor": "",
    "price": "2400",
    "tags": "",
    "source": "",
    "url": "https://sz.lianjia.com/zufang/SZ2073445186028961792.html",
    "rent_type": "整租",
    "location": "龙岗区-布吉街-德福花园",
    "scraped_at": "2026-05-03 07:08:16",
    "region": "bujijie",
    "unit_price": 47.2,
    "lat": 22.5979,
    "lng": 114.10053
  },
  {
    "title": "整租·德福花园 1室1厅 西",
    "community": "德福花园",
    "area": "43.00",
    "rooms": "1室1厅",
    "direction": "西",
    "floor": "",
    "price": "2350",
    "tags": "",
    "source": "",
    "url": "https://sz.lianjia.com/zufang/SZ1921114642126471168.html",
    "rent_type": "整租",
    "location": "龙岗区-布吉街-德福花园",
    "scraped_at": "2026-05-03 07:08:16",
    "region": "bujijie",
    "unit_price": 54.7,
    "lat": 22.5979,
    "lng": 114.10053
  },